id_left,primary_name_left,primary_category,alternate_category,region,locality,zipcode,address,latitude,longitude,plc_source_dataset,plc_source_update_time,plc_source_confidence,id_right,primary_name_right,subtype,class,bldg_dataset,bldg_update_time,bldg_confidence,source_city,is_office_by_pipeline
ff0d9d59-3410-4455-87d1-5b4fa3a727d7,Accenture,business_management_services,"['consultant_and_general_service', 'business_consulting', 'business_to_business_services', 'business_to_business']",CA,Irvine,92618.0,300 Spectrum Center Dr,33.6541152,-117.747551,Microsoft,2024-12-23T16:42:08.637Z,0.77,,,,,,,,mission-viejo,True
444a4e38-357f-4a56-99c9-c23d57bd83a2,Accenture,corporate_office,['private_establishments_and_corporates'],IN,Carmel,46032.0,11939 N Meridian Street,39.96582041186541,-86.15671475017348,Microsoft,2024-12-23T16:12:30.470Z,0.77,0bf05ddf-a995-44fe-81d1-4d55aac6897f,,,,OpenStreetMap,2021-02-13T02:43:08.000Z,,indianapolis,True
81e72957-8564-453f-a7a8-26223eeb54f8,Accenture,professional_services,['event_planning'],MN,Minneapolis,55402.0,333 7th St S,44.9742639,-93.2675373,meta,2025-06-02T07:00:00.000Z,0.9459263554653524,1346948d-459a-478d-bee7-1ff8eee92692,SPS Tower,commercial,office,OpenStreetMap,2025-04-19T17:13:48.000Z,,minneapolis,True
d9c869be-46be-4435-9d3e-3671ac09dc91,Accenture - Houston Office,professional_services,,TX,Houston,77002.0,1301 Fannin St,29.7535678,-95.3658499,meta,2025-06-02T07:00:00.000Z,0.9784508333782836,6ff79298-925e-4825-a30a-cc71d0d2eabf,,,,OpenStreetMap,2023-03-20T20:46:50.000Z,,houston,True
87f07857-a0dc-4fa5-8fb3-c0936b27e423,Accenture Houston Innovation Hub,business_management_services,"['consultant_and_general_service', 'business_consulting', 'business_to_business_services', 'corporate_office', 'business_to_business', 'private_establishments_and_corporates']",TX,Houston,77002.0,1301 Fannin Street,29.753639334696555,-95.36560752374356,Microsoft,2025-02-03T07:07:08.727Z,0.77,040fe64b-af3c-4faf-b6b0-aef765079c1c,,,,OpenStreetMap,2017-07-26T00:43:40.000Z,,houston,True
f94e9e99-1066-4860-b37b-6e0d7b2439a2,Accenture LLP,professional_services,"['bank_credit_union', 'financial_service']",NC,Charlotte,28273.0,8336 Forest Point Blvd,35.1301569,-80.9085123,meta,2025-06-02T07:00:00.000Z,0.4929396662387676,eec8c2c4-cad9-40b2-9de8-39b083a89370,,,,OpenStreetMap,2022-01-02T21:42:27.000Z,,charlotte,False
663e1ff1-2675-4d19-8622-de687c7e2592,Accenture,business_management_services,"['consultant_and_general_service', 'business_consulting', 'business_to_business_services', 'business_to_business']",NC,Charlotte,28203.0,1120 S Tryon St,35.2191684,-80.8529967,Microsoft,2024-12-23T16:42:08.637Z,0.77,,,,,,,,charlotte,True
be1d0267-8965-442d-8a64-1e3f61517dcd,Accenture,professional_services,['business_management_services'],MA,Boston,2199.0,888 Boylston St,42.3478619,-71.0840984,meta,2025-06-02T07:00:00.000Z,0.9784508333782836,7d3a0085-d5be-4bb1-8512-2fd9f80d3d62,Hynes Convention Center,commercial,commercial,OpenStreetMap,2025-03-24T17:41:07.000Z,,boston,False
7faf8fb4-fa50-4466-a316-faa14004cb0e,Accenture,translating_and_interpreting_services,"['professional_services', 'employment_agencies']",MA,Boston,2110.0,125 High St,42.3551934,-71.0528174,meta,2025-06-02T07:00:00.000Z,0.8860580325548478,2fae1c90-8ca2-4b88-8569-5bf04613ee21,,,,OpenStreetMap,2025-03-24T23:04:50.000Z,,boston,False
a394e53a-06c2-4ef5-97c8-4144776dc61d,Accenture,business_management_services,"['consultant_and_general_service', 'business_consulting', 'business_to_business_services', 'business_to_business']",MA,Somerville,2144.0,21 Whipple St,42.3947993,-71.1169249,Microsoft,2025-05-15T08:15:18.153Z,0.77,,,,,,,,boston,True
6c037640-014d-479c-a1d8-86f477832b3d,Accenture,business_management_services,"['consultant_and_general_service', 'business_consulting', 'business_to_business_services', 'business_to_business']",FL,Orlando,32819.0,9400 Southpark Center Loop,28.4307093,-81.4257149,Microsoft,2024-12-23T16:42:08.637Z,0.77,,,,,,,,orlando,True
bb5f9ddc-73c2-458d-a359-684e27c8185b,Accenture,business_management_services,"['consultant_and_general_service', 'business_consulting', 'business_to_business_services', 'business_to_business']",TX,Austin,78704.0,3601 S Congress Ave,30.2278841,-97.7603312,Microsoft,2025-05-12T06:21:24.560Z,0.77,,,,,,,,austin,True
7b42d1a5-1ddd-4a3f-a9b0-cef8801636fa,Accenture,professional_services,,TX,Austin,78701.0,323 Congress Ave,30.2658494,-97.7434162,meta,2025-06-02T07:00:00.000Z,0.9784508333782836,2b39d6e8-2eb6-43d0-a5f8-cbde78b603da,McKean-Eilers Building,,,OpenStreetMap,2022-02-18T19:48:08.000Z,,austin,False
7c70e49c-10e4-422f-acb1-6ee9c928c415,Accenture,professional_services,['business_management_services'],TX,Austin,78727.0,12365 Riata Trace Pkwy,30.4272928,-97.7412174,meta,2025-06-02T07:00:00.000Z,0.9415384615384615,,,,,,,,austin,False
34633d36-70f4-4a4b-b429-9c12e712ce45,Accenture Digital Delivery Center,professional_services,,MI,Detroit,48226.0,1449 Woodward Ave,42.3319759,-83.0475311,meta,2025-06-02T07:00:00.000Z,0.9784508333782836,f10fb13b-73bf-46a2-9e7c-e25b98ccd2e5,1001 Woodward,commercial,commercial,OpenStreetMap,2022-08-03T13:43:49.000Z,,detroit,False
7eba6519-49b7-4087-8687-d823764eac98,Accenture,business_management_services,"['consultant_and_general_service', 'business_consulting', 'business_to_business_services', 'business_to_business']",CA,Mountain View,94041.0,650 Castro St,37.3878753,-122.0826137,Microsoft,2024-12-23T16:42:08.637Z,0.77,,,,,,,,san-jose,True
cdfa9b4f-c9d6-4785-a25d-8c08649a8bf4,Accenture Technology Labs - Silicon Valley,software_development,['professional_services'],CA,San Jose,95113.0,50 W San Fernando St,37.3339842,-121.8893858,meta,2025-06-02T07:00:00.000Z,0.9300613496932516,8c422065-61c3-4e6f-9f4a-4cbe3c8c98e5,50 West,commercial,commercial,OpenStreetMap,2022-05-23T01:36:44.000Z,,san-jose,True
5fcbd2ee-fc69-4404-bd7f-26918d2fe643,Accenture Carpet Company,carpet_store,"['professional_services', 'home_cleaning']",CA,Chula Vista,91910.0,45 3rd Ave,32.6500753,-117.084585,meta,2025-06-02T07:00:00.000Z,0.909823677581864,,,,,,,,san-diego,True
5a240c55-7e58-45c3-9d31-bdd66c94bfc4,Accenture,professional_services,['information_technology_company'],CA,San Diego,92108.0,1615 Murray Canyon Rd,32.7752727,-117.1575886,meta,2025-06-02T07:00:00.000Z,0.9297091412742382,b55b4852-e359-49ed-835c-7b383a6a9afe,,,,OpenStreetMap,2019-08-22T22:15:34.000Z,,san-diego,True
4a30908d-5b55-4e10-a3f7-59b0cb7c7819,Accenture,professional_services,['business_management_services'],CA,San Diego,92130.0,12680 High Bluff Dr,32.9489395,-117.2415341,meta,2025-06-02T07:00:00.000Z,0.9297091412742382,3a5da197-eef8-43ed-b035-cf6cd458324c,,,,OpenStreetMap,2009-03-06T11:42:45.000Z,,san-diego,False
0d00592d-6bea-4798-ae8a-6e90992baa1e,"Accenture - Miami, Florida",professional_services,['business_management_services'],FL,Miami,33126.0,5201 Blue Lagoon Dr,25.7831223,-80.2809375,meta,2025-06-02T07:00:00.000Z,0.9784508333782836,bed2413d-f1a5-45ab-81ab-78f57fc4c2d1,,,,OpenStreetMap,2016-08-03T20:24:20.000Z,,miami,False
a7beb900-b22f-471d-83c1-0fd345834c69,Accenture,business_management_services,"['consultant_and_general_service', 'business_consulting', 'business_to_business_services', 'business_to_business']",NC,Raleigh,27601.0,555 Fayetteville St,35.7732721,-78.6394851,Microsoft,2024-12-23T16:42:08.637Z,0.77,,,,,,,,raleigh,True
4ce22c82-956b-4bcb-aa29-bffe56e50eca,Accenture,professional_services,['information_technology_company'],PA,Pittsburgh,15222.0,"K&L Gates, 210 6th Ave",40.4419546,-79.9999729,meta,2025-06-02T07:00:00.000Z,0.9784508333782836,229f95a9-4a59-49bc-b1db-0424bc4c0b80,K&L Gates Center,,,OpenStreetMap,2017-09-23T16:17:49.000Z,,pittsburgh,True
48520b9f-3537-435e-b95e-a34ca515767b,Accenture,business_management_services,"['consultant_and_general_service', 'accountant', 'business_consulting', 'business_to_business_services', 'corporate_office', 'business_to_business', 'private_establishments_and_corporates']",CT,Hartford,6103.0,280 Trumbull St,41.7685533,-72.6754481,Microsoft,2024-12-23T16:42:08.637Z,0.77,,,,,,,,hartford,True
2142c95a-8d03-48ab-bfac-6f4ab1740e3f,Accenture,professional_services,['accountant'],CT,Hartford,6103.0,755 Main St,41.7654304,-72.6736445,meta,2025-06-02T07:00:00.000Z,0.9204819277108434,,,,,,,,hartford,False
9ca9746b-bbdc-474c-a187-f0eb28066e91,Accenture,professional_services,"['business_management_services', 'information_technology_company']",PA,Berwyn,19312.0,1160 W Swedesford Rd,40.0606794,-75.4654359,meta,2025-06-02T07:00:00.000Z,0.9459263554653524,,,,,,,,philadelphia,True
4ada656a-fffc-47c2-ad53-54f5cdc55851,Accenture Philadelphia,professional_services,['business_management_services'],PA,Philadelphia,19103.0,2005 Market St,39.9539454,-75.1736054,meta,2025-06-02T07:00:00.000Z,0.9784508333782836,bfdfd12a-030d-48de-b470-61255e0ea86f,Two Commerce Square,commercial,commercial,OpenStreetMap,2015-03-30T13:21:20.000Z,,philadelphia,False
ed39d607-c866-4148-8a38-5dd79d427445,Accenture,professional_services,['business_management_services'],CA,San Francisco,94105.0,415 Mission St,37.7898689,-122.3969621,meta,2025-06-02T07:00:00.000Z,0.9784508333782836,626a57f8-ccf3-497d-a764-266e91e9253d,Salesforce Tower,commercial,office,OpenStreetMap,2024-07-18T21:12:26.000Z,,san-francisco,False
a5bd00f3-876e-40dd-8c14-a533433b240b,Accenture Columbus Innovation Hub,business_management_services,"['consultant_and_general_service', 'business_consulting', 'business_to_business_services', 'business_to_business']",OH,Columbus,43215.0,400 W Nationwide Blvd,39.9677457,-83.012767,Microsoft,2025-02-03T07:07:08.727Z,0.77,,,,,,,,columbus-ohio,False
a1ac9624-cf7f-455b-9ac9-7d8c1f5d34fe,Accenture,professional_services,,OH,Columbus,43215.0,400 W Nationwide Blvd,39.9685344,-83.012627,meta,2025-06-02T07:00:00.000Z,0.9784508333782836,113e936c-9665-40aa-b72f-4aedff4dc718,,,,OpenStreetMap,2022-10-27T15:48:23.000Z,,columbus-ohio,False
8b57c712-12d5-4b1f-a151-2288d9b8d194,Accenture Seattle Innovation Hub,professional_services,['information_technology_company'],WA,Seattle,98101.0,1191 2nd Ave,47.6062599,-122.3365101,meta,2025-06-02T07:00:00.000Z,0.9784508333782836,355a4342-1766-4d88-97aa-6aed70e44757,Second & Seneca Building,commercial,office,OpenStreetMap,2024-03-29T02:19:38.000Z,,seattle,True
51588d69-a2ad-4a0b-8a02-d27f0a6c7412,Accenture,business_management_services,"['marketing_consultant', 'consultant_and_general_service', 'business_consulting', 'business_advertising', 'business_to_business_services', 'business_to_business']",WA,Kirkland,98033.0,416 6th Street South,47.67272140843898,-122.19561143067112,Microsoft,2024-12-23T16:42:08.637Z,0.77,4073e78a-0456-43b1-acfb-448841ffde27,,,,OpenStreetMap,2024-07-30T04:20:20.000Z,,seattle,False
40e1be55-b26c-4f8a-be13-f192f496e822,Accenture,professional_services,['information_technology_company'],WA,Redmond,98052.0,"Opportunity Building, 8383 158th Ave NE",47.6769501,-122.1309577,meta,2025-06-02T07:00:00.000Z,0.9784508333782836,20ae6d7a-319f-4dcb-b7cd-0e5e4fd45de0,Opportunity Building,commercial,office,OpenStreetMap,2021-11-21T21:06:53.000Z,,seattle,True
486d577e-9661-4d68-9490-ce5511d9128e,Accenture,business_management_services,"['consultant_and_general_service', 'business_consulting', 'business_to_business_services', 'corporate_office', 'business_to_business', 'private_establishments_and_corporates']",WA,Redmond,98052.0,8383 158th Ave NE,47.6767777,-122.1303168,Microsoft,2024-12-23T16:42:08.637Z,0.77,,,,,,,,seattle,True
bb347409-b3ad-490e-a41b-06764021b043,GrowthKit: Powered by Accenture Song,videographer,"['professional_services', 'marketing_agency']",IL,Chicago,60661.0,500 W Madison St,41.8823045,-87.640388,meta,2025-06-02T07:00:00.000Z,0.8860580325548478,7ef67bdf-bd21-4cd3-8452-beaaf339bb09,Ogilvie Transportation Center,transportation,train_station,OpenStreetMap,2025-02-20T16:46:21.000Z,,chicago,False
bb347409-b3ad-490e-a41b-06764021b043,GrowthKit: Powered by Accenture Song,videographer,"['professional_services', 'marketing_agency']",IL,Chicago,60661.0,500 W Madison St,41.8823045,-87.640388,meta,2025-06-02T07:00:00.000Z,0.8860580325548478,54622bdc-2fcc-432b-8639-3e4e8063c6d5,Accenture Tower,commercial,office,OpenStreetMap,2024-07-15T17:55:45.000Z,,chicago,False
e89a161d-adcb-418a-b118-bbfb43bc7a2e,Accenture,professional_services,['business_management_services'],FL,St Petersburg,33716.0,140 Fountain Pkwy N,27.8922071,-82.6564267,meta,2025-06-02T07:00:00.000Z,0.9784508333782836,9f72b11f-4833-4a5f-8297-35f4ac7ca0fb,Franklin Templeton,,,OpenStreetMap,2021-09-27T19:13:40.000Z,,st-petersburg,False
13898a7c-3fd3-481c-9302-b0e4a015bf65,Accenture,professional_services,,GA,Atlanta,30308.0,75 5th St NW,33.7775863,-84.3891232,meta,2025-06-02T07:00:00.000Z,0.9784508333782836,193b3bf2-7356-42e5-a1a6-19953bb54395,,,,OpenStreetMap,2020-04-15T16:42:32.000Z,,atlanta,False
30d718ca-aef8-4d87-b9d2-98e0d6e0865a,Accenture Atlanta Advance Technology Center,business_management_services,"['consultant_and_general_service', 'business_consulting', 'business_to_business_services', 'business_to_business']",GA,Atlanta,30305.0,"3565 Piedmont Road, NE Building 3",33.8515405,-84.3797236,Microsoft,2024-12-23T17:21:00.830Z,0.77,,,,,,,,atlanta,True
73c0104b-af3e-4323-b38a-82b6fdfaaf90,Accenture,professional_services,['information_technology_company'],GA,Atlanta,30305.0,3565 Piedmont Rd NE,33.8522671,-84.3788123,meta,2025-06-02T07:00:00.000Z,0.9784508333782836,594bcc93-99d4-432e-8a0c-2a72b36591e0,,,,OpenStreetMap,2022-04-10T00:44:38.000Z,,atlanta,True
5d2d08a6-338f-4924-8079-7f5849993b45,Accenture Nashville Advanced Technology Center,business_management_services,"['consultant_and_general_service', 'business_consulting', 'business_to_business_services', 'business_to_business']",TN,Nashville,37209.0,4101 Charlotte Ave,36.1517083,-86.8363009,Microsoft,2024-12-23T16:42:08.637Z,0.77,,,,,,,,nashville-davidson,True
60343a3b-fa06-42d4-82ea-5de3d9800852,Accenture,professional_services,['business_management_services'],TN,Nashville,37214.0,616 Marriott Dr,36.1445759,-86.6905985,meta,2025-06-02T07:00:00.000Z,0.1666666666666666,9f7fadfa-ca31-48c0-9a42-c2f1b93af5fb,,,,Esri Community Maps,2024-10-15T00:00:00.000Z,,nashville-davidson,False
140c20e9-0c38-4291-a11b-5eda05defcab,Accenture,professional_services,['information_technology_company'],IA,Des Moines,50309.0,909 Locust St,41.5860725,-93.6292404,meta,2025-06-02T07:00:00.000Z,0.9415384615384615,f9471265-fce5-41fd-a509-4a678027f078,,commercial,office,OpenStreetMap,2022-08-27T16:22:42.000Z,,des-moines,True
02ea5726-6b56-45a7-8787-57a68714b826,Accenture,professional_services,['business_management_services'],SC,Columbia,29201.0,1441 Main St,34.0048859,-81.0353643,meta,2025-06-02T07:00:00.000Z,0.909823677581864,6087bde9-2660-416e-a3e7-f998a84a210e,1441 Main,commercial,commercial,OpenStreetMap,2024-12-17T21:48:40.000Z,,columbia-south-carolina,False
47108e77-5f9c-4f11-a243-8f6531412ee7,Accenture,professional_services,['information_technology_company'],MD,Annapolis Junction,20701.0,430 National Business Pkwy,39.1353778,-76.7683776,meta,2025-06-02T07:00:00.000Z,0.909823677581864,67241f4d-60c2-4094-85c3-bd6c88e1f718,,,,OpenStreetMap,2015-01-02T01:44:52.000Z,,baltimore,True
e5673000-3e02-4922-8fc3-ddc6d5c57237,Accenture,business_management_services,"['consultant_and_general_service', 'business_consulting', 'business_to_business_services', 'business_to_business']",TX,Irving,75039.0,5205 N O Connor Blvd,32.8700322,-96.9394776,Microsoft,2024-12-23T17:21:00.830Z,0.77,,,,,,,,dallas,True
c3d2715e-71d0-4698-b8fd-e0ae80c0f74c,Accenture,professional_services,['business_management_services'],TX,Irving,75039.0,5205 N O'Connor Blvd,32.8704347,-96.9396509,meta,2025-06-02T07:00:00.000Z,0.9784508333782836,ddd4bf36-8f3d-4fa5-9b5b-3ca6d90ebff8,West Tower,commercial,office,OpenStreetMap,2024-11-13T21:34:55.000Z,,dallas,False
ed39d607-c866-4148-8a38-5dd79d427445,Accenture,professional_services,['business_management_services'],CA,San Francisco,94105.0,415 Mission St,37.7898689,-122.3969621,meta,2025-06-02T07:00:00.000Z,0.9784508333782836,626a57f8-ccf3-497d-a764-266e91e9253d,Salesforce Tower,commercial,office,OpenStreetMap,2024-07-18T21:12:26.000Z,,oakland,False
7e7db32f-133a-42a3-acbb-39bb8decc246,Accenture,business_consulting,,WI,Milwaukee,53202.0,790 N Milwaukee St,43.0409209,-87.9067967,Microsoft,2024-12-23T16:42:08.637Z,0.77,,,,,,,,milwaukee,False
684e0ba2-25da-46db-bf06-a41bf1248dae,Accenture,professional_services,['information_technology_company'],KS,Overland Park,66210.0,7300 W 110th St,38.9309591,-94.6707411,meta,2025-06-02T07:00:00.000Z,0.9415384615384615,6133e05b-5a08-40f3-9e56-1b5e7f1c9e9e,,,,OpenStreetMap,2015-03-30T19:25:56.000Z,,kansas-city,True
d82399e7-4e45-4b76-a689-1ff2d69a92b8,Accenture,business_management_services,"['consultant_and_general_service', 'business_consulting', 'business_to_business_services', 'business_to_business']",OR,Beaverton,97005.0,4145 SW Watson Avenue,45.48979845635279,-122.80659100483852,Microsoft,2024-12-23T16:42:08.637Z,0.77,5d8a8dcd-36fb-4924-bab6-cb1a48f6aa46,Watson Building,commercial,office,OpenStreetMap,2023-10-18T00:49:48.000Z,,portland,True
4c6b4a42-803e-45a6-968c-3a2259b4aadd,Accenture,business_management_services,"['consultant_and_general_service', 'business_consulting', 'business_to_business_services', 'business_to_business']",OR,Portland,97227.0,4075 N Williams Ave Ste 240,45.5531429,-122.666753,Microsoft,2025-01-10T07:11:14.867Z,0.77,,,,,,,,portland,True
b42f2c7f-dd90-4a97-a080-f380cf4ff0ff,Accenture,event_planning,,VA,Chantilly,20151.0,14850 Conference Center Dr,38.8743263,-77.460371,meta,2025-06-02T07:00:00.000Z,0.296943231441048,c0201122-7cdf-40da-a9d2-04f2ef27f301,,,,OpenStreetMap,2022-09-08T21:01:41.000Z,,washington-dc,True
25a9643c-8d8c-4891-a7f4-7ecd071d56dd,Accenture,professional_services,"['business_management_services', 'information_technology_company']",VA,Arlington,22203.0,800 N Glebe Rd,38.880307,-77.1149559,meta,2025-06-02T07:00:00.000Z,0.9297091412742382,36c882c8-53fc-4adc-97d6-6214aedae32e,800 North Glebe,commercial,office,OpenStreetMap,2022-03-23T23:05:25.000Z,,washington-dc,True
c715c812-aad2-4eb9-81ec-69f76e4eb4a0,Accenture,business_management_services,"['consultant_and_general_service', 'business_consulting', 'business_to_business_services', 'business_to_business']",VA,Arlington,22209.0,1201 Wilson Blvd,38.8951568,-77.0711719,Microsoft,2025-02-03T07:07:08.727Z,0.77,,,,,,,,washington-dc,True
f2f86b4e-a810-423d-b3b7-3e735e3ea67c,Accenture Cyber Fusion Center,professional_services,['information_technology_company'],VA,Arlington,22209.0,1201 Wilson Blvd,38.8956128,-77.0709979,meta,2025-06-02T07:00:00.000Z,0.9784508333782836,1d4ad4c9-5b7c-498c-a7f2-8bc8f3f37aca,Central Place Tower,commercial,office,OpenStreetMap,2024-04-30T02:24:27.000Z,,washington-dc,True
5a56b598-5a0c-4312-98de-c5f538c9a455,Accenture Federal Digital Studio,professional_services,,DC,Washington,20005.0,1201 New York Ave NW,38.9009381,-77.0286494,meta,2025-06-02T07:00:00.000Z,0.9784508333782836,5f38da08-ff8c-49d0-aec9-3563ea0cd875,,,,OpenStreetMap,2025-01-24T04:27:29.000Z,,washington-dc,False
c4c4f0e5-6fd0-43c7-8b89-9d916a620ede,"The ForgeÂ®, Accenture Federal Services",business_management_services,"['consultant_and_general_service', 'business_consulting', 'business_to_business_services', 'business_to_business']",DC,Washington,20005.0,1201 New York Avenue Northwest,38.9007958,-77.0285713,Microsoft,2024-12-27T07:07:42.540Z,0.77,5f38da08-ff8c-49d0-aec9-3563ea0cd875,,,,OpenStreetMap,2025-01-24T04:27:29.000Z,,washington-dc,True
564819b0-9b6a-4d95-acc8-927990ce3cb1,Accenture,business_management_services,"['consultant_and_general_service', 'business_consulting', 'business_to_business_services', 'business_to_business']",OK,Oklahoma City,73103.0,525 NW 11th St,35.4800383,-97.5222089,Microsoft,2024-12-23T16:42:08.637Z,0.77,,,,,,,,oklahoma-city,True
17a048c7-d060-4903-823b-da0b347aaa01,Accenture,business_consulting,,OK,Oklahoma City,73102.0,100 N Broadway Ave #3100,35.4681429,-97.5144334,Microsoft,2025-04-09T06:19:22.790Z,0.77,,,,,,,,oklahoma-city,False
4232b985-28aa-430c-8228-4ec77a93391b,Accenture,professional_services,"['business_management_services', 'software_development']",TX,San Antonio,78238.0,7050 Fairgrounds Pkwy,29.4574571,-98.6185466,meta,2025-06-02T07:00:00.000Z,0.9784508333782836,13e85cbd-7d7b-4986-8947-3cf300f7c750,Accenture,commercial,office,OpenStreetMap,2020-12-26T08:57:14.000Z,,san-antonio,True
ec6f4ee9-7934-4f5a-a803-fc711a7fe824,Accenture,professional_services,['business_management_services'],TX,San Antonio,78249.0,6415 Babcock Rd,29.5456889,-98.6134669,meta,2025-06-02T07:00:00.000Z,0.9784508333782836,768aaa52-6f8b-49f7-ad4e-a946f7468397,,,,OpenStreetMap,2024-07-04T01:53:12.000Z,,san-antonio,False
030ebec9-0239-4348-91e7-db4d21c17dc6,Accenture,business_management_services,"['consultant_and_general_service', 'business_consulting', 'business_to_business_services', 'corporate_office', 'business_to_business', 'private_establishments_and_corporates']",TX,San Antonio,78249.0,6415 Babcock Road,29.54564766497496,-98.61322076074794,Microsoft,2024-12-23T17:21:00.830Z,0.77,768aaa52-6f8b-49f7-ad4e-a946f7468397,,,,OpenStreetMap,2024-07-04T01:53:12.000Z,,san-antonio,True
91b2aa44-e762-49c0-bd33-326c9707cbbc,Accenture Laureate,professional_services,"['information_technology_company', 'business_management_services']",TX,San Antonio,78249.0,10931 Laureate Dr,29.5453899,-98.5868193,meta,2025-06-02T07:00:00.000Z,0.9415384615384615,3af8e75e-935b-4b5e-a5a4-9fa8f9df44ad,,,,OpenStreetMap,2018-10-19T02:13:42.000Z,,san-antonio,True
9604b612-ab20-4b45-97fb-fce89e8e067f,Accenture,business_management_services,"['consultant_and_general_service', 'business_consulting', 'business_to_business_services', 'corporate_office', 'business_to_business', 'private_establishments_and_corporates']",CO,Denver,80202.0,999 18th St S r,39.7487228,-104.9919201,Microsoft,2024-12-23T16:42:08.637Z,0.77,,,,,,,,denver,True
7c04a1be-2fe1-4879-88c4-1f2e74d9f215,"Mortgage Cadence, an Accenture Company",mortgage_broker,"['financial_service', 'installment_loans']",CO,Denver,80202.0,999 18th St,39.74921,-104.9913,meta,2025-06-02T07:00:00.000Z,0.3376623376623376,015eb5e5-a4cb-4176-8714-1a4d757647c5,Denver Place Building,commercial,commercial,OpenStreetMap,2019-11-02T21:37:57.000Z,,denver,False
f4447063-2930-4d5a-a8c0-2db222f27fc8,Accenture US,professional_services,['information_technology_company'],NY,New York,10001.0,395 9th Ave,40.7526606,-73.9973012,meta,2025-06-02T07:00:00.000Z,0.9784508333782836,aae41971-3009-46da-9ce3-0fd859c11735,One Manhattan West,commercial,office,OpenStreetMap,2024-01-12T06:01:33.000Z,,new-york,True
559b3c11-8bfd-470e-a755-eb43928009ed,Accenture - One Manhattan West,business_management_services,"['marketing_consultant', 'consultant_and_general_service', 'business_consulting', 'business_advertising', 'business_to_business_services', 'business_to_business']",NY,New York,10001.0,395 9th Avenue,40.7528848,-73.9975259,Microsoft,2024-12-23T16:42:08.637Z,0.77,aae41971-3009-46da-9ce3-0fd859c11735,One Manhattan West,commercial,office,OpenStreetMap,2024-01-12T06:01:33.000Z,,new-york,False
7abf912d-dc5a-44a3-a591-34574095f797,"Knowledgent, Part of Accenture",professional_services,['software_development'],NJ,Warren,7059.0,3 Mountain View Rd,40.7571321,-73.9824291,meta,2025-06-02T07:00:00.000Z,0.296943231441048,,,,,,,,new-york,True
ac9fc591-5d5a-47c3-a531-420c22dfb542,Accenture,business_management_services,"['consultant_and_general_service', 'coworking_space', 'business_consulting', 'business_to_business_services', 'business_to_business']",NY,New York,10019.0,1350 Avenue of the Americas,40.762533,-73.977765,Microsoft,2019-12-29T01:18:33.527Z,0.77,7c6d2ae9-ef39-4ddc-a5b6-d09923060558,Warwick Hotel,,,OpenStreetMap,2023-12-08T01:12:06.000Z,,new-york,True
ac9fc591-5d5a-47c3-a531-420c22dfb542,Accenture,business_management_services,"['consultant_and_general_service', 'coworking_space', 'business_consulting', 'business_to_business_services', 'business_to_business']",NY,New York,10019.0,1350 Avenue of the Americas,40.762533,-73.977765,Microsoft,2019-12-29T01:18:33.527Z,0.77,e2e72eff-3df0-4d55-b1b3-1c6cc6cee7f7,MGM Building,commercial,commercial,OpenStreetMap,2023-11-09T21:49:35.000Z,,new-york,True
762f2832-410b-48fa-81ea-c1a972af5bee,Accenture Office,professional_services,['business_management_services'],NJ,Florham Park,7932.0,500 Campus Dr,40.7854977,-74.4235469,meta,2025-06-02T07:00:00.000Z,0.9459263554653524,4715a615-9d1c-40ae-9286-03d3eafc72c6,,,,OpenStreetMap,2019-11-06T21:20:38.000Z,,new-york,True
ff0d9d59-3410-4455-87d1-5b4fa3a727d7,Accenture,business_management_services,"['consultant_and_general_service', 'business_consulting', 'business_to_business_services', 'business_to_business']",CA,Irvine,92618.0,300 Spectrum Center Dr,33.6541152,-117.747551,Microsoft,2024-12-23T16:42:08.637Z,0.77,,,,,,,,los-angeles,True
94e4c334-9c2b-4e56-a424-43f96aaa10c0,Accenture,professional_services,['business_management_services'],CA,Culver City,90230.0,800 Corporate Pointe,33.9882413,-118.3876868,meta,2025-06-02T07:00:00.000Z,0.9297091412742382,cf84ded3-5185-44d5-b648-422b060e9e24,Symantec,commercial,commercial,OpenStreetMap,2019-02-17T17:28:47.000Z,,los-angeles,False
734d9218-5eb3-449a-9a34-bb8fe85828df,Accenture,professional_services,['business_management_services'],CA,Los Angeles,90013.0,1003 E 4th Pl,34.0420582,-118.2334554,meta,2025-06-02T07:00:00.000Z,0.9784508333782836,337758c9-acbc-4391-abd3-f8c2b269bd74,,,,OpenStreetMap,2016-06-27T15:54:21.000Z,,los-angeles,False
734d9218-5eb3-449a-9a34-bb8fe85828df,Accenture,professional_services,['business_management_services'],CA,Los Angeles,90013.0,1003 E 4th Pl,34.0420582,-118.2334554,meta,2025-06-02T07:00:00.000Z,0.9784508333782836,32ef8343-2395-4e53-9b14-eb6c548da067,,industrial,industrial,OpenStreetMap,2016-06-27T15:54:20.000Z,,los-angeles,False
0e565d02-4182-44df-b078-c1c0ecac94f8,Accenture,professional_services,"['business_management_services', 'information_technology_company']",OH,Cincinnati,45202.0,"Atrium One, 201 E 4th St",39.1000734,-84.5088966,meta,2025-06-02T07:00:00.000Z,0.9784508333782836,9168db24-645e-4536-b4c9-b8eae26c25c7,Atrium One,commercial,commercial,OpenStreetMap,2021-03-12T17:50:54.000Z,,cincinnati,True
3e91f12d-78a8-429a-9714-0b8fa2702b4f,Accenture,business_management_services,"['consultant_and_general_service', 'business_consulting', 'business_to_business_services', 'corporate_office', 'business_to_business', 'private_establishments_and_corporates']",OH,Cincinnati,45202.0,"Atrium One, 201 East Fourth Street",39.10028258396237,-84.5089191496092,Microsoft,2024-12-23T17:21:00.830Z,0.77,9168db24-645e-4536-b4c9-b8eae26c25c7,Atrium One,commercial,commercial,OpenStreetMap,2021-03-12T17:50:54.000Z,,cincinnati,True
ab6d4c46-5557-4870-be01-4bd36e39b0fb,Accenture,professional_services,['bicycle_shop'],CA,Sacramento,95811.0,1610 R St,38.5687232,-121.4886986,meta,2025-06-02T07:00:00.000Z,0.9459263554653524,17579b25-8183-4650-8d9d-91ab18a7aa21,,commercial,retail,OpenStreetMap,2023-09-12T17:30:34.000Z,,sacramento,False
9e751ec5-7c28-4e1b-b6b1-d4ee87f2f0b4,Accenture,business_management_services,"['consultant_and_general_service', 'business_consulting', 'business_to_business_services', 'business_to_business']",CA,Rancho Cordova,95670.0,"ACS Sacramento Delivery Center, 3343 Capital Center Drive",38.58276,-121.291106,Microsoft,2024-12-23T16:42:08.637Z,0.77,2c6a9603-0653-498e-aee7-6c23d0f25e9c,,,,Microsoft ML Buildings,2022-04-24T00:00:00.000Z,,sacramento,True
49e4d44a-52bb-465e-b333-2e32fad8b327,Accenture,professional_services,['business_management_services'],MO,St Louis,63110.0,4220 Duncan Ave,38.6347856,-90.2503934,meta,2025-06-02T07:00:00.000Z,0.9784508333782836,b5599e0c-1025-4ff3-9721-af21a67224b2,4220 Duncan,commercial,office,OpenStreetMap,2025-03-13T15:07:35.000Z,,st-louis,False
49e4d44a-52bb-465e-b333-2e32fad8b327,Accenture,professional_services,['business_management_services'],MO,St Louis,63110.0,4220 Duncan Ave,38.6347856,-90.2503934,meta,2025-06-02T07:00:00.000Z,0.9784508333782836,9e769f04-4dcd-4d12-a2e1-bcf5662d4914,,outbuilding,roof,OpenStreetMap,2025-03-13T15:07:35.000Z,,st-louis,False
72e07063-13cb-40e2-b7dc-43a3a7527be1,Accenture,business_management_services,"['consultant_and_general_service', 'business_consulting', 'business_to_business_services', 'business_to_business']",PA,Mechanicsburg,17055.0,"The Executive Offices at Rossmoyne Office #30, 5000 Ritter Road",40.2056273,-76.9596692,Microsoft,2024-12-23T16:42:08.637Z,0.77,,,,,,,,harrisburg,True
4fc30753-e48b-4817-8486-cc9bfad93c65,Accenture,professional_services,['information_technology_company'],PA,Mechanicsburg,17055.0,5000 Ritter Rd,40.2059592,-76.960539,meta,2025-06-02T07:00:00.000Z,0.9415384615384615,,,,,,,,harrisburg,True
58f5ef68-6438-4a1b-9236-d3b74e268034,Accenture,professional_services,['information_technology_company'],OH,Cleveland,44113.0,1400 W 10th St,41.4975374,-81.700914,meta,2025-06-02T07:00:00.000Z,0.9784508333782836,66049a42-8b2d-4215-9739-f9c23b755b14,,,,OpenStreetMap,2015-08-03T21:08:08.000Z,,cleveland,True
