id_left,primary_name_left,primary_category,alternate_category,id_right,primary_name_right,subtype,class,source_city,region,locality,zipcode,address,latitude,longitude,plc_source_dataset,plc_source_update_time,plc_source_confidence,bldg_dataset,bldg_update_time,bldg_confidence,is_office_by_pipeline
0413cfbd-c45f-4148-983a-222f57b8eaf3,Alexandria Pike Animal Hospital,veterinarian,"['pet_services', 'hospital']",79dcb3a6-c6ae-431b-bf59-b68b3dd95085,Alexandria Pike Animal Hospital,civic,,cincinnati,KY,Southgate,41071.0,333 Bluegrass Ave,39.0751216,-84.4771273,meta,2025-06-02T07:00:00.000Z,0.9784508333782836,OpenStreetMap,2024-03-07T17:57:16.000Z,,False
af653546-b939-41ae-beb7-39bdce7aef7f,Inked By Dalton Alexandria Private Tattoo Shop,tattoo_and_piercing,,ea361372-13d9-4457-8049-68c98d2d996a,,,,cincinnati,OH,Cincinnati,45242.0,Reed Hartman hwy,39.2657462,-84.3802802,meta,2025-06-02T07:00:00.000Z,0.3376623376623376,OpenStreetMap,2010-03-07T23:47:33.000Z,,False
dc94b86a-d4f0-495d-8e83-b99dd70019c1,Alexandria Garden,landmark_and_historical_building,"['real_estate', 'social_service_organizations']",07a01129-b7df-4e05-a444-66bba8928e98,,residential,apartments,tampa,FL,Tampa,33629.0,3814 W Euclid Ave,27.9084785,-82.5071124,meta,2025-06-02T07:00:00.000Z,0.9784508333782836,OpenStreetMap,2023-10-14T04:34:54.000Z,,False
59c9cc1e-f78b-42e8-97e2-f63a36e57eee,dr.alexandria.reyes,obstetrician_and_gynecologist,['doctor'],,,,,tampa,FL,Tampa,33609.0,3216 W Azeele St,27.9408,-82.4965515,meta,2025-06-02T07:00:00.000Z,0.242152466367713,,,,False
2cc8b873-d4b7-45bd-8642-000b7e866911,Alexandria Kitsilis Shawomet Realty Co,real_estate_agent,,,,,,providence,RI,Warwick,2886.0,33 College Hill Rd,41.7136599,-71.4867641,meta,2025-06-02T07:00:00.000Z,0.296943231441048,,,,False
e6fe5a21-b284-4747-8e6d-f1487116023e,Alexandria Hollow - RE/MAX Realty Team,real_estate_agent,['real_estate_service'],40fc7bd6-a666-477a-90a9-3083d514ea8a,,commercial,commercial,cape-coral,FL,Cape Coral,33990.0,2326 Del Prado Blvd S,26.60803,-81.94175,meta,2025-06-02T07:00:00.000Z,0.242152466367713,OpenStreetMap,2015-11-19T00:18:34.000Z,,False
e6fe5a21-b284-4747-8e6d-f1487116023e,Alexandria Hollow - RE/MAX Realty Team,real_estate_agent,['real_estate_service'],de71409c-7516-4168-ae1d-cc2e2f5a3221,,commercial,commercial,cape-coral,FL,Cape Coral,33990.0,2326 Del Prado Blvd S,26.60803,-81.94175,meta,2025-06-02T07:00:00.000Z,0.242152466367713,OpenStreetMap,2015-11-19T00:18:01.000Z,,False
a3ea3fda-2677-4a01-b109-f9d3d572a223,"Alexandria Danilovitch, Realtor, Coldwell Banker Tomlinson",real_estate_agent,"['real_estate', 'real_estate_service']",60d0ae6c-2b5a-4693-8820-c622f59da643,Coldwell Banker,,,boise-city,ID,Boise,83702.0,516 S Capitol Blvd,43.61127,-116.20541,meta,2025-06-02T07:00:00.000Z,0.296943231441048,OpenStreetMap,2024-01-17T09:53:56.000Z,,False
ad0599f8-7281-4ea1-a882-e274a49c7415,Alexandria C Caldwell DO,pediatrician,"['doctor', 'health_and_medical']",158071de-b8d4-485b-b806-a1d865b78edf,,,,oklahoma-city,OK,Oklahoma City,73104.0,1200 Childrens Ave Ste 6A,35.4812927246094,-97.4977416992188,Microsoft,2019-06-03T03:14:12.730Z,0.77,OpenStreetMap,2025-01-10T12:04:07.000Z,,False
44d3e79b-0a8f-410d-b7c3-72117b15535d,Beauty by Alexandria,beauty_salon,"['beauty_and_spa', 'cosmetic_and_beauty_supplies']",e189f6dd-f445-4ce1-a36c-b88bc645e193,,commercial,retail,riverside-san-bernardino,,,92879.0,"591 N McKinley St 104, Suite #133",33.8918497,-117.5185794,meta,2025-06-02T07:00:00.000Z,0.8831168831168831,OpenStreetMap,2023-01-17T01:14:29.000Z,,False
3ef96f0d-42e8-460c-9bca-054ad7a92fc5,Issac & Alexandria Garcia REALTORS,real_estate_agent,,2b5fc507-8c18-4eca-969a-4e317f0394ce,,,,riverside-san-bernardino,CA,Rancho Cucamonga,91730.0,10803 Foothill Blvd Ste 110,34.1053954,-117.5690084,Microsoft,2025-05-18T22:39:11.613Z,0.77,OpenStreetMap,2018-06-21T00:43:52.000Z,,False
4acbe3b6-1061-4496-bb0b-a358befd2572,Isaac and Alexandria Garcia Realtors,real_estate_agent,"['real_estate', 'professional_services']",2b5fc507-8c18-4eca-969a-4e317f0394ce,,,,riverside-san-bernardino,CA,Rancho Cucamonga,91730.0,10803 Foothill Blvd,34.1055194,-117.5690278,meta,2025-06-02T07:00:00.000Z,0.9459263554653524,OpenStreetMap,2018-06-21T00:43:52.000Z,,False
a625161a-215d-41f2-98a2-ee32c3201fdc,St. Catherine Of Alexandria Parish School,elementary_school,"['school', 'private_school']",8b874476-0ae5-4c17-9798-89af2b2dafce,,,,riverside-san-bernardino,CA,Riverside,92506.0,7025 Brockton Ave,33.945832,-117.3973609,meta,2025-06-02T07:00:00.000Z,0.9784508333782836,OpenStreetMap,2019-07-24T21:52:33.000Z,,False
934a256e-2506-4f11-89a4-3f982fb5ff12,St. Catherine of Alexandria Catholic Church,catholic_church,"['religious_organization', 'church_cathedral']",ddfeee3f-cbbd-47de-a75c-a39fc052f8a2,St. Catherine of Alexandria Catholic Church,religious,,riverside-san-bernardino,CA,Riverside,92506.0,3680 Arlington Ave,33.9458071,-117.3961869,meta,2025-06-02T07:00:00.000Z,0.9784508333782836,OpenStreetMap,2025-01-20T19:17:41.000Z,,False
ead44c69-3e24-4a65-993f-bae0d5c3ea1c,Psychic Readings by Alexandria,psychic,['counseling_and_mental_health'],f4d97e26-a222-4ca4-84a2-8e02570e669e,,,,riverside-san-bernardino,CA,Rialto,92376.0,114 W Foothill Blvd,34.1069645,-117.3711189,meta,2025-06-02T07:00:00.000Z,0.8540983606557377,Microsoft ML Buildings,2020-11-15T00:00:00.000Z,,False
037dffa5-daf1-4060-ae3b-eaa3c2256d0e,Alexandria Landing,landmark_and_historical_building,"['real_estate', 'real_estate_service']",b64e86c2-f738-4738-8b14-3dbfb3827362,,,,atlanta,GA,College Park,30349.0,2135 Godby Rd,33.61781,-84.45954,meta,2025-06-02T07:00:00.000Z,0.3961437335670464,OpenStreetMap,2014-05-09T22:11:44.000Z,,False
b517a362-810f-42b0-a1e6-4ce50244df24,Alexandria Ortiz Consults,business_management_services,"['event_planning', 'professional_services']",b7137591-87ff-4f59-af11-7dcd51618a51,Windy Hill Professional Building,,,atlanta,GA,Marietta,30067.0,2480 Windy Hill Rd SE,33.90177,-84.48132,meta,2025-06-02T07:00:00.000Z,0.8253968253968254,OpenStreetMap,2017-07-19T22:11:23.000Z,,True
48b38039-b170-4cc6-95cc-b4bf5e32eae3,Alexandria Brandao,womens_clothing_store,['shoe_store'],1e78b792-2c8c-44b6-83b8-0bf5127eb02d,,commercial,retail,miami,FL,Miami,33186.0,12765 SW 88th St,25.68671,-80.40128,meta,2025-06-02T07:00:00.000Z,0.3376623376623376,OpenStreetMap,2019-05-07T11:56:38.000Z,,False
371ac80e-f729-4e8c-ae0b-d49da9a8e607,Library of Alexandria,library,['real_estate'],5af81023-368d-47bf-a50c-56b9ede46289,,,,miami,FL,Miami,33130.0,450 SW 3rd St,25.7706102,-80.2021914,meta,2025-06-02T07:00:00.000Z,0.296943231441048,OpenStreetMap,2016-08-07T15:17:22.000Z,,False
2c457863-37b2-4c3a-b0a6-613045550446,Shop Taylor Alexandria,fashion_accessories_store,['jewelry_store'],22e58ef9-c3c8-4d61-82be-f391cf51f896,,,,miami,FL,Miami,33150.0,7123 N Miami Ave,25.841088,-80.196156,meta,2025-06-02T07:00:00.000Z,0.242152466367713,OpenStreetMap,2016-08-03T20:26:41.000Z,,False
8dd7afb9-c604-4ce6-b528-7cf95da9437b,Kiersten Alexandria Glam Studio,beauty_salon,,a901e730-7e51-4618-8708-24daa5d686a7,,commercial,commercial,miami,FL,Coral Springs,33067.0,7401 Wiles Rd,26.2870839,-80.2253099,meta,2025-06-02T07:00:00.000Z,0.296943231441048,OpenStreetMap,2015-08-24T13:22:03.000Z,,False
7d35caf2-a4bd-4cdb-b607-5e3b506e90be,Alexandria Computers LLC.,software_development,"['professional_services', 'travel']",,,,,miami,FL,Boca Raton,33488.0,8185 Via Ancho Rd,26.360938,-80.1738065,meta,2025-06-02T07:00:00.000Z,0.909823677581864,,,,False
f1fd457e-4b9f-484d-8173-4c1fb801346d,Alexandria's Grooming,pet_groomer,"['pet_services', 'pet_store']",e43454f8-9383-420b-8da7-a37b966f0d1d,,commercial,commercial,miami,FL,Fort Lauderdale,33306.0,2032 E Oakland Park Blvd,26.1669936,-80.1198352,meta,2025-06-02T07:00:00.000Z,0.9784508333782836,OpenStreetMap,2017-06-25T22:28:31.000Z,,False
45d3c77f-16b0-4937-816b-468e4a414a02,Alexandria Apartments,accommodation,"['landmark_and_historical_building', 'real_estate_service']",35c43e68-05f6-40e3-a28f-58ea67c1a92a,,,,trenton,PA,Morrisville,19067.0,250 Plaza Blvd,40.2052725,-74.8015969,meta,2025-06-02T07:00:00.000Z,0.7548172757475083,Esri Community Maps,2024-10-15T00:00:00.000Z,,False
f4fb2607-098a-4683-b9f9-d7280ef4a694,Alexandria Chambless LMT,spas,,30b3b0c3-fd03-4794-9063-031a637ff03f,Hillcrest Center,,,mobile,AL,Mobile,36695.0,1120 Hillcrest Rd,30.66588,-88.19122,meta,2025-06-02T07:00:00.000Z,0.5662921348314607,OpenStreetMap,2015-05-26T18:43:14.000Z,,False
579b1d32-01b2-4399-9d80-cb7caa03feac,Alexandria's Boutique,clothing_store,,05b580a2-7d50-4806-be65-3faa7eb3739a,,,,hartford,CT,Hartford,6106.0,510 Park St,41.7581277,-72.6850494,meta,2025-06-02T07:00:00.000Z,0.909823677581864,OpenStreetMap,2021-03-11T06:50:33.000Z,,False
2d9e841a-0ea7-422b-bd6e-f61a3aff2dbd,"Alexandria Lodge of Research and Study #2 - Grand Rapids, MI",social_service_organizations,['community_services_non_profits'],69442c8a-fabc-4f78-bd18-7efcbbf87e7a,Masonic Center,civic,,grand-rapids,MI,Grand Rapids,49503.0,233 Fulton St E,42.96352,-85.66253,meta,2025-06-02T07:00:00.000Z,0.7548172757475083,OpenStreetMap,2020-12-10T23:58:05.000Z,,False
2d9e841a-0ea7-422b-bd6e-f61a3aff2dbd,"Alexandria Lodge of Research and Study #2 - Grand Rapids, MI",social_service_organizations,['community_services_non_profits'],de30a178-c0a9-4aa6-a681-769ca84883e1,,transportation,parking,grand-rapids,MI,Grand Rapids,49503.0,233 Fulton St E,42.96352,-85.66253,meta,2025-06-02T07:00:00.000Z,0.7548172757475083,OpenStreetMap,2023-12-22T09:10:39.000Z,,False
bed6281d-8903-45f2-be3f-478d3e887b8d,Alexandria Parc Vue,apartments,['condominium'],,,,,orlando,FL,Orlando,32836.0,10649 Bastille Ln,28.40499,-81.53492,Microsoft,2018-03-19T18:10:36.293Z,0.77,,,,False
e3954707-24f7-4b67-a8ac-b1e453927ad0,"Alexandria Dixon, MD",pediatrician,"['doctor', 'hospital', 'health_and_medical']",,,,,orlando,FL,Orlando,32827.0,9679 Lake Nona Village Pl Ste 101,28.4255821,-81.2539455,Microsoft,2022-09-25T09:21:34.727Z,0.77,,,,False
25319cf1-81ce-4dbe-b48f-1948d81e757b,Alexandria Global Transportation,limo_services,"['transportation', 'tours']",7250d5d9-5a67-4de7-a92e-5f17dee05981,,,,orlando,FL,Orlando,32835.0,7230 Westpointe Blvd,28.517122,-81.486801,meta,2025-06-02T07:00:00.000Z,0.296943231441048,Microsoft ML Buildings,2022-03-21T00:00:00.000Z,,False
3f50ca82-c3ab-45dd-9df1-c4b70f32c6ed,Alexandria Market,grocery_store,"['supermarket', 'middle_eastern_restaurant']",e78ff948-e2b1-48b7-b394-77f699e35e0b,,commercial,commercial,orlando,FL,Orlando,32807.0,6148 Hanging Moss Rd,28.5786116,-81.3051175,meta,2025-06-02T07:00:00.000Z,0.9784508333782836,OpenStreetMap,2017-12-22T20:16:40.000Z,,False
faac9730-7a08-441f-bcad-efa82e722bf6,Salon Alexandria,hair_salon,"['beauty_salon', 'beauty_and_spa']",b4c0c648-4fc0-4229-ad8c-a722b6182f24,,,,orlando,FL,Oviedo,32765.0,120 Alexandria Blvd,28.6528398,-81.2055117,meta,2025-06-02T07:00:00.000Z,0.9784508333782836,OpenStreetMap,2018-07-25T14:45:22.000Z,,False
ff69184a-8fa9-402d-80f8-28da22cfd917,City of Alexandria,employment_agencies,"['professional_services', 'public_and_government_association']",,,,,philadelphia,VA,Alexandria,22314.0,301 King St,39.85267,-75.35605,meta,2025-06-02T07:00:00.000Z,0.5662921348314607,,,,False
a0c8d15e-8043-43cc-81ce-b34e90bf81ac,The Alexandria Cafe & Grill,cafe,"['bar_and_grill_restaurant', 'smoothie_juice_bar']",b37da111-05c2-4e26-aee4-45074bdffb8f,,,,philadelphia,PA,Eddystone,19022.0,1423 Chester Pike,39.8651286,-75.34399,meta,2025-06-02T07:00:00.000Z,0.5662921348314607,Microsoft ML Buildings,2020-10-14T00:00:00.000Z,,False
9d8dd12b-630a-429d-a697-cdaa7e0ceeea,Saint Cyril of Alexandria School,school,"['elementary_school', 'middle_school']",45edcfa2-d7d2-4c56-9eb7-d721d6cb9381,,,,philadelphia,PA,East Lansdowne,19050.0,716 Emerson Ave,39.945185,-75.260029,meta,2025-06-02T07:00:00.000Z,0.7548172757475083,Microsoft ML Buildings,2020-09-21T00:00:00.000Z,,False
97c80e92-bb11-4002-b7d8-fb6260290343,Brooke Alexandria Spa,day_spa,"['medical_spa', 'spas', 'beauty_and_spa']",9fd9a842-ef10-4ce8-9605-5c197d8d2b35,,,,philadelphia,PA,Haverford,19041.0,379 W Lancaster Ave,40.0125969,-75.3001518,Microsoft,2022-04-06T06:47:37.080Z,0.77,OpenStreetMap,2023-03-16T12:14:37.000Z,,False
3ac4574d-ffc1-491d-a193-70c9591dbc9b,Alexandria J Hair,beauty_and_spa,,3cbed32f-5341-4815-a5d1-4e58c894add7,,commercial,commercial,philadelphia,NJ,Glassboro,8028.0,725 N Main St,39.7167901,-75.1163864,meta,2025-06-02T07:00:00.000Z,0.242152466367713,OpenStreetMap,2014-03-30T21:14:06.000Z,,False
b34b189a-1ed6-45d4-9ae5-89b15c2d43e4,"Alexandria Kwapinski, PA-C",physician_assistant,"['doctor', 'health_and_medical']",,,,,philadelphia,NJ,Haddonfield,8033.0,15 E Redman Ave Ste A,39.9008671,-75.0383781,Microsoft,2025-05-10T16:52:33.810Z,0.77,,,,False
45d3c77f-16b0-4937-816b-468e4a414a02,Alexandria Apartments,accommodation,"['landmark_and_historical_building', 'real_estate_service']",35c43e68-05f6-40e3-a28f-58ea67c1a92a,,,,philadelphia,PA,Morrisville,19067.0,250 Plaza Blvd,40.2052725,-74.8015969,meta,2025-06-02T07:00:00.000Z,0.7548172757475083,Esri Community Maps,2024-10-15T00:00:00.000Z,,False
35fd82fa-1441-4f07-949e-cf26b6a029c9,"Alexandria Dougherty, Bluefield Realty Group",real_estate_agent,"['real_estate', 'professional_services']",9f73e801-2875-42c6-877f-ee81fc0e7b94,,,,greenville,SC,Greenville,29615.0,100 Executive Center Dr,34.8356895,-82.3031089,meta,2025-06-02T07:00:00.000Z,0.672566371681416,OpenStreetMap,2018-03-15T02:14:54.000Z,,False
b911d5ea-f757-4598-9874-4bfa5ae485e8,Alexandria Chrisele Photography,professional_services,['event_photography'],,,,,flint,MI,Burton,48529.0,1073 E Bristol Rd,42.9744049,-83.6895999,meta,2025-06-02T07:00:00.000Z,0.9300613496932516,,,,False
3a27ddc9-3e47-4433-8aad-e1782c62bf22,"Alexandria Smith, Realtor",real_estate_agent,['real_estate'],06646dff-ae67-4f04-8ea8-908d02f66611,,commercial,commercial,richmond,VA,Glen Allen,23059.0,11225 Nuckols Rd,37.6791969,-77.5875502,meta,2025-06-02T07:00:00.000Z,0.9297091412742382,OpenStreetMap,2019-07-24T06:30:19.000Z,,False
63e46bd2-0142-4a3e-bf15-80cae6cb523b,"Alexandria Andronikos, Licensed Agent - New York Life",insurance_agency,['professional_services'],aca067aa-7fd1-4b97-8880-074e4d438b14,US Internal Revenue Service Savannah,,,savannah,GA,Savannah,31405.0,9 Park of Commerce Blvd,32.06516,-81.16154,meta,2025-06-02T07:00:00.000Z,0.8860580325548478,OpenStreetMap,2021-07-12T00:31:03.000Z,,False
13b8c8b8-a147-4a2c-b69b-27cfd0031319,Alexandria's photography,professional_services,,,,,,oakland,CA,San Leandro,0.0,,37.7107006,-122.1529999,meta,2025-06-02T07:00:00.000Z,0.3313953488372093,,,,False
274cf660-ed3e-4c3f-9676-9d22a9469063,The Alexandria at San Carlos,venue_and_event_space,"['social_club', 'arts_and_entertainment']",,,,,san-jose,CA,San Carlos,94070.0,835 Industrial Rd,37.50701,-122.25027,Microsoft,2025-05-24T01:20:30.027Z,0.77,,,,False
44e19b7e-bd3d-4d1e-9bb5-88e32e3aea2f,Alexandria Comstock at EXIT Realty,real_estate_agent,"['real_estate_service', 'real_estate']",4e354464-89f5-4a50-a123-562da0ded80a,,commercial,office,lansing,MI,Lansing,48910.0,1000 S Washington Ave,42.72297,-84.55292,meta,2025-06-02T07:00:00.000Z,0.5662921348314607,OpenStreetMap,2021-09-08T15:08:37.000Z,,True
13b8c8b8-a147-4a2c-b69b-27cfd0031319,Alexandria's photography,professional_services,,,,,,concord,CA,San Leandro,0.0,,37.7107006,-122.1529999,meta,2025-06-02T07:00:00.000Z,0.3313953488372093,,,,False
d20576f6-9599-404a-afef-84cdc8accbd9,Alexandria's Flowers,flowers_and_gifts_shop,"['home_goods_store', 'fashion']",5fb90258-a168-4ec6-991c-0bdbe44bca00,,commercial,retail,concord,CA,Pleasanton,94588.0,3037 Hopyard Rd,37.6769412,-121.8966252,meta,2025-06-02T07:00:00.000Z,0.9784508333782836,OpenStreetMap,2020-09-18T20:13:28.000Z,,False
073fc6d7-cb7b-40cc-8838-0a0d0785d82e,Alexandria Perrin LLC,advertising_agency,"['professional_services', 'public_relations']",d5fad72b-e458-49d0-9047-8f289ad9228f,,,,modesto,CA,Modesto,95354.0,915 14th St,37.6428069,-120.9960554,meta,2025-06-02T07:00:00.000Z,0.909823677581864,Microsoft ML Buildings,2022-05-30T00:00:00.000Z,,False
8ded5e5d-e25e-4a97-a69e-923a4555ce72,"Alexandria J. Haselhorst, DO",rehabilitation_center,['health_and_medical'],947aee0e-6355-4bf5-8853-dbd71e9590ce,,,,austin,TX,Austin,78731.0,1600 W 38th St #312,30.3091964,-97.7497827,Microsoft,2023-07-13T15:43:12.083Z,0.77,OpenStreetMap,2025-05-11T17:35:10.000Z,,False
887128e6-ec0e-489a-9142-323c9ca54d28,"Alexandria J. Haselhorst, DO",rehabilitation_center,['health_and_medical'],f5e26a06-3f75-4236-bcd5-f5f4edd4a89f,Plaza North Building,,,austin,TX,Austin,78758.0,12309 N Mopac Expy #150,30.4152235,-97.7046237,Microsoft,2025-04-06T22:21:37.040Z,0.77,OpenStreetMap,2020-10-30T12:29:55.000Z,,False
59e52f65-12bf-44e3-9d8d-5d566e3a406d,St Catherine of Alexandria Catholic Church,catholic_church,"['church_cathedral', 'religious_organization']",41ed4400-abec-4c61-8025-02fb211b980e,,,,tulsa,OK,Tulsa,74107.0,4532 S 25th West Ave,36.0975909,-96.0208224,meta,2025-06-02T07:00:00.000Z,0.9784508333782836,Microsoft ML Buildings,2019-03-21T00:00:00.000Z,,False
2ff4d9ea-9605-402e-873e-654471e13080,Esthetics by Alexandria,beauty_and_spa,['beauty_salon'],2c443b3a-ec25-44c9-bfdf-5faeee2e6fd6,,,,tulsa,OK,Broken Arrow,74011.0,2498 W New Orleans St,36.018082,-95.8183246,meta,2025-06-02T07:00:00.000Z,0.9204819277108434,OpenStreetMap,2012-05-18T19:13:59.000Z,,False
0f98e23c-d252-4466-a0d4-68b901c6245b,"Alexandria ""Lexy"" Medina - Real Estate",real_estate_agent,,b78b4ac2-2241-469b-a2c2-041fe4052d56,,,,milwaukee,WI,Milwaukee,53220.0,6450 W Forest Home Ave,42.9733,-87.99448,meta,2025-06-02T07:00:00.000Z,0.2456896551724137,OpenStreetMap,2022-12-03T21:54:53.000Z,,False
2283c9bc-2e4f-4f85-8bc8-ee527b36e89c,"Alexandria I. Rabe, PT",doctor,"['rehabilitation_center', 'health_and_medical']",1e63e8fc-45aa-494c-bc81-562121838ef5,Aurora Health Center,medical,,milwaukee,WI,Greenfield,53221.0,4131 W Loomis Rd Ste 200,42.9637404,-87.9658786,Microsoft,2025-03-06T08:26:29.297Z,0.77,OpenStreetMap,2022-12-05T21:37:55.000Z,,False
8630c05e-a1e0-4869-a329-7a79cc405929,Alexandria Community Church,religious_organization,['church_cathedral'],2cb165a5-16e5-4898-8cf9-d5cbe8e45271,,religious,church,milwaukee,WI,Milwaukee,53212.0,2377 N Hubbard St,43.0619509,-87.9089327,meta,2025-06-02T07:00:00.000Z,0.9784508333782836,OpenStreetMap,2019-03-03T22:28:09.000Z,,False
51595663-7374-4f1f-8726-564644eba5c4,St. Catherine of Alexandria Catholic Church,catholic_church,"['church_cathedral', 'religious_organization']",285e3f21-23e2-4dcf-a412-aa0519ac3c00,St. Catherine of Alexandria Catholic Church,religious,,milwaukee,WI,Milwaukee,53223.0,8661 N 76th Pl,43.1760409,-88.0046848,meta,2025-06-02T07:00:00.000Z,0.9784508333782836,OpenStreetMap,2022-12-03T01:12:51.000Z,,False
9fe0add6-0bbe-4a2f-9b66-931e6d361b52,Alexandria Industries,industrial_equipment,"['metal_supplier', 'commercial_industrial']",,,,,denton-lewisville,TX,Carrollton,75006.0,1305 W Crosby Rd,32.9463115,-96.9160702,meta,2025-06-02T07:00:00.000Z,0.9459263554653524,,,,False
559629a6-7797-4f0d-b3ed-3d388bc1f30d,"Dr. Alexandria Watkins, DNP-APRN, FNP-C",nurse_practitioner,['health_and_medical'],d243e5aa-1296-450b-9f58-33dbe62158c3,,commercial,commercial,denton-lewisville,TX,Carrollton,75007.0,3740 N Josey Lane Ste 201,33.01395,-96.88622,Microsoft,2025-05-22T12:57:13.417Z,0.77,OpenStreetMap,2019-01-11T20:23:21.000Z,,False
c8cb402b-ebc4-467f-bcc6-07da8648874c,Alexandria Palmer,real_estate_agent,['professional_services'],,,,,denton-lewisville,TX,Plano,75024.0,"Local Realty Agency, 6860 N Dallas Pkwy",33.0710994,-96.8232229,meta,2025-06-02T07:00:00.000Z,0.8831168831168831,,,,False
7a6785b3-72f5-48b0-bc46-60250fad3263,Alexandria Bucaoto,real_estate_agent,"['real_estate', 'professional_services']",b4971f90-e747-4a62-9e8f-e64e3b6d0093,,,,temecula-murrieta,CA,Temecula,92590.0,27290 Madison Ave,33.5251166,-117.1661266,meta,2025-06-02T07:00:00.000Z,0.9204819277108434,OpenStreetMap,2022-11-20T21:14:13.000Z,,False
4e871de4-2105-4852-be18-babbe6d7b512,St Catherine of Alexandria Church,catholic_church,"['church_cathedral', 'religious_organization']",8caf7f32-3163-4ebd-aa0d-602d2cbe2130,Fr. John Wagner Center,,,temecula-murrieta,CA,Temecula,92592.0,41875 C St,33.4897331,-117.1425031,meta,2025-06-02T07:00:00.000Z,0.9784508333782836,OpenStreetMap,2014-09-01T19:47:15.000Z,,False
40902010-5fc8-4e5b-8d69-77859448be0a,St. Catherine of Alexandria,church_cathedral,,b513baa5-6a35-4714-a634-b5f5431888b5,,,,temecula-murrieta,CA,Temecula,0.0,,33.5151226,-117.1543904,meta,2025-06-02T07:00:00.000Z,0.3376623376623376,OpenStreetMap,2014-05-01T00:17:07.000Z,,False
052b9e23-9cde-4694-9f42-163c4e94c3e6,Alexandria of Carmel Apartments,accommodation,"['landmark_and_historical_building', 'real_estate']",091c8770-82a6-46cd-8359-28567209a6af,,residential,apartments,indianapolis,IN,Carmel,46032.0,1411 Fairfax Manor Dr,39.9766384,-86.1535731,meta,2025-06-02T07:00:00.000Z,0.9784508333782836,OpenStreetMap,2014-05-31T01:44:05.000Z,,False
beca4703-eeea-49d1-8ae1-b44957e51f25,The Alexandria,hotel,"['holiday_rental_home', 'travel']",903f7b39-fa6d-4b5f-8555-7bbd7940fd12,,,,st-petersburg,FL,St Pete Beach,33706.0,520 69th Ave,27.7377024,-82.7498543,meta,2025-06-02T07:00:00.000Z,0.9300613496932516,OpenStreetMap,2017-09-10T10:34:29.000Z,,False
beca4703-eeea-49d1-8ae1-b44957e51f25,The Alexandria,hotel,"['holiday_rental_home', 'travel']",72e3ff4a-fbd2-44ed-be29-c1dac00dfb30,,,,st-petersburg,FL,St Pete Beach,33706.0,520 69th Ave,27.7377024,-82.7498543,meta,2025-06-02T07:00:00.000Z,0.9300613496932516,OpenStreetMap,2017-09-10T10:34:31.000Z,,False
6b485adf-7c13-4fd7-a624-e877da6c2b33,Alexandria Leas,hair_salon,"['beauty_salon', 'beauty_and_spa']",7d522f71-fba2-4466-bc2b-dee8dbc10b06,,commercial,retail,st-petersburg,FL,Palm Harbor,34684.0,34764 US-19 N,28.0880744,-82.7401151,meta,2025-06-02T07:00:00.000Z,0.3961437335670464,OpenStreetMap,2023-06-02T01:32:24.000Z,,False
4f811a17-aaa2-40c1-a5cf-c72d6a97ebce,Alexandria Lea's Salon,beauty_and_spa,['beauty_salon'],35cd54e2-cf56-4fe8-9862-828feb4e9b45,,,,st-petersburg,FL,New Port Richey,34655.0,3104 Town Ave,28.2040668,-82.6429796,meta,2025-06-02T07:00:00.000Z,0.9415384615384615,OpenStreetMap,2021-03-25T21:24:51.000Z,,False
52c1d672-3a79-4240-8649-36b743c2325d,Alexandria Archive Institute,library,"['professional_services', 'archaeological_services']",406864aa-a728-4742-b945-22483c4e9db8,,,,san-francisco,CA,San Francisco,94127.0,125 El Verano Way,37.73104,-122.4612,meta,2025-06-02T07:00:00.000Z,0.296943231441048,OpenStreetMap,2020-07-09T04:24:18.000Z,,False
274cf660-ed3e-4c3f-9676-9d22a9469063,The Alexandria at San Carlos,venue_and_event_space,"['social_club', 'arts_and_entertainment']",,,,,san-francisco,CA,San Carlos,94070.0,835 Industrial Rd,37.50701,-122.25027,Microsoft,2025-05-24T01:20:30.027Z,0.77,,,,False
6c7d8e8e-8072-4346-b9e1-cb136e627030,"Alexandria J. George, DO",obstetrician_and_gynecologist,"['doctor', 'womens_health_clinic', 'health_and_medical']",,,,,allentown-bethlehem,PA,Allentown,18104.0,401 N 17th St Ste 301,40.6026509,-75.495091,Microsoft,2025-04-22T19:29:00.563Z,0.77,,,,False
daedaccd-105c-4a89-8401-477c47cca7b5,Alexandria Nails,nail_salon,"['beauty_and_spa', 'beauty_salon']",d1e0de45-c117-401a-84b5-6257f8c8c161,,,,allentown-bethlehem,PA,Bethlehem,18018.0,813 Linden St,40.6254647,-75.3707915,meta,2025-06-02T07:00:00.000Z,0.9784508333782836,Microsoft ML Buildings,2020-10-15T00:00:00.000Z,,False
f3dc1bed-3c83-48ad-b02a-823bc6270f17,Alexandria Manor of Bath,retirement_home,['topic_concert_venue'],adeb64d9-4f66-431a-ab59-bc8cbca32a79,,,,allentown-bethlehem,PA,Bath,18014.0,313 S Walnut St,40.7232245,-75.3922381,meta,2025-06-02T07:00:00.000Z,0.9784508333782836,Microsoft ML Buildings,2020-11-08T00:00:00.000Z,,False
54bf7ebe-41b1-4991-bed8-3d00ca386f7e,Alexandria Manor,retirement_home,['health_and_medical'],dd339ffa-5309-4697-8e62-a42f6a127ea0,,residential,apartments,allentown-bethlehem,PA,Nazareth,18064.0,7 S New St,40.7422824,-75.3054909,meta,2025-06-02T07:00:00.000Z,0.9784508333782836,OpenStreetMap,2018-01-31T16:19:09.000Z,,False
26953d81-5e12-4b9b-b621-2b13ad5b77ec,St. Catherine Of Alexandria Chapel,catholic_church,"['church_cathedral', 'religious_organization']",3d6fcab1-eb7f-4cb9-9831-c1c38a72f49c,,,,san-antonio,TX,San Antonio,78210.0,2202 Hicks Ave,29.3917323,-98.4465193,meta,2025-06-02T07:00:00.000Z,0.9784508333782836,Microsoft ML Buildings,2020-12-09T00:00:00.000Z,,False
a53dd432-e067-4f03-ab10-ac6bdc91ed70,St. Catherine Of Alexandria Chapel,catholic_church,,,,,,san-antonio,TX,San Antonio,78210.0,2202 Hicks Ave,29.3918527,-98.4464974,Microsoft,2025-04-23T20:18:39.660Z,0.77,,,,False
902b2941-a298-450d-91cd-8326f4e58357,Alexandria Pizza & Grill,pizza_restaurant,"['fast_food_restaurant', 'restaurant']",7db5c492-4b86-4d3b-9e32-326af8c53d9d,,,,boston,MA,Boston,2118.0,1252 Washington St,42.3424263,-71.0673279,meta,2025-06-02T07:00:00.000Z,0.9784508333782836,OpenStreetMap,2020-08-11T03:30:14.000Z,,False
cffda8a6-8fb7-4996-a88e-26ee8959ffca,Alexandria Barela at Comparion Insurance Agency,insurance_agency,,aa32911f-1552-49ae-8ac8-5bd0cc913c23,,,,albuquerque,NM,Albuquerque,87109.0,4041 Jefferson Plz NE,35.1518389,-106.5968788,meta,2025-06-02T07:00:00.000Z,0.909823677581864,OpenStreetMap,2024-03-28T09:02:02.000Z,,False
59642b51-5d75-40d4-9fcf-e09fcba2b48b,Alexandria Real Estate,real_estate_service,"['business_advertising', 'marketing_agency']",5d34a46d-63fc-438b-9d91-ddba8b30463c,,,,albuquerque,NM,Albuquerque,87114.0,8214 2nd St NW,35.172679,-106.625538,meta,2025-06-02T07:00:00.000Z,0.242152466367713,OpenStreetMap,2019-10-30T03:20:06.000Z,,False
aa650476-fad8-4ff3-adf2-4b7e8ff212b7,"Alexandria C. White, NP",nurse_practitioner,['health_and_medical'],f65a9c9b-4547-4774-85d2-f5c90c08dca7,Primary Children's Hospital,medical,hospital,salt-lake-city,UT,Salt Lake City,84113.0,100 N Mario Capecchi Dr,40.771648,-111.8390582,Microsoft,2025-05-06T18:38:01.843Z,0.77,OpenStreetMap,2024-01-25T23:16:08.000Z,,False
99b195e5-e708-4894-a5d9-e0bf6d81020b,Alexandria Professional Academy Professionals,hair_removal,"['beauty_salon', 'education']",cb4471cc-a273-4900-8713-a93edd7bee93,Indigo,residential,apartments,minneapolis,MN,Bloomington,55425.0,8001 33rd Ave S,44.85805,-93.22445,meta,2025-06-02T07:00:00.000Z,0.4929396662387676,OpenStreetMap,2023-10-12T05:44:14.000Z,,False
2d1733e6-1cd0-4f34-97c5-9f315ab80ee7,"Alexandria Rockne & Associates, LLC American Family Insurance",insurance_agency,,b4c69d61-ee1f-4f48-bbb4-eaf601f2fe10,,,,phoenix,AZ,Mesa,85210.0,1830 S Alma School Rd,33.3819312,-111.8598302,meta,2025-06-02T07:00:00.000Z,0.909823677581864,OpenStreetMap,2020-07-31T03:16:53.000Z,,False
2d9f3e16-3d16-486d-9065-46e05458b6ec,Hollis Alexandria Hair,beauty_and_spa,"['beauty_salon', 'cosmetic_and_beauty_supplies']",80534013-aa26-4785-b7c5-1044d9b09195,,,,phoenix,AZ,Phoenix,85014.0,707 E Palo Verde Dr,33.5217032,-112.0641132,meta,2025-06-02T07:00:00.000Z,0.9415384615384615,Microsoft ML Buildings,2023-09-01T00:00:00.000Z,0.9876999855041504,False
262b2531-cb0c-4f62-bc05-6fb44aeb0e9f,Alexandria Vizzoni,real_estate_agent,['professional_services'],6b227ead-d82c-408b-818f-b3e0afed9f34,,,,phoenix,AZ,Scottsdale,85251.0,4343 N Scottsdale Rd,33.5001609,-111.9249992,meta,2025-06-02T07:00:00.000Z,0.909823677581864,OpenStreetMap,2023-06-20T23:20:38.000Z,,False
a9736a4f-66f5-4979-ace7-2ab3832f56b9,Dr. Alexandria Rozgony,dentist,['orthodontist'],e7b7da97-7212-4365-8ed5-4d05e5e16623,,,,phoenix,AZ,Mesa,85206.0,5058 E Southern Ave,33.39415,-111.72184,meta,2025-06-02T07:00:00.000Z,0.4929396662387676,Microsoft ML Buildings,2020-05-28T00:00:00.000Z,,False
b2a9e3be-7026-41d1-99bb-eb0ee8fd4df7,Alexandria Ali The Stylist,beauty_and_spa,['hair_salon'],,,,,raleigh,NC,Apex,27502.0,900 Broadstone Way,35.7139654,-78.845876,meta,2025-06-02T07:00:00.000Z,0.8860580325548478,,,,False
a510582e-a016-4903-91db-18229411bca5,Alexandria Rae’s Studio,beauty_and_spa,['beauty_salon'],33c54ebc-6af4-426a-bfac-a99017afb8c9,,,,omaha,NE,Omaha,68144.0,2323 S 144th St,41.26646,-95.88108,meta,2025-06-02T07:00:00.000Z,0.3961437335670464,Esri Community Maps,2024-10-15T00:00:00.000Z,,False
a346c002-c747-4b73-b192-d564e64d1f70,Alexandria's Angels Daycare,day_care_preschool,"['social_service_organizations', 'home_service']",3ecbfac3-0f7d-4c34-9bb3-44b7df0554a8,,,,fresno,CA,Fresno,93728.0,1465 N Delno Ave,36.7623354,-119.820046,meta,2025-06-02T07:00:00.000Z,0.9784508333782836,OpenStreetMap,2024-02-01T08:57:45.000Z,,False
29ebe439-00a5-4078-aa95-a3d2e2609d14,Alexandria Mediterranean Cuisine,mediterranean_restaurant,"['middle_eastern_restaurant', 'restaurant']",,,,,detroit,MI,Novi,48375.0,43155 Main St,42.4782478,-83.4698423,meta,2025-06-02T07:00:00.000Z,0.9784508333782836,,,,False
7213a9d3-0052-4f26-a3ee-b10135cdcd67,Dental Studio Pediatrics (formerly Dr. Alexandria Meriano),dentist,"['pediatric_dentist', 'health_and_medical']",cdde5a90-f349-4ca9-9f14-bd29ba96cff2,,,,detroit,ON,Windsor,856.0,1720 Howard Ave,42.299077,-83.0168743,meta,2025-06-02T07:00:00.000Z,0.9459263554653524,OpenStreetMap,2019-12-01T00:12:56.000Z,,False
daa07857-2297-4f87-91db-df686f1c4e7c,Alexandria Home Solutions,windows_installation,['contractor'],,,,,detroit,MI,Southfield,48033.0,24293 Telegraph Rd,42.4666087,-83.2803398,meta,2025-06-02T07:00:00.000Z,0.9415384615384615,,,,False
a65b29dc-ff27-4c7d-9b3f-c65440d62d59,Ashley and Alexandria's Bridal Atelier,bridal_shop,"['boutique', 'shopping']",50e341e0-ebc3-480e-a2da-d4bc00ee063c,The Claymore,residential,apartments,detroit,MI,Southfield,48034.0,29260 Franklin Rd,42.5034456,-83.3071688,meta,2025-06-02T07:00:00.000Z,0.9784508333782836,OpenStreetMap,2021-04-18T23:51:52.000Z,,False
b2feddeb-a575-4c22-b01c-bba5ded306cc,"Dr. Alexandria Glenn, M.D",hospital,"['surgeon', 'health_and_medical']",,,,,detroit,MI,Detroit,48202.0,2800 W Grand Blvd,42.36588,-83.08345,meta,2025-06-02T07:00:00.000Z,0.7548172757475083,,,,False
be9d98f7-1088-406b-924a-60a930795d44,Spirit of Alexandria Foundation,community_services_non_profits,"['charity_organization', 'monument']",,,,,detroit,MI,Milford,48381.0,4330 Heatherwood Dr,42.6049714,-83.5652961,meta,2025-06-02T07:00:00.000Z,0.9204819277108434,,,,False
f24fa040-4e11-4d91-91b7-bd1940e26b2b,Alexandria Montessori School,elementary_school,"['education', 'school']",,,,,dayton,OH,Dayton,45459.0,175 E Franklin St,39.6287842,-84.1527133,meta,2025-06-02T07:00:00.000Z,0.9784508333782836,,,,False
9e5465c5-b362-4425-9c30-be51b59ffb2f,Alexandria Sifontes - Licensed Real Estate Salesperson,real_estate_agent,,39177577-aac8-44ad-a697-7ce5a75727ee,,,,albany,NY,Albany,12207.0,402 Broadway,42.6480491,-73.7509308,meta,2025-06-02T07:00:00.000Z,0.3376623376623376,OpenStreetMap,2024-04-09T14:22:55.000Z,,False
9e5465c5-b362-4425-9c30-be51b59ffb2f,Alexandria Sifontes - Licensed Real Estate Salesperson,real_estate_agent,,9a7e106d-e60a-4a50-b9fd-a4dbb05b0dec,,,,albany,NY,Albany,12207.0,402 Broadway,42.6480491,-73.7509308,meta,2025-06-02T07:00:00.000Z,0.3376623376623376,OpenStreetMap,2024-04-09T14:22:55.000Z,,False
68b074bc-e8ea-4e17-9953-09e83e1a2a96,Alexandria's Beauty Salon,hair_salon,"['beauty_salon', 'beauty_and_spa']",,,,,albany,NY,Latham,12110.0,492 Troy Schenectady Rd,42.7471202,-73.759748,meta,2025-06-02T07:00:00.000Z,0.9784508333782836,,,,False
bfa7f371-4801-452b-9c29-ab16ee11d11f,Hair by Alexandria Rowe,beauty_salon,"['beauty_and_spa', 'spas']",b23b7f06-7418-48a1-9533-145060dd9bce,,,,seattle,WA,Tacoma,98402.0,727 Commerce St,47.2562715,-122.4397473,meta,2025-06-02T07:00:00.000Z,0.4929396662387676,OpenStreetMap,2024-11-02T08:03:35.000Z,,False
bfa7f371-4801-452b-9c29-ab16ee11d11f,Hair by Alexandria Rowe,beauty_salon,"['beauty_and_spa', 'spas']",f27b8872-7685-428b-b19e-5ad09ff20d0e,,,,seattle,WA,Tacoma,98402.0,727 Commerce St,47.2562715,-122.4397473,meta,2025-06-02T07:00:00.000Z,0.4929396662387676,OpenStreetMap,2024-03-27T22:43:20.000Z,,False
0bf7ef0d-a60f-4f0f-8883-f2c4681ae35c,Alexandria Condominuims,landmark_and_historical_building,"['accommodation', 'real_estate']",ceb849a5-9412-406c-97df-c2b098626372,,residential,apartments,seattle,WA,Seattle,98121.0,3028 Western Ave,47.6177865,-122.3556029,meta,2025-06-02T07:00:00.000Z,0.9297091412742382,OpenStreetMap,2024-03-27T00:35:37.000Z,,False
52112096-680e-462d-9be5-ef8a1066180d,Alexandria Sells Homes,real_estate_agent,['real_estate'],e7711991-4494-4fd1-9e9c-f695af8d1208,,,,seattle,WA,Puyallup,98372.0,429 29th St NE,47.194215,-122.2541,meta,2025-06-02T07:00:00.000Z,0.8980891719745223,OpenStreetMap,2024-07-09T06:15:40.000Z,,False
a7f97c37-6ef9-4f79-9172-91d21f1be9b7,Alexandria Mediterranean Cuisine,greek_restaurant,"['mediterranean_restaurant', 'middle_eastern_restaurant']",2191f61a-b357-4e2b-adb6-d51e7cf385de,,,,seattle,WA,Kent,98030.0,10120 SE 260th St,47.3697969,-122.2054064,meta,2025-06-02T07:00:00.000Z,0.9784508333782836,OpenStreetMap,2018-10-29T07:09:25.000Z,,False
70ca2a8a-7827-49cc-a643-169a623f5881,Alexandria McKay DO | Kaiser Permanente,doctor,"['medical_center', 'health_and_medical']",6014af76-545f-4e41-8fce-84b552827c1a,Kaiser Permanente Kent Medical Center,medical,,seattle,WA,Kent,98031.0,"26004 104th Ave SE, 0",47.3686787,-122.2018657,Microsoft,2025-05-06T14:28:09.090Z,0.77,OpenStreetMap,2024-07-04T11:34:10.000Z,,False
286b69c1-0ca1-4a9e-8030-5f101d1ac92b,Alexandria Nicole Tasting Room,winery,"['wine_bar', 'restaurant']",,,,,seattle,WA,Woodinville,98072.0,14810 NE 145th St,47.7330618,-122.1419635,meta,2025-06-02T07:00:00.000Z,0.9784508333782836,,,,False
b36b94e1-c8b6-4303-ad3e-3351a5096aea,Alexandria Nicole Cellars Woodin Creek Tasting Room,winery,['wine_bar'],69f6820b-711a-4311-a38d-95108a51154c,,,,seattle,WA,Woodinville,98072.0,17140 135th Ave NE,47.7515108,-122.1589631,meta,2025-06-02T07:00:00.000Z,0.9459263554653524,OpenStreetMap,2022-05-09T23:51:19.000Z,,False
32ac488f-dfda-4e15-98f1-21b397ffa06f,Alexandria Nicole Cellars,winery,"['liquor_store', 'wine_bar']",dcba84d6-8796-4db4-8ab1-c78cfffddd04,,,,seattle,WA,Woodinville,98072.0,19501 144th Ave NE,47.7694,-122.14939,meta,2025-06-02T07:00:00.000Z,0.5662921348314607,OpenStreetMap,2011-02-09T17:43:26.000Z,,False
b200ef2b-2041-4acc-91d5-6e1f397e17fc,Alexandria Christ,acupuncture,"['nutritionist', 'naturopathic_holistic']",,,,,sarasota-bradenton,FL,Sarasota,34239.0,3205 Siesta Cir,27.3050466,-82.5135199,meta,2025-06-02T07:00:00.000Z,0.9204819277108434,,,,False
7c904c99-f726-4583-8958-d4f767eccfff,Alexandria Riley,real_estate_agent,,6d08ade8-2899-43b8-988b-d0fb6a02db9b,,commercial,commercial,los-angeles,CA,Beverly Hills,90212.0,131 S Rodeo Dr,34.06605,-118.40157,meta,2025-06-02T07:00:00.000Z,0.242152466367713,OpenStreetMap,2020-06-25T14:29:44.000Z,,False
1ea4f1b3-a965-433d-b855-f645e228b481,"Alexandria Dionne, Realtor at Keller Williams Larchmont",real_estate_agent,"['professional_services', 'real_estate']",076d9416-de02-468d-b84f-4e9736416030,,commercial,retail,los-angeles,CA,Los Angeles,90004.0,118 N Larchmont Blvd,34.073692,-118.32335,meta,2025-06-02T07:00:00.000Z,0.242152466367713,OpenStreetMap,2016-06-24T15:20:44.000Z,,False
2aca0b5f-3f97-446e-9362-85edd01102bd,The Alexandria Ballrooms,event_planning,['topic_concert_venue'],f03af6d0-30e4-4ca0-aa83-b64d535b0f2c,Alexandria Hotel,residential,apartments,los-angeles,CA,Los Angeles,90013.0,501 S Spring St,34.0473055,-118.2500814,meta,2025-06-02T07:00:00.000Z,0.9784508333782836,OpenStreetMap,2020-08-25T04:34:09.000Z,,False
ab6a2829-518e-45a5-babe-e8f572471b6c,Wilshire Alexandria Westgate,landmark_and_historical_building,"['real_estate_service', 'real_estate']",1c756fc7-71ea-439c-85ff-748a2e46af3e,,residential,apartments,los-angeles,CA,Los Angeles,90020.0,535 S Alexandria Ave,34.0644229,-118.2981179,meta,2025-06-02T07:00:00.000Z,0.9204819277108434,OpenStreetMap,2024-11-09T17:59:03.000Z,,False
310ff373-a491-408f-8c45-563f16762395,Alexandria House,social_service_organizations,"['community_services_non_profits', 'homeless_shelter']",,,,,los-angeles,CA,Los Angeles,90020.0,426 S Alexandria Ave,34.0663298,-118.2977609,meta,2025-06-02T07:00:00.000Z,0.9784508333782836,,,,False
5a293a83-2b91-4598-b4c2-4a6e349b9822,Alexandria Avenue Apartments,landmark_and_historical_building,"['property_management', 'real_estate']",fca17b03-77ab-4451-bea2-552416f61d15,,residential,apartments,los-angeles,CA,Los Angeles,90004.0,213 S Alexandria Ave,34.07074,-118.298178,meta,2025-06-02T07:00:00.000Z,0.3376623376623376,OpenStreetMap,2016-06-08T05:51:00.000Z,,False
51652f23-2837-4cd4-b9d8-188bc34607b0,Alexandria Motel,hotel,"['motel', 'accommodation']",,,,,los-angeles,CA,Los Angeles,90020.0,300 S Alexandria Ave,34.0688068,-118.2977989,meta,2025-06-02T07:00:00.000Z,0.9784508333782836,,,,False
66aafb1b-586f-49eb-a572-061084dc491a,Alexandria Avenue Elementary,elementary_school,"['school', 'public_school']",4732aa0a-e214-45dc-96e3-1dbf4cb9d9f8,,,,los-angeles,CA,Los Angeles,90004.0,4211 Oakwood Ave,34.0778266,-118.2992991,meta,2025-06-02T07:00:00.000Z,0.9784508333782836,OpenStreetMap,2016-05-21T17:23:09.000Z,,False
c41be8ed-c6c1-46b5-a1bd-1b313ecd14fb,Alexandria EEC,preschool,"['day_care_preschool', 'school']",84a21b3d-5b81-4c1f-89b9-337e4291674b,,,,los-angeles,CA,Los Angeles,90004.0,4304 Rosewood Ave,34.0789477,-118.298561,meta,2025-06-02T07:00:00.000Z,0.9459263554653524,OpenStreetMap,2016-05-21T17:23:01.000Z,,False
e4440aed-c8df-4abb-9169-a3f9c4eb3b8b,Alexandria Care Center,retirement_home,"['hospital', 'health_and_medical']",e0b25a65-c021-4d00-8867-b9dfd4cdeb3d,,residential,residential,los-angeles,CA,Los Angeles,90027.0,1515 N Alexandria Ave,34.0986832,-118.2985036,meta,2025-06-02T07:00:00.000Z,0.9459263554653524,OpenStreetMap,2016-05-23T05:01:09.000Z,,False
d13e3190-4cad-4c1a-8c6c-d2ec44801096,"Jacqueline Alexandria Khorasanee, MD | Kaiser Permanente",medical_center,"['emergency_service', 'health_and_medical']",,,,,los-angeles,CA,Los Angeles,91365.0,5601 De Soto Ave,34.1734332,-118.590208,Microsoft,2025-05-04T07:06:44.757Z,0.77,,,,False
fdd4cd70-8799-4cfc-90ba-893ed57a7598,Catherine Alexandria - Electrolysis Hair Removal,hair_removal,"['hair_salon', 'beauty_and_spa', 'retail']",e3960f8f-21d2-48fd-8d9b-4c97638d28bf,,commercial,retail,los-angeles,CA,South Pasadena,91030.0,1965 Huntington Dr,34.10395567043121,-118.14137327671052,Microsoft,2018-10-23T05:20:09.583Z,0.77,OpenStreetMap,2017-01-30T21:29:27.000Z,,False
2b5c7a82-3fcf-42c3-b059-bcbb0606ef26,Alexandria II,bookstore,['shopping'],f02b6179-29ae-44e2-8b25-4fbed8071793,,commercial,retail,los-angeles,CA,Pasadena,91101.0,170 S Lake Ave,34.1429232,-118.1321381,meta,2025-06-02T07:00:00.000Z,0.9784508333782836,OpenStreetMap,2023-12-04T01:31:46.000Z,,False
2b5c7a82-3fcf-42c3-b059-bcbb0606ef26,Alexandria II,bookstore,['shopping'],cb73da24-67b0-47f6-9a64-03d9620f7bf0,The Commons,commercial,retail,los-angeles,CA,Pasadena,91101.0,170 S Lake Ave,34.1429232,-118.1321381,meta,2025-06-02T07:00:00.000Z,0.9784508333782836,OpenStreetMap,2023-12-03T22:35:05.000Z,,False
073dc88e-5531-48eb-82f7-2d2b857c674e,Alexandria Real Estate Equities,real_estate_agent,['real_estate'],c84088f3-2ed2-48b7-be7b-c079b1c1c8fd,Western Asset Plaza,commercial,commercial,los-angeles,CA,Pasadena,91101.0,385 E Colorado Blvd,34.146214,-118.142237,meta,2025-06-02T07:00:00.000Z,0.3961437335670464,OpenStreetMap,2024-02-04T22:33:25.000Z,,False
b8b3dc74-a258-459d-bd2c-15435387e20c,"Alexandria Ali Dilley, LMFT",psychotherapist,"['counseling_and_mental_health', 'professional_services']",90ce8639-bc2d-4cae-8b9c-756346937ea3,Quantum Eye Group Inc.,commercial,commercial,los-angeles,CA,Long Beach,90815.0,1945 Palo Verde Ave,33.7916332,-118.1084069,meta,2025-06-02T07:00:00.000Z,0.8860580325548478,OpenStreetMap,2021-02-10T08:23:56.000Z,,False
bc07339d-fd51-447e-9bc4-25af2d5a754f,Alexandria Apartments,landmark_and_historical_building,"['real_estate_service', 'real_estate']",4804b1f3-2cb8-42dd-a2e2-c23e4fbe1b3a,,residential,apartments,el-paso,TX,El Paso,79902.0,1024 N Oregon St,31.764768,-106.4935288,meta,2025-06-02T07:00:00.000Z,0.9459263554653524,OpenStreetMap,2019-08-08T21:09:21.000Z,,False
4cfd561d-d584-41a3-932b-6ee74a856237,Alexandria Mooney Photography,event_photography,['professional_services'],,,,,st-louis,MO,Kirkwood,0.0,,38.5807,-90.4143,meta,2025-06-02T07:00:00.000Z,0.1666666666666666,,,,False
d7a25772-8d86-45a7-bd3d-f7e424e77443,Alexandria Condominiums,landmark_and_historical_building,"['real_estate', 'accommodation']",35164043-a995-41fb-a5fa-ce72b00689a3,The Alexandria,residential,apartments,jacksonville-florida,FL,Jacksonville,32207.0,1516 Palm Ave,30.3100631,-81.6632895,meta,2025-06-02T07:00:00.000Z,0.7548172757475083,OpenStreetMap,2015-07-28T19:07:41.000Z,,False
329f6193-29ea-49ef-a79c-7c0a787747c7,Alexandria Oaks Park,park,"['playground', 'attractions_and_activities']",,,,,jacksonville-florida,FL,Jacksonville,32207.0,1620 Marco Pl,30.3008498,-81.6471275,meta,2025-06-02T07:00:00.000Z,0.9784508333782836,,,,False
063d8a8d-2629-4ec4-8d7a-680e3f1f435b,Alexandria Market,convenience_store,"['grocery_store', 'supermarket']",54be54ee-3a1b-4335-b6e4-8e58d5ca6053,Alexandria Market,,,cleveland,OH,Cleveland,44102.0,7602 Madison Ave,41.4774495,-81.7375831,meta,2025-06-02T07:00:00.000Z,0.9784508333782836,OpenStreetMap,2019-02-17T14:27:21.000Z,,False
5f5cc6c9-7239-4cd7-b9a2-e397987eb1f1,B. Alexandria's Salon and Co.,beauty_salon,"['beauty_and_spa', 'spas']",,,,,cleveland,OH,Cleveland,44143.0,27107 Chardon Rd,41.5812036,-81.4905047,meta,2025-06-02T07:00:00.000Z,0.9784508333782836,,,,False
d0070d94-e3eb-4633-aefd-917e76956c3b,ALEXANDRIA GRILL,mediterranean_restaurant,['restaurant'],2997181a-9a3b-4fe4-a52a-c371d6980a02,,commercial,commercial,palm-bay-melbourne,FL,Melbourne,32940.0,6300 N Wickham Rd,28.2145507,-80.6744786,Microsoft,2021-02-07T09:25:08.173Z,0.77,OpenStreetMap,2018-06-24T04:05:06.000Z,,False
4a436dc0-c37a-4172-b16d-52f68bed66d2,Alexandria Cantu,real_estate_agent,['professional_services'],463b03f4-2084-4987-b233-2a7b71ea3e91,,,,toledo,OH,Toledo,43606.0,3242 Executive Pkwy,41.6799817,-83.6280963,meta,2025-06-02T07:00:00.000Z,0.9204819277108434,OpenStreetMap,2018-07-25T22:21:01.000Z,,False
0baa8fd5-02dc-458e-bc7b-69f7ac70af25,Alexandria Nguyen-Johnson,naturopathic_holistic,['acupuncture'],,,,,portland,OR,Tigard,97223.0,11845 SW Greenburg Rd,45.4344521,-122.7693138,meta,2025-06-02T07:00:00.000Z,0.4929396662387676,,,,False
0a91e83c-ae83-4c24-ad5b-5b55d0665fff,"Alexandria Handyside, CRNP",pediatrician,"['doctor', 'health_and_medical']",decd9bbb-9de8-4ac9-8ba1-e03c1eb27529,,medical,hospital,pittsburgh,PA,Pittsburgh,15224.0,4401 Penn Ave,40.46751367,-79.95290957,Microsoft,2025-04-10T10:08:15.577Z,0.77,OpenStreetMap,2017-02-09T22:37:46.000Z,,False
0a91e83c-ae83-4c24-ad5b-5b55d0665fff,"Alexandria Handyside, CRNP",pediatrician,"['doctor', 'health_and_medical']",cdf48106-866d-42db-805e-c9eb0512b4c9,,medical,hospital,pittsburgh,PA,Pittsburgh,15224.0,4401 Penn Ave,40.46751367,-79.95290957,Microsoft,2025-04-10T10:08:15.577Z,0.77,OpenStreetMap,2025-01-15T00:23:33.000Z,,False
19c55307-e363-4459-a7fb-e5abdef27964,St. Cyril of Alexandria Roman Catholic Parish,catholic_church,"['church_cathedral', 'religious_organization']",f962dfdc-ab7d-4a61-b7ab-51d50d2538b6,,religious,church,tucson,AZ,Tucson,85712.0,4725 E Pima St,32.243905,-110.8923371,meta,2025-06-02T07:00:00.000Z,0.9784508333782836,OpenStreetMap,2017-03-30T20:18:05.000Z,,False
ea809611-b159-4374-ab09-8070b494658c,The Alexandria,landmark_and_historical_building,"['accommodation', 'retirement_home']",45ecc472-4729-4b5b-acb2-4b9f48e6a029,,,,denver,CO,Denver,80220.0,1463 Elm St,39.7394785,-104.9294662,meta,2025-06-02T07:00:00.000Z,0.9415384615384615,OpenStreetMap,2023-01-10T22:00:33.000Z,,False
f224317c-a073-4890-a521-b1ba87d57f00,Alexandria Louis Tax Solutions,trusts,"['financial_advising', 'financial_service']",a0f53d35-1093-4067-aae2-d7293e247d31,,residential,apartments,memphis,TN,Memphis,38119.0,5349 Estate Office Dr,35.1049922,-89.8836469,meta,2025-06-02T07:00:00.000Z,0.9459263554653524,OpenStreetMap,2019-03-09T23:34:28.000Z,,False
c777721c-e0d5-49be-9c7b-e0cce2e70f3c,Alexandria Clinic,doctor,"['medical_center', 'health_and_medical']",610274a3-3609-4be3-9f14-6d24a8fda28b,,,,houston,TX,Katy,77449.0,1836 Snake River Rd Ste C,29.792557213246752,-95.72261327545164,Microsoft,2021-11-23T22:37:05.803Z,0.77,OpenStreetMap,2016-01-19T21:23:27.000Z,,False
a2ee1e62-dd8f-4d3f-a349-6ae3ee96b34a,St Cyril Of Alexandria Catholic Church,catholic_church,"['church_cathedral', 'religious_organization']",4681c503-0b62-4d0a-9e4a-54ec12f9eb43,,,,houston,TX,Houston,77042.0,10503 Westheimer Rd,29.736247,-95.560797,meta,2025-06-02T07:00:00.000Z,0.9784508333782836,Microsoft ML Buildings,2023-09-01T00:00:00.000Z,0.9753000140190125,False
666954e3-a957-4e68-839b-58b5bd3f37ca,Xiomara Alexandria,automotive,['hotel'],d0ad455e-9388-479b-b946-3edb38e15571,Randalls,,,houston,TX,Houston,77002.0,2225 Louisiana St,29.74881,-95.37453,meta,2025-06-02T07:00:00.000Z,0.296943231441048,OpenStreetMap,2024-01-21T07:11:26.000Z,,False
df4ae8c1-7cba-43f3-8dc9-6ecf4c3776ca,K Alexandria Boutique,clothing_store,"['womens_clothing_store', 'shopping']",1f1b9107-9095-4a1f-bd6b-8857247916bd,,,,houston,TX,Humble,77338.0,802 1st St E,29.9989934,-95.2581233,meta,2025-06-02T07:00:00.000Z,0.9784508333782836,OpenStreetMap,2021-05-09T12:41:38.000Z,,False
8d9b8521-f38f-4aec-bb31-24b61039085c,Alexandria Park Apartment Homes,accommodation,['landmark_and_historical_building'],,,,,greensboro,NC,High Point,27265.0,3519 Ramsay St,36.0285548,-79.971909,meta,2025-06-02T07:00:00.000Z,0.9784508333782836,,,,False
93c25920-fbb1-4e83-9c16-04dc61d09049,Alexandria Park,park,['social_service_organizations'],ce77c745-0190-4ba9-9f8a-3bd464b4e0cf,,residential,house,virginia-beach,VA,Virginia Beach,23464.0,5559 Glen View Dr,36.7721617,-76.1938709,meta,2025-06-02T07:00:00.000Z,0.9297091412742382,OpenStreetMap,2016-03-09T12:40:51.000Z,,False
15eccdf6-d2ab-4b06-9272-7511ea26f2c8,Alexandria Babin,real_estate_agent,"['real_estate_service', 'real_estate']",0c3f5165-2695-4b2c-9355-b9037eda16b2,,,,las-vegas,NV,Henderson,89052.0,2225 Village Walk Dr,36.0214519,-115.0856101,meta,2025-06-02T07:00:00.000Z,0.909823677581864,OpenStreetMap,2018-02-20T21:27:53.000Z,,False
a3977034-2909-490b-8711-4d39e5db08ec,Alexandria McGurk,real_estate_agent,"['professional_services', 'real_estate']",cf987ada-6129-4653-85c8-c8f8cf97dd15,,,,las-vegas,NV,Las Vegas,89117.0,3042 S Durango Dr,36.1340428,-115.2772472,meta,2025-06-02T07:00:00.000Z,0.9297091412742382,OpenStreetMap,2024-01-03T20:37:53.000Z,,False
bf549989-32a7-4ce8-af48-aaaa1ce618d9,Alexandria Pool,swimming_pool,"['resort', 'active_life']",c3977965-5c8d-4d54-8056-9621584e997c,Sahara Las Vegas Hotel & Casino,entertainment,,las-vegas,NV,Las Vegas,89109.0,2535 Las Vegas Blvd S,36.142316,-115.15642,Microsoft,2025-05-13T11:53:13.857Z,0.77,OpenStreetMap,2025-05-24T21:20:39.000Z,,False
e385c12c-55e0-4ba5-9081-bf2b6386e3e2,Alexandria Pool,pool_cleaning,"['ice_skating_rink', 'swimming_pool']",c3977965-5c8d-4d54-8056-9621584e997c,Sahara Las Vegas Hotel & Casino,entertainment,,las-vegas,NV,Las Vegas,89109.0,2535 S Las Vegas Blvd,36.1426722,-115.1560322,meta,2025-06-02T07:00:00.000Z,0.9784508333782836,OpenStreetMap,2025-05-24T21:20:39.000Z,,False
e385c12c-55e0-4ba5-9081-bf2b6386e3e2,Alexandria Pool,pool_cleaning,"['ice_skating_rink', 'swimming_pool']",baee950b-a5e2-482f-b832-3b9a73118de7,Sahara Hotel Alexandria Tower,,,las-vegas,NV,Las Vegas,89109.0,2535 S Las Vegas Blvd,36.1426722,-115.1560322,meta,2025-06-02T07:00:00.000Z,0.9784508333782836,OpenStreetMap,2025-04-28T00:10:12.000Z,,False
a46dab42-6c7a-4232-a2a9-7e9242acf78f,Spring Ridge (Alexandria Way) Basking Ridge NJ,home_developer,,9beafebf-33c0-488b-9ea2-771c0036b543,,,,new-york,NJ,Basking Ridge,0.0,,40.6613718,-74.5424793,meta,2025-06-02T07:00:00.000Z,0.3376623376623376,OpenStreetMap,2020-11-23T04:27:58.000Z,,False
6f0c748f-8997-4c5f-84ef-5f6bb304e044,Alexandria pharmacy,pharmacy,"['health_and_medical', 'medical_supply']",67c99daf-9c96-4718-a928-871c88e07261,,,,new-york,NJ,Elizabeth,7208.0,327 N Broad St,40.6707109,-74.2152559,meta,2025-06-02T07:00:00.000Z,0.9784508333782836,OpenStreetMap,2025-01-27T19:40:11.000Z,,False
720987c4-de67-4bfb-82bb-136377696128,St. Catharine of Alexandria's Church,catholic_church,"['church_cathedral', 'religious_organization']",2d4168e7-2578-4ee4-b719-dc3f634a105b,Saint Catherine of Alexandria Church,religious,,new-york,NY,Brooklyn,11218.0,1119 41st St,40.6420144,-73.9913202,meta,2025-06-02T07:00:00.000Z,0.9784508333782836,OpenStreetMap,2024-05-03T09:04:48.000Z,,False
10407054-1e75-459c-973e-aaa2bac83232,اسكندريه Alexandria,sports_and_recreation_venue,"['surfing', 'gym']",4094434b-61ed-4112-ba6d-ff9a5e22caa0,,,,new-york,NY,New York,10012.0,121 Greene St,40.725388,-73.999157,meta,2025-06-02T07:00:00.000Z,0.5662921348314607,OpenStreetMap,2019-06-30T18:11:26.000Z,,False
3628e7d7-058b-4215-ab2f-4c74e723556d,Law Office of Alexandria Lipton,lawyer,"['divorce_and_family_law', 'legal_services']",54dfc0db-a7fd-4dd7-9a97-97cd6efce636,,,,new-york,NY,New York,10018.0,5 W 37th St,40.7508709,-73.9839629,meta,2025-06-02T07:00:00.000Z,0.672566371681416,OpenStreetMap,2014-03-09T20:09:53.000Z,,True
0163ffb5-a965-4512-bdd8-a66a6322b74e,ALEXANDRIA STRAAIK,psychiatrist,"['doctor', 'health_and_medical']",f9c720d8-b712-4c20-a52e-83da7ac0e7ae,,,,new-york,NY,New York,10016.0,6 E 39th St Ste 902,40.7511,-73.98173,Microsoft,2025-05-24T07:40:39.067Z,0.77,OpenStreetMap,2014-03-10T15:30:35.000Z,,False
0163ffb5-a965-4512-bdd8-a66a6322b74e,ALEXANDRIA STRAAIK,psychiatrist,"['doctor', 'health_and_medical']",69bded84-8bc2-45d0-b8ac-095a0af37b0a,,,,new-york,NY,New York,10016.0,6 E 39th St Ste 902,40.7511,-73.98173,Microsoft,2025-05-24T07:40:39.067Z,0.77,OpenStreetMap,2014-03-10T15:30:32.000Z,,False
c2096af3-f1f6-44dc-9fe5-149fc5da1506,The Alexandria,landmark_and_historical_building,"['accommodation', 'event_planning']",9142d621-0159-470c-924a-419590521f7b,The Alexandria,residential,apartments,new-york,NY,New York,10023.0,201 W 72nd St,40.7791051,-73.9824158,meta,2025-06-02T07:00:00.000Z,0.9297091412742382,OpenStreetMap,2020-04-02T01:52:48.000Z,,True
8883a96c-fc69-4a03-8d0f-0288a9f5aa9d,Alexandria Condominium,landmark_and_historical_building,"['public_service_and_government', 'real_estate']",9142d621-0159-470c-924a-419590521f7b,The Alexandria,residential,apartments,new-york,NY,New York,10023.0,201 W 72nd St,40.779246,-73.982417,meta,2025-06-02T07:00:00.000Z,0.3961437335670464,OpenStreetMap,2020-04-02T01:52:48.000Z,,False
271cd921-c967-43c5-8f48-6d2dab7d61aa,Alexandria pharmacy inc,pharmacy,"['beauty_and_spa', 'health_and_medical']",61b4791a-a1f1-4989-a742-e99006ae5993,,,,new-york,NY,Astoria,11103.0,25-46 Steinway St,40.7668401,-73.9127469,meta,2025-06-02T07:00:00.000Z,0.909823677581864,OpenStreetMap,2014-05-09T19:46:54.000Z,,False
271cd921-c967-43c5-8f48-6d2dab7d61aa,Alexandria pharmacy inc,pharmacy,"['beauty_and_spa', 'health_and_medical']",dff46a37-b800-4785-a763-856ac3f86e09,,,,new-york,NY,Astoria,11103.0,25-46 Steinway St,40.7668401,-73.9127469,meta,2025-06-02T07:00:00.000Z,0.909823677581864,OpenStreetMap,2014-05-09T19:46:53.000Z,,False
271cd921-c967-43c5-8f48-6d2dab7d61aa,Alexandria pharmacy inc,pharmacy,"['beauty_and_spa', 'health_and_medical']",bdc86df0-6346-4839-9773-4bd2211e6dca,,,,new-york,NY,Astoria,11103.0,25-46 Steinway St,40.7668401,-73.9127469,meta,2025-06-02T07:00:00.000Z,0.909823677581864,OpenStreetMap,2014-05-09T19:46:53.000Z,,False
2daeb94b-6a98-4573-91b7-98d5544b59db,St. Antonious and St. Mina Coptic Orthodox Church of Alexandria,church_cathedral,['religious_organization'],3d6f49e3-73e2-4584-97bf-18b788b85afc,,,,new-york,NJ,East Rutherford,7073.0,147 Park Ave,40.8320309,-74.0977696,meta,2025-06-02T07:00:00.000Z,0.9784508333782836,OpenStreetMap,2023-07-04T14:28:51.000Z,,False
3f4a0c47-85cd-4d8f-9e95-227682fc2395,Alexandria House,landmark_and_historical_building,"['real_estate_service', 'real_estate']",42a70796-3316-40b0-b116-2ed7730cced1,Alexandria House,,,new-york,NY,New York,10025.0,250 W 103rd St,40.7994382,-73.9694501,meta,2025-06-02T07:00:00.000Z,0.909823677581864,OpenStreetMap,2024-01-31T11:10:52.000Z,,False
5f6c99c9-2d9f-4de8-a9bb-8ec7c2fe55c2,Alexandria Hair and Nail Salon,beauty_and_spa,"['hair_salon', 'business']",006deeab-a77b-4f52-890b-04feaf2e59e5,,,,new-york,NY,New York,10040.0,1612 St Nicholas Ave,40.8552889,-73.929217,meta,2025-06-02T07:00:00.000Z,0.9459263554653524,OpenStreetMap,2014-04-17T20:37:04.000Z,,False
ab318674-dced-4dce-9a9f-2990888e8b64,Alexandria Cosmetics,cosmetic_and_beauty_supplies,['wholesale_store'],e3a61684-6235-4c7e-99a4-ce293c7ab6bc,,commercial,commercial,new-york,NY,Patchogue,11772.0,3 Lake St,40.7670221,-73.0154341,meta,2025-06-02T07:00:00.000Z,0.8860580325548478,OpenStreetMap,2021-06-02T13:06:23.000Z,,False
9fe0add6-0bbe-4a2f-9b66-931e6d361b52,Alexandria Industries,industrial_equipment,"['metal_supplier', 'commercial_industrial']",,,,,dallas,TX,Carrollton,75006.0,1305 W Crosby Rd,32.9463115,-96.9160702,meta,2025-06-02T07:00:00.000Z,0.9459263554653524,,,,False
559629a6-7797-4f0d-b3ed-3d388bc1f30d,"Dr. Alexandria Watkins, DNP-APRN, FNP-C",nurse_practitioner,['health_and_medical'],d243e5aa-1296-450b-9f58-33dbe62158c3,,commercial,commercial,dallas,TX,Carrollton,75007.0,3740 N Josey Lane Ste 201,33.01395,-96.88622,Microsoft,2025-05-22T12:57:13.417Z,0.77,OpenStreetMap,2019-01-11T20:23:21.000Z,,False
c8cb402b-ebc4-467f-bcc6-07da8648874c,Alexandria Palmer,real_estate_agent,['professional_services'],,,,,dallas,TX,Plano,75024.0,"Local Realty Agency, 6860 N Dallas Pkwy",33.0710994,-96.8232229,meta,2025-06-02T07:00:00.000Z,0.8831168831168831,,,,False
b00490f1-14fb-46ff-9827-1240b9634347,Alexandria Salon & Spa,hair_salon,"['beauty_salon', 'beauty_and_spa']",b9fa58ff-9432-42d2-9b3b-1090c6b9163e,,,,sacramento,CA,Fair Oaks,95628.0,11727 Fair Oaks Blvd,38.6652141,-121.2630611,meta,2025-06-02T07:00:00.000Z,0.9784508333782836,OpenStreetMap,2024-12-09T23:57:09.000Z,,False
5f6a7c24-b239-4bc7-9445-3c20f585b567,Alexandria Boswell,real_estate_agent,['professional_services'],4a83003a-717b-4b8d-a137-9ccd66d70376,,,,san-diego,CA,Del Mar,92014.0,1155 Camino del Mar,32.9565033,-117.2638382,meta,2025-06-02T07:00:00.000Z,0.8540983606557377,OpenStreetMap,2021-07-06T16:30:28.000Z,,False
9650357a-54e1-4095-ba08-6233bbebfc4f,EXOS at The Alexandria,gym,"['hotel', 'sports_and_fitness_instruction']",09195d0a-7dfd-4364-b925-f1ce965e7f39,,,,san-diego,CA,San Diego,92121.0,10996 Torreyana Rd,32.904387,-117.239121,meta,2025-06-02T07:00:00.000Z,0.7548172757475083,OpenStreetMap,2010-11-28T01:22:58.000Z,,False
763d5806-b090-4524-8ca3-defee65b4436,The Alexandria At Torrey Pines,park,"['topic_concert_venue', 'health_and_medical']",09195d0a-7dfd-4364-b925-f1ce965e7f39,,,,san-diego,CA,San Diego,92121.0,10996 Torreyana Rd,32.904387,-117.239121,meta,2025-06-02T07:00:00.000Z,0.5662921348314607,OpenStreetMap,2010-11-28T01:22:58.000Z,,False
e4f968e9-d6d9-49cf-8272-50f1407a3831,"Alexandria Room, Banquet Facility",topic_concert_venue,['event_planning'],ba60b4e6-8c27-4aa1-abdc-b277ff450005,,,,buffalo,NY,Buffalo,14219.0,4785 Lake Ave,42.79568,-78.80346,meta,2025-06-02T07:00:00.000Z,0.7548172757475083,Microsoft ML Buildings,2023-05-27T00:00:00.000Z,0.9987000226974488,False
a2ac225b-dc0f-4d30-a902-cb6353f2282b,Alexandria Professional,hair_removal,"['beauty_and_spa', 'skin_care']",f6733223-805e-4c81-9d40-af64fd888abb,Williamsville Executive Center,commercial,commercial,buffalo,NY,Williamsville,14221.0,5500 Main St,42.9630632,-78.7480992,meta,2025-06-02T07:00:00.000Z,0.9415384615384615,OpenStreetMap,2024-09-15T15:23:35.000Z,,False
38c7d17d-4dbe-4b77-98d0-941b28a2ad3b,Aesthetics by Alexandria,beauty_and_spa,['spas'],a078cb45-a5ff-4825-8bb4-ed1272d4a27a,,,,buffalo,NY,Williamsville,14221.0,5528 Main St,42.9627537,-78.7469782,meta,2025-06-02T07:00:00.000Z,0.9204819277108434,OpenStreetMap,2024-02-01T16:40:11.000Z,,False
86828e1e-c27a-4a18-b0b4-1d7f181bb24f,Aesthetics by Alexandria,beauty_and_spa,['skin_care'],4aec5324-d650-4ac6-a2a0-bfcf604fa3ca,,,,new-haven,CT,North Haven,6473.0,528 Washington Ave,41.4167289,-72.8400712,meta,2025-06-02T07:00:00.000Z,0.909823677581864,OpenStreetMap,2016-03-15T05:09:33.000Z,,False
dca67afc-248c-46a1-bbde-39f9e725e57f,"Alexandria Hall, LSW",counseling_and_mental_health,,6e84e9de-d7af-4118-9be2-febe6e031880,,,,chicago,IL,Burr Ridge,60527.0,745 McClintock Dr,41.7521204,-87.9085083,meta,2025-06-02T07:00:00.000Z,0.242152466367713,OpenStreetMap,2018-11-21T18:54:50.000Z,,False
6ce36084-dd52-4cb8-b275-d94611d89e94,Halkias Alexandria Od,doctor,"['optometrist', 'health_and_medical']",,,,,chicago,IL,Saint Charles,60175.0,40W330 Lafox Rd,41.935448,-88.4015282,Microsoft,2025-04-09T06:16:33.843Z,0.77,,,,False
608f9350-c5d9-484d-a4e3-a9934c62ad32,Beauty By Alexandria Artistry,beauty_and_spa,,8aeb0b98-6fb3-4a3f-9ad2-21fad2f94cac,,residential,apartments,chicago,IL,Palatine,60067.0,49 N Bothwell St,42.1118996,-88.0447693,meta,2025-06-02T07:00:00.000Z,0.242152466367713,OpenStreetMap,2022-12-22T18:16:23.000Z,,False
11c7fbe5-41b2-477f-9959-6a6a975c65f1,St Catherine of Alexandria,elementary_school,"['private_school', 'school']",,,,,chicago,IL,Oak Lawn,60453.0,10621 Kedvale Ave,41.6998296,-87.7240697,meta,2025-06-02T07:00:00.000Z,0.9784508333782836,,,,False
ed96a5eb-a0f6-499a-ad7c-6e211f803066,"Alexandria Clarke Kregor, DO",doctor,['health_and_medical'],08d267c9-8472-4e43-bb6e-36f4fe169196,,medical,hospital,chicago,IL,Oak Lawn,60453.0,4440 W 95th St,41.7234117,-87.7330709,Microsoft,2025-05-07T09:41:27.020Z,0.77,OpenStreetMap,2025-03-11T19:47:56.000Z,,False
ee566645-1456-425d-ba5d-695dbd6c02fb,"Alexandria Lauren Barrett, NP",doctor,"['nurse_practitioner', 'health_and_medical']",08d267c9-8472-4e43-bb6e-36f4fe169196,,medical,hospital,chicago,IL,Oak Lawn,60453.0,4440 W 95th St,41.7234117,-87.7330709,Microsoft,2025-05-07T09:26:08.193Z,0.77,OpenStreetMap,2025-03-11T19:47:56.000Z,,False
fa48ff3a-9d94-4594-bb9d-d64891e19c9e,"Alexandria Holliday, MD",pediatrician,"['doctor', 'health_and_medical']",5059a4cc-439e-44c7-a388-a3ce20e0099a,,transportation,parking,chicago,IL,Evergreen Park,60805.0,9730 S Western Ave Ste 500,41.7162471,-87.682575,Microsoft,2025-05-07T08:49:44.500Z,0.77,OpenStreetMap,2024-09-03T03:42:17.000Z,,False
fa48ff3a-9d94-4594-bb9d-d64891e19c9e,"Alexandria Holliday, MD",pediatrician,"['doctor', 'health_and_medical']",f537bf96-3c54-48d6-9306-6e20d925f2c5,Evergreen Tower,commercial,office,chicago,IL,Evergreen Park,60805.0,9730 S Western Ave Ste 500,41.7162471,-87.682575,Microsoft,2025-05-07T08:49:44.500Z,0.77,OpenStreetMap,2025-05-07T15:47:11.000Z,,False
6e3d81ce-56a1-42f6-a27a-0a5e81ead8b5,Clement of Alexandria Theological Academy,school,"['college_university', 'education']",f1820098-ef46-42db-91aa-5c62f6887ef4,,,,chicago,IL,Chicago,60615.0,4727 S Wabash Ave,41.8084321,-87.6241858,meta,2025-06-02T07:00:00.000Z,0.9784508333782836,OpenStreetMap,2013-03-17T01:13:39.000Z,,False
72ab23f7-4f5e-4335-b56f-a7912d77d262,Alexandria Wills,shoe_store,"['fashion_accessories_store', 'clothing_store']",56d60763-39e2-4cba-9a56-fa14c606748d,,,,chicago,IL,Chicago,60608.0,1909 S Halsted St,41.8564123,-87.6464276,meta,2025-06-02T07:00:00.000Z,0.9784508333782836,OpenStreetMap,2013-03-15T13:10:34.000Z,,False
d5d3aaef-682c-4d62-b59d-f874f51726bb,Park Alexandria Condominium Association,landmark_and_historical_building,"['accommodation', 'park']",d11968fd-173d-4b5e-9c6e-0120004ee098,Park Alexandria,residential,apartments,chicago,IL,Chicago,60661.0,125 S Jefferson St,41.8798264,-87.642413,meta,2025-06-02T07:00:00.000Z,0.9415384615384615,OpenStreetMap,2019-04-24T12:01:44.000Z,,False
18bf06ce-61d8-4f26-9d84-86ddd75530d5,"Alexandria Susan Dean Paradis, PA",doctor,['health_and_medical'],96668890-75c8-47fd-b0e0-fb5b8db108c5,,commercial,commercial,chicago,IL,Lincolnshire,60069.0,100 Village Green Dr Suite 120,42.2030614,-87.9301215,Microsoft,2025-05-07T09:39:46.313Z,0.77,OpenStreetMap,2019-08-06T16:09:46.000Z,,False
e2e0fa7e-277d-472f-8a7d-9396ef31933a,Alexandria Fortenbery,counseling_and_mental_health,['psychotherapist'],f7d8a2c7-1dfb-4c6a-98a4-601b2e39663b,,,,kansas-city,MO,Kansas City,64110.0,601 E 63rd St,39.0132498,-94.580817,meta,2025-06-02T07:00:00.000Z,0.8831168831168831,OpenStreetMap,2023-08-21T05:18:57.000Z,,False
e2e0fa7e-277d-472f-8a7d-9396ef31933a,Alexandria Fortenbery,counseling_and_mental_health,['psychotherapist'],59de8d66-98ff-436d-a0c4-934d022c2696,,transportation,parking,kansas-city,MO,Kansas City,64110.0,601 E 63rd St,39.0132498,-94.580817,meta,2025-06-02T07:00:00.000Z,0.8831168831168831,OpenStreetMap,2020-01-20T03:56:31.000Z,,False
527b33e0-eec0-46f8-804b-3ed0dacd8901,"Alexandria E. Felton-Church MD, FAAP",pediatrician,"['doctor', 'health_and_medical']",,,,,kansas-city,MO,Kansas City,64108.0,2401 Gillham Rd,39.083979,-94.57697,Microsoft,2024-08-20T21:02:53.233Z,0.77,,,,False
f2fd0a14-f264-4358-abea-d1bc84b50e02,Salon Alexandria,beauty_and_spa,"['beauty_salon', 'cosmetic_and_beauty_supplies']",513f1827-21d3-4617-9741-855a8b256fa6,,,,kansas-city,MO,Kansas City,64106.0,524 Gillis St,39.1097958,-94.5707796,meta,2025-06-02T07:00:00.000Z,0.9300613496932516,OpenStreetMap,2025-01-16T05:24:29.000Z,,False
5730ca99-3a55-47dc-85f0-3d7918b64c67,Alexandria Apartments,apartments,,7cfe5e60-4fe5-467c-be1e-3e8e740e463c,Alexandria Apartments,,,kansas-city,MO,Kansas City,64109.0,1326-28 E Armour Blvd,39.0634618,-94.5681277,Microsoft,2021-09-21T10:09:20.150Z,0.77,OpenStreetMap,2018-05-26T18:40:36.000Z,,False
5730ca99-3a55-47dc-85f0-3d7918b64c67,Alexandria Apartments,apartments,,3c2093d3-c785-4b03-bcde-2ddb5e10a3a8,,,,kansas-city,MO,Kansas City,64109.0,1326-28 E Armour Blvd,39.0634618,-94.5681277,Microsoft,2021-09-21T10:09:20.150Z,0.77,OpenStreetMap,2018-05-26T18:40:36.000Z,,False
de6f01a9-c6a1-496f-8ec8-6b098b06efb4,Mortgages Made Easy with Alexandria,installment_loans,,bfebc864-051b-46d2-bf4b-0477259e82cc,,,,columbus-ohio,OH,Columbus,43212.0,777 Goodale Blvd,39.974,-83.02442,meta,2025-06-02T07:00:00.000Z,0.2456896551724137,OpenStreetMap,2012-06-13T04:18:34.000Z,,False
0f7727b8-f6b8-446b-b713-25ed6100a4bb,Alexandria Colony,landmark_and_historical_building,"['real_estate_service', 'real_estate']",3e218bd9-17aa-4b5b-917d-40efd0ab8ace,,residential,apartments,columbus-ohio,OH,Columbus,43215.0,784 Thurber Dr W,39.976831,-83.016055,meta,2025-06-02T07:00:00.000Z,0.7548172757475083,OpenStreetMap,2020-02-25T21:05:46.000Z,,False
03303402-4e4c-41bb-af81-e95a804d5f27,Orange and Alexandria Railroad Bridge Piers,landmark_and_historical_building,"['active_life', 'museum']",,,,,washington-dc,,,20111.0,,38.776661,-77.4217362,meta,2025-06-02T07:00:00.000Z,0.9415384615384615,,,,False
557690a7-694e-4846-a56c-32c469ed4c70,Alexandria Metal Finishers,commercial_industrial,"['professional_services', 'industrial_equipment']",1ac71a32-f6d8-4126-b894-ee8d63bdab96,,,,washington-dc,VA,Lorton,22079.0,9418 Gunston Cove Rd,38.7017275,-77.223127,meta,2025-06-02T07:00:00.000Z,0.9459263554653524,OpenStreetMap,2018-02-01T20:54:06.000Z,,False
334a16d7-1e33-4340-8c5f-9716a6af476d,Transmissions of Alexandria,automotive_repair,"['automotive', 'automotive_parts_and_accessories']",bed249b9-1aa4-4fa1-96af-b35e01de28b5,,industrial,industrial,washington-dc,VA,Lorton,22079.0,7201 Telegraph Square Dr,38.717045,-77.194246,meta,2025-06-02T07:00:00.000Z,0.3961437335670464,OpenStreetMap,2021-03-27T17:23:58.000Z,,False
bf979cfc-2e15-48c8-ad56-0f9273252c18,DUCTZ of North Alexandria and Central Fairfax,hvac_services,"['home_cleaning', 'contractor']",f346c0c1-c23c-4d62-83fc-8689b0887881,,,,washington-dc,VA,Lorton,22079.0,7200 Telegraph Square Dr,38.7180446,-77.1936895,meta,2025-06-02T07:00:00.000Z,0.9459263554653524,OpenStreetMap,2013-10-18T05:14:52.000Z,,False
3808b34b-9f33-41e0-8b02-6e4c5f109fd9,Iglesia de Dios en Alexandria,church_cathedral,['religious_organization'],715a9d53-1e77-4909-a453-143807c5e9bc,,,,washington-dc,VA,Lorton,22079.0,8350 Terminal Rd,38.73146,-77.19416,meta,2025-06-02T07:00:00.000Z,0.5662921348314607,OpenStreetMap,2012-01-18T12:12:04.000Z,,False
cc495bdb-81a5-43e8-9aab-1321f558a3f4,Grizzly Auto Detailing - Alexandria,car_wash,['auto_detailing'],,,,,washington-dc,VA,Alexandria,0.0,,38.73158,-77.18922,meta,2025-06-02T07:00:00.000Z,0.3313953488372093,,,,False
71be87cb-7f60-43f4-8fcf-2bdb5d0ba1e4,"AdvantaClean of Fairfax, Arlington and Alexandria",damage_restoration,['air_duct_cleaning_service'],acc9666d-6548-4046-84b1-e4c95397bc08,,residential,detached,washington-dc,VA,Fairfax,22030.0,11022 Byrd Dr,38.8467330932617,-77.3291397094727,Microsoft,2014-03-17T13:49:49.243Z,0.77,OpenStreetMap,2022-12-01T11:48:49.000Z,,False
c40f8332-1c66-4ad6-84f7-60aeaac388d5,Alexandria Compounding Pharmacy,pharmacy,"['health_and_medical', 'naturopathic_holistic']",435a7f3f-b377-4572-8e57-b6e820ef2a5f,,commercial,commercial,washington-dc,VA,Fairfax,22031.0,9868 Main St,38.8443162,-77.2870524,meta,2025-06-02T07:00:00.000Z,0.9784508333782836,OpenStreetMap,2015-12-17T20:48:00.000Z,,False
73dfcc7f-866f-4fa4-a1de-6537cef9f815,Alexandria Pest Services,pest_control_service,"['home_inspector', 'professional_services']",1b47f162-6353-452e-a865-b4fea627c77a,,,,washington-dc,VA,Springfield,22150.0,6715 Backlick Rd,38.7716864,-77.1835635,meta,2025-06-02T07:00:00.000Z,0.9300613496932516,OpenStreetMap,2021-02-04T04:42:44.000Z,,False
73dfcc7f-866f-4fa4-a1de-6537cef9f815,Alexandria Pest Services,pest_control_service,"['home_inspector', 'professional_services']",6873c5e0-ea75-418d-bc46-44699afa16b2,,,,washington-dc,VA,Springfield,22150.0,6715 Backlick Rd,38.7716864,-77.1835635,meta,2025-06-02T07:00:00.000Z,0.9300613496932516,OpenStreetMap,2021-02-04T04:42:44.000Z,,False
0318f1f1-ddf9-4869-991c-eb5a104dfae0,Discount Car Insurance | Lowered Rates of Alexandria,auto_insurance,,da7d6e4d-ed76-4d85-8228-738383d5e96e,,,,washington-dc,VA,Alexandria,22312.0,5730 General Wash Dr,38.7959985,-77.1683776,Microsoft,2025-05-03T07:21:04.320Z,0.77,OpenStreetMap,2022-09-16T06:39:00.000Z,,False
5686ae21-1609-4bb8-8646-a2e9f2d75cae,Association of Alexandria Radiologists,radiologist,"['doctor', 'corporate_office', 'health_and_medical', 'private_establishments_and_corporates']",,,,,washington-dc,VA,Springfield,22151.0,8001 Forbes Pl Ste 103,38.8080555,-77.2202316,Microsoft,2022-09-29T17:29:26.593Z,0.77,,,,True
cbf3db1d-5738-4efc-b073-8af7b1364c66,"Association Alexandria Radiologist, PC (AAR) - Corporate Office",radiologist,"['doctor', 'corporate_office', 'health_and_medical', 'private_establishments_and_corporates']",e7ceec34-3796-4f7b-b2bf-1cbeb6f97e5f,,,,washington-dc,VA,Springfield,22151.0,8001 Forbes Pl Ste 103,38.807465,-77.219652,Microsoft,2019-05-22T02:10:41.597Z,0.77,OpenStreetMap,2022-09-14T06:39:54.000Z,,True
0dcc3b1f-5162-493e-8a23-4083ee009d57,Alexandria Podiatry Associates,podiatrist,"['doctor', 'hospital']",8c1dec93-765c-46b8-b517-2f19305113af,Professional BLDG,,,washington-dc,VA,Annandale,22003.0,7023 Little River Tpke,38.8286309,-77.1881655,meta,2025-06-02T07:00:00.000Z,0.9784508333782836,OpenStreetMap,2020-07-22T18:31:44.000Z,,False
968318f0-8fd2-4ae8-b88f-dde04ebe5406,Alexandria Friends Meeting at Woodlawn,church_cathedral,['religious_organization'],,,,,washington-dc,VA,Fort Belvoir,22060.0,8990 Woodlawn Rd,38.7142434,-77.1419893,meta,2025-06-02T07:00:00.000Z,0.9415384615384615,,,,False
dba9a676-551a-4df9-98f9-19ab491b059a,Revival International - Alexandria Aparche,religious_organization,['church_cathedral'],d0335825-871c-452e-9e76-f5790f8cd18a,,,,washington-dc,VA,Alexandria,22309.0,5521 Old Mill Rd,38.7103,-77.12262,meta,2025-06-02T07:00:00.000Z,0.4929396662387676,OpenStreetMap,2022-09-13T06:25:16.000Z,,False
c7ac7211-9f08-4e4d-92e5-11b284fbae9f,Tutor Doctor of Alexandria-Springfield,tutoring_center,['education'],,,,,washington-dc,VA,Alexandria,22309.0,9023 Patton Blvd,38.71261,-77.11955,Microsoft,2017-11-11T17:01:23.403Z,0.77,,,,False
a7ab9423-0ec2-4410-b1c5-d3aa2d0e2aa4,City Cruises Alexandria Mount Vernon,sightseeing_tour_agency,"['travel_agents', 'travel']",df2edae1-b8ac-4987-ba35-00bab906a7a0,Mount Vernon Mansion,residential,detached,washington-dc,VA,Mount Vernon,22121.0,George Washington’s Mount Vernon,38.707982,-77.0861753,Microsoft,2023-02-28T00:14:24.843Z,0.77,OpenStreetMap,2024-09-28T13:41:30.000Z,,False
7b081779-a5ea-4cd6-ad74-b7245fe46e88,stayAPT Suites Alexandria-Fort Belvoir,resort,"['hotel', 'motel']",a929bd28-f0d0-4557-a1ac-7e159501b81e,Quality Inn & Suites,commercial,hotel,washington-dc,VA,Alexandria,22309.0,8849 Richmond Hwy,38.7167112,-77.1309118,Microsoft,2025-04-15T17:24:26.140Z,0.77,OpenStreetMap,2025-03-03T02:01:05.000Z,,False
83a2f334-49dd-4221-a625-e48a5a86b39b,Candlewood Suites Alexandria - Fort Belvoir,hotel,['travel'],74097e7b-b0f0-4dd2-a378-ee15cbb6fd72,Candlewood Suites Alexandria - Fort Belvoir,commercial,hotel,washington-dc,VA,Alexandria,22309.0,8847 Richmond Hwy,38.7172778,-77.13034,meta,2025-06-02T07:00:00.000Z,0.9459263554653524,OpenStreetMap,2024-01-17T03:37:53.000Z,,False
13294296-a293-4c6a-9973-b893f39fdbcc,Hampton Inn & Suites Fort Belvoir Alexandria South,hotel,"['travel', 'business']",,,,,washington-dc,VA,Alexandria,22309.0,8843 Richmond Hwy,38.7185055,-77.1301082,meta,2025-06-02T07:00:00.000Z,0.9784508333782836,,,,False
f1de3a77-722f-448c-b773-8626799858c5,BEST WESTERN Plus Alexandria / Fort Belvoir,resort,['hotel'],,,,,washington-dc,VA,Alexandria,22309.0,8751 Richmond Hwy,38.7198443,-77.1266405,Microsoft,2024-12-31T09:37:31.700Z,0.77,,,,False
4da36e01-b102-4556-9a24-4e982498593c,Nova Pregnancy Help Center of Alexandria,obstetrician_and_gynecologist,"['doctor', 'maternity_centers', 'emergency_service', 'health_and_medical']",fcf854fa-ea62-488f-9658-cff1498986bb,,,,washington-dc,VA,Alexandria,22309.0,8800 Pear Tree Village Ct,38.7194786,-77.1252133,Microsoft,2023-10-14T13:44:56.853Z,0.77,OpenStreetMap,2019-07-26T21:18:58.000Z,,False
b880bb78-f7d7-4cc9-8462-6ccf0be397f1,El Paso Cooper rd Alexandria,mexican_restaurant,"['restaurant', 'bar']",49db66cb-92e3-4902-9dbd-b572b6e0ea47,,,,washington-dc,VA,Alexandria,22309.0,8746 Cooper Rd,38.7193384,-77.1242675,meta,2025-06-02T07:00:00.000Z,0.9784508333782836,OpenStreetMap,2019-07-26T21:18:58.000Z,,False
35d0d529-6a1c-4c5e-844d-cd1b46d20603,Pollo Royal Alexandria VA,peruvian_restaurant,"['chicken_restaurant', 'restaurant']",d3dea0b0-69e3-4057-9510-6321bf3f5a77,,,,washington-dc,VA,Alexandria,22309.0,8723 Cooper Rd,38.720378,-77.124192,meta,2025-06-02T07:00:00.000Z,0.4929396662387676,OpenStreetMap,2019-07-27T13:57:19.000Z,,False
03c8afa8-aa05-4942-9c8c-8166388d050a,Superior Alexandria Chimney Cleaning,chimney_sweep,['chimney_service'],45ae6209-dd2a-436a-bb9d-7195eddc8223,,,,washington-dc,VA,Alexandria,22309.0,"8752 Richmond Hwy, 409",38.72084,-77.12536,Microsoft,2025-05-23T21:08:27.020Z,0.77,OpenStreetMap,2022-09-13T06:25:20.000Z,,False
79b9e3b2-1bba-4da0-b7cf-e9324fe0b8e6,Woof Gang Bakery & Grooming Alexandria,pet_groomer,"['pet_store', 'pet_services']",fc5495b6-5ea4-4d2e-abaa-7ad00d90eb13,,commercial,retail,washington-dc,VA,Alexandria,22315.0,6462 Landsdowne Center Dr,38.7400098,-77.1649832,meta,2025-06-02T07:00:00.000Z,0.9784508333782836,OpenStreetMap,2020-06-25T20:50:13.000Z,,False
b84cca4e-cfd6-4a09-b2b2-95536d9a19ea,Mathnasium of Alexandria,tutoring_center,"['test_preparation', 'educational_services']",1ce9fc9a-a74a-4a0b-98bc-3c9f1640fd07,,commercial,retail,washington-dc,VA,Alexandria,22315.0,6483 Old Beulah St,38.7418313,-77.1633008,meta,2025-06-02T07:00:00.000Z,0.9784508333782836,OpenStreetMap,2016-01-16T15:10:12.000Z,,False
13b5f102-6350-4c8c-a086-1f4a922e4890,"Long & Foster Kingstowne Alexandria, VA - Realty",real_estate_agent,['real_estate_service'],2d747867-941a-4ec7-b119-d6db2fc12492,,commercial,retail,washington-dc,VA,Alexandria,22315.0,7875 Heneska Loop,38.742323,-77.163742,Microsoft,2025-05-21T23:57:05.293Z,0.77,OpenStreetMap,2020-07-19T20:57:18.000Z,,False
8270ca50-ec9d-4503-b6cc-5aeb10e58fb3,Sport Clips Haircuts of Alexandria - Ft Belvoir,hair_stylist,"['barber', 'hair_salon', 'beauty_and_spa']",710e2f99-554c-4cb0-bfae-a99cf0375df6,,commercial,retail,washington-dc,VA,Alexandria,22315.0,6453 Old Beulah St,38.74218,-77.16257,Microsoft,2023-11-09T15:57:09.613Z,0.77,OpenStreetMap,2020-07-19T20:57:18.000Z,,False
5db6b3fa-2990-476c-9136-9083f897421b,The Crest of Alexandria,construction_services,['professional_services'],a92dea2b-fae2-4f34-b624-01bcee17040b,,residential,apartments,washington-dc,,,22315.0,6107 Fairview Farm Dr,38.7459445,-77.152905,meta,2025-06-02T07:00:00.000Z,0.8860580325548478,OpenStreetMap,2023-11-02T22:42:15.000Z,,False
64f559f9-5def-47af-a260-b18d4fe02c32,Mattress Warehouse of Alexandria Hilltop,retail,,,,,,washington-dc,VA,Alexandria,22315.0,6464 Old Beulah St,38.74918,-77.15746,Microsoft,2016-12-27T16:06:44.967Z,0.77,,,,False
f7def074-d3e7-4793-856b-5c3a660a15fd,tru Primary & Urgent Care (truHealthNow) - Alexandria,health_and_medical,,9bffc701-a314-49ad-acfc-e838d8dc2d3a,,commercial,retail,washington-dc,VA,Alexandria,22315.0,7598 Telegraph Rd,38.75263,-77.14014,Microsoft,2025-05-14T05:17:29.527Z,0.77,OpenStreetMap,2020-07-22T13:42:29.000Z,,False
c9527db7-4321-417b-827b-87e4e519ccb8,C2 Education of Alexandria,tutoring_center,['education'],,,,,washington-dc,VA,Alexandria,22315.0,7590 Telegraph Rd,38.7523561,-77.139422,Microsoft,2022-01-18T21:41:10.377Z,0.77,,,,False
85ef013b-2256-43af-85c9-92cda5d69009,TownePlace Suites by Marriott Alexandria Fort Belvoir,hotel,"['accommodation', 'travel']",2302ccad-db8e-45ac-9eda-2c33b1e7fbeb,TownePlace Suites Alexandria Fort Belvoir,,,washington-dc,VA,Alexandria,22309.0,8632 Woodlawn Ct,38.722218,-77.1236418,meta,2025-06-02T07:00:00.000Z,0.9784508333782836,OpenStreetMap,2024-04-25T10:28:20.000Z,,False
481fe018-98c0-44f3-9181-2083938a3e43,Ourisman Kia of Alexandria,car_dealer,"['automotive_repair', 'automotive_dealer']",5dab5db7-87cb-45d5-90d1-931073e6a48b,,,,washington-dc,VA,Alexandria,22309.0,8670 Richmond Hwy,38.7222403,-77.1227131,meta,2025-06-02T07:00:00.000Z,0.9784508333782836,OpenStreetMap,2022-09-13T06:25:20.000Z,,False
6cea51cc-0f42-43ad-9434-15a8c77103f0,Black Friday Daily Deals Alexandria,flowers_and_gifts_shop,,9c96b598-a695-408b-8f1a-8e76e4e6e6e8,Safeway,commercial,retail,washington-dc,VA,Alexandria,22309.0,8644 Richmond Hwy,38.724454,-77.121121,meta,2025-06-02T07:00:00.000Z,0.9688311688311688,OpenStreetMap,2023-12-03T02:55:35.000Z,,False
a635e694-2d4d-4974-9c1e-04a38ef3401c,Alexandria Mobile Home Park,real_estate,"['mobile_home_park', 'real_estate_agent']",851563e5-c8d4-4b69-ab31-f5ce657882a7,,,,washington-dc,VA,Alexandria,22309.0,8501 Richmond Hwy,38.7266909,-77.1121576,meta,2025-06-02T07:00:00.000Z,0.9204819277108434,OpenStreetMap,2022-09-13T06:25:20.000Z,,False
487ebee8-16c1-4b72-bb3f-53578810dc73,Mimi of Alexandria,hair_salon,"['beauty_salon', 'beauty_and_spa']",2bce521f-2ad8-4fe3-8444-948789620527,,residential,residential,washington-dc,VA,Alexandria,22309.0,8498 Richmond Hwy,38.7277619,-77.1115582,meta,2025-06-02T07:00:00.000Z,0.9415384615384615,OpenStreetMap,2022-09-13T06:25:20.000Z,,False
67322785-855f-4fdb-9930-5be19a7277b4,Alexandria Green Carpet & Rug Cleaning,carpet_cleaning,"['home_cleaning', 'damage_restoration']",10e20542-4a42-4848-83dd-bbf6b29e902b,,residential,residential,washington-dc,VA,Alexandria,22309.0,8494 Richmond Hwy,38.728049,-77.110927,meta,2025-06-02T07:00:00.000Z,0.8860580325548478,OpenStreetMap,2022-09-13T06:25:23.000Z,,False
c41b3362-a1e0-4b97-bbd9-a330e9562ed7,Sky Zone Alexandria,sports_and_recreation_venue,"['active_life', 'arts_and_entertainment']",2ab38ac0-d348-4d8d-8926-e4b3604aed8f,,,,washington-dc,VA,Alexandria,22309.0,123 Main St S,38.7336387,-77.1034902,meta,2025-06-02T07:00:00.000Z,0.5662921348314607,OpenStreetMap,2022-09-13T06:25:20.000Z,,False
79450e8e-422e-4b75-b1f7-61b61bd3197a,Alexandria Pregnancy Help Center,obstetrician_and_gynecologist,"['doctor', 'health_and_medical']",3286380f-6ba5-400b-aee5-ab9548f4fabb,Bay Medical Care,,,washington-dc,VA,Alexandria,22309.0,8305 Richmond Hwy Ste 13a,38.732182,-77.100548,Microsoft,2015-05-27T15:37:11.440Z,0.77,OpenStreetMap,2025-05-24T01:52:17.000Z,,False
56dc90ca-430c-49d3-beb2-7a230eca03e1,Iglesia Hefziba Pentecostal Alexandria VA,religious_organization,['church_cathedral'],6247b669-518f-4d2e-a943-d525ed6eaeb1,,,,washington-dc,VA,Alexandria,22309.0,8306 Richmond Hwy,38.7330993,-77.1014023,meta,2025-06-02T07:00:00.000Z,0.4929396662387676,OpenStreetMap,2019-07-27T13:57:23.000Z,,False
f294a296-e4cc-4213-83c4-b92fe7705d57,Joyeria Crystal Alexandria,jewelry_store,['shopping'],c6457666-abf8-46e1-ae8e-5dfef51069f6,,,,washington-dc,VA,Alexandria,22309.0,8228 Richmond Hwy,38.7352871,-77.0986255,meta,2025-06-02T07:00:00.000Z,0.9459263554653524,OpenStreetMap,2022-09-13T06:25:20.000Z,,False
9a52919e-bbd1-4b38-824b-11f27b62de9c,Iglesia Pentecostal El Nuevo Mandamiento Alexandria VA,religious_organization,['church_cathedral'],30bcc606-411b-44a1-886d-4cfa007bb3be,,,,washington-dc,VA,Alexandria,22309.0,3801 Buckman Rd,38.737053,-77.097778,meta,2025-06-02T07:00:00.000Z,0.7548172757475083,OpenStreetMap,2022-09-13T06:25:20.000Z,,False
9c08b9a3-8b84-4263-8318-bc6b46bf06ea,Alexandria Richmond Hwy,gas_station,['convenience_store'],a0cdc24d-a176-48fe-8a32-e9af3f8e0f44,,,,washington-dc,VA,Alexandria,0.0,,38.7363515,-77.0952694,meta,2025-06-02T07:00:00.000Z,0.3961437335670464,Microsoft ML Buildings,2023-09-01T00:00:00.000Z,0.9990000128746032,False
ced6919d-0069-4d9a-b2eb-359ae6993aac,VAL Collision Alexandria,auto_body_shop,['automotive'],,,,,washington-dc,VA,Alexandria,22309.0,8153 Richmond Hwy,38.7362871,-77.0945542,Microsoft,2025-05-19T15:52:46.350Z,0.77,,,,False
06c06068-5ae1-4b11-910b-e383ce9efc12,Labor Finders Alexandria,employment_agencies,"['professional_services', 'laboratory_testing']",6551ac43-548c-43d5-926f-0f2d710cf7c6,,,,washington-dc,VA,Alexandria,22309.0,8121 Richmond Hwy,38.7375307,-77.0915226,meta,2025-06-02T07:00:00.000Z,0.9459263554653524,OpenStreetMap,2019-07-27T17:36:18.000Z,,False
ee3ad57b-fe45-446e-9b9d-322518b12da2,Walmart Alexandria - 7910 Richmond Hwy,shopping,"['supermarket', 'superstore']",e6d10042-6a8d-4f64-91f6-3672a06591a3,Walmart,commercial,retail,washington-dc,VA,Alexandria,22306.0,7910 Richmond Hwy,38.7436611,-77.0874229,meta,2025-06-02T07:00:00.000Z,0.9459263554653524,OpenStreetMap,2024-10-10T23:20:27.000Z,,False
01e8d2bd-f19b-4640-ae6f-561d7a12fb6f,Vista Banquet Hall of Alexandria,event_planning,['topic_concert_venue'],cb6a0ae8-f7d7-47c8-9cf6-e4d63b938446,,commercial,retail,washington-dc,VA,Alexandria,22306.0,7846 Richmond Hwy,38.7443924,-77.0857743,meta,2025-06-02T07:00:00.000Z,0.8253968253968254,OpenStreetMap,2022-09-08T18:27:11.000Z,,False
aa7d5815-549a-4979-9159-38ec32fc81b9,Mattress Warehouse of Alexandria Crossroads,retail,,,,,,washington-dc,VA,Alexandria,22306.0,7838 Richmond Hwy,38.74426,-77.08426,Microsoft,2016-12-27T16:06:44.967Z,0.77,,,,False
6d28e31b-01f8-40b8-b48a-7b4c0a06813f,Navy Recruiting Station Alexandria,public_and_government_association,"['armed_forces_branch', 'professional_services']",4a254a77-c581-4a91-9be7-9a977765224b,,commercial,retail,washington-dc,VA,Alexandria,22306.0,7828 Richmond Hwy,38.7454414,-77.0848465,meta,2025-06-02T07:00:00.000Z,0.7548172757475083,OpenStreetMap,2023-02-12T13:50:19.000Z,,False
2cec7c0c-d4d4-4da3-8ecb-c343fa0e27f2,ULTRASLIM Alexandria,weight_loss_center,"['health_and_medical', 'professional_services']",4f23e878-d9ef-4570-b130-4bb0eba2d31c,,commercial,retail,washington-dc,VA,Alexandria,22306.0,7770 Richmond Hwy,38.7471184,-77.0851872,meta,2025-06-02T07:00:00.000Z,0.9297091412742382,OpenStreetMap,2023-11-16T17:20:05.000Z,,False
8ea17db7-e112-46e1-9ba6-d0e1db32ffba,Alexandria Back and Neck Center a Palmercare Clinic,chiropractor,"['naturopathic_holistic', 'acupuncture']",4f23e878-d9ef-4570-b130-4bb0eba2d31c,,commercial,retail,washington-dc,VA,Alexandria,22306.0,7770 Richmond Hwy,38.7470634,-77.0846327,meta,2025-06-02T07:00:00.000Z,0.9879256218304756,OpenStreetMap,2023-11-16T17:20:05.000Z,,False
46c7d768-f5a8-4442-ae82-34d03d617917,Chiropractic - Alexandria,chiropractor,,4f23e878-d9ef-4570-b130-4bb0eba2d31c,,commercial,retail,washington-dc,VA,Alexandria,22306.0,7770 Richmond Hwy,38.74726,-77.08466,meta,2025-06-02T07:00:00.000Z,0.7548172757475083,OpenStreetMap,2023-11-16T17:20:05.000Z,,False
4131c7fc-832b-415e-b462-8d072ddf5a31,Sport Clips Haircuts of Alexandria,hair_salon,"['barber', 'beauty_and_spa']",857c9c44-a3c8-4608-8690-0fc4ec1e98ac,,commercial,retail,washington-dc,VA,Alexandria,22306.0,7732 Richmond Hwy,38.7480615,-77.083584,meta,2025-06-02T07:00:00.000Z,0.9784508333782836,OpenStreetMap,2022-09-08T18:27:09.000Z,,False
eb1d3b64-bc3f-4d9a-928f-0867d66c48eb,Alexandria Dental Smiles,dentist,"['cosmetic_dentist', 'doctor']",21e2e76c-140f-4374-82fc-3c049ad210e2,,commercial,retail,washington-dc,VA,Alexandria,22306.0,7686 Richmond Hwy,38.7506241,-77.0877394,meta,2025-06-02T07:00:00.000Z,0.9784508333782836,OpenStreetMap,2023-02-12T13:50:19.000Z,,False
227e54f0-2a19-41f2-a7b4-9140d9db4c16,Studio One of Alexandria,dance_school,"['professional_services', 'performing_arts']",21e2e76c-140f-4374-82fc-3c049ad210e2,,commercial,retail,washington-dc,VA,Alexandria,22306.0,7686 Richmond Hwy,38.7507785,-77.0877403,meta,2025-06-02T07:00:00.000Z,0.9459263554653524,OpenStreetMap,2023-02-12T13:50:19.000Z,,False
f013b9cb-7b5a-4774-8b09-516945f28db2,Solace Nail Spa _ Nail Salon Alexandria VA,nail_salon,"['spas', 'beauty_and_spa']",e20f7569-e235-4cb7-addc-9114c157a639,,commercial,retail,washington-dc,VA,Alexandria,22306.0,7704 Richmond Hwy,38.7492706,-77.0842855,meta,2025-06-02T07:00:00.000Z,0.9879256218304756,OpenStreetMap,2020-12-15T06:43:00.000Z,,False
81e54b75-3e7c-4e8b-9222-3530b2290662,Alexandria Dental Smiles,general_dentistry,"['pediatric_dentist', 'dentist', 'health_and_medical']",,,,,washington-dc,VA,Alexandria,22306.0,7686 Richmond Hwy Ste 201A,38.74968521296978,-77.08323173224926,Microsoft,2015-08-10T13:33:50.440Z,0.77,,,,False
6477ba71-e8fd-4f2d-b3b1-ff810204e3fd,Mattress Warehouse of Alexandria Route 1,retail,,ceb41857-97d9-4c8c-8ed1-b8c7276231fc,,,,washington-dc,VA,Alexandria,22306.0,7520 Richmond Hwy,38.75318,-77.08403,Microsoft,2016-12-27T16:06:44.967Z,0.77,OpenStreetMap,2019-07-27T13:57:25.000Z,,False
71c68b40-7f47-497a-baf0-54e6031c7af9,Pawnbrokers Of Alexandria,pawn_shop,['shopping'],ceb41857-97d9-4c8c-8ed1-b8c7276231fc,,,,washington-dc,VA,Alexandria,22306.0,7518 Richmond Hwy,38.7532566,-77.0838622,meta,2025-06-02T07:00:00.000Z,0.9459263554653524,OpenStreetMap,2019-07-27T13:57:25.000Z,,False
bf0bad73-8294-4e16-8499-1c88b9f0d474,Alexandria Service Station,gas_station,"['automotive_repair', 'eat_and_drink']",4683e4bd-6a92-41ee-a503-9ac634df9cda,,,,washington-dc,VA,Alexandria,22306.0,7501 Richmond Hwy,38.7541858,-77.0829925,meta,2025-06-02T07:00:00.000Z,0.9784508333782836,OpenStreetMap,2022-09-08T18:27:11.000Z,,False
c1be9dd2-5e50-4d3d-9d19-ec5d960b47aa,Alexandria,key_and_locksmith,"['private_investigation', 'professional_services']",,,,,washington-dc,VA,Alexandria,22306.0,2913 Arlington Dr,38.7540003,-77.0819814,meta,2025-06-02T07:00:00.000Z,0.4929396662387676,,,,False
573b422c-fdcb-4d7b-ab2c-26df60dcbbb6,Sheehy Honda of Alexandria Service & Parts Department,automotive,,440242c4-07af-4bc7-9da8-5649c9519302,Sheehy Honda,,,washington-dc,VA,Alexandria,22306.0,7434 Richmond Highway,38.7549823,-77.0842915,Microsoft,2025-04-19T09:56:21.153Z,0.77,OpenStreetMap,2023-10-28T13:03:47.000Z,,False
70c8cee9-22b0-4d17-836c-1b3e0a34640e,Beyer Kia Alexandria,automotive,,a0f757ce-ad2d-47b9-b01e-493e5b39c2e2,Subaru,,,washington-dc,VA,Alexandria,22306.0,7416 Richmond Highway B,38.7558997,-77.0842022,Microsoft,2025-05-19T15:53:09.193Z,0.77,OpenStreetMap,2023-10-28T13:03:47.000Z,,False
b64fbd95-4519-4d05-a485-ab79df9c7426,Safford Brown Mazda Alexandria,car_dealer,"['automotive_dealer', 'automotive_repair']",,,,,washington-dc,VA,Alexandria,22306.0,7400 Richmond Hwy,38.7569491,-77.0842215,meta,2025-06-02T07:00:00.000Z,0.9879256218304756,,,,False
15b641cf-9c93-4783-9738-1988728cda35,Brown's Alexandria Mazda,auto_parts_and_supply_store,"['used_car_dealer', 'automotive', 'retail']",,,,,washington-dc,VA,Alexandria,22306.0,7400 Richmond Hwy,38.75695,-77.083931,Microsoft,2014-01-20T21:06:09.040Z,0.77,,,,False
b8d49711-948c-4a2a-9d56-cb056a407bce,Alexandria Chiropractic,chiropractor,"['doctor', 'hospital']",0ccef810-c577-4fa0-8b8f-22dad2f43109,,,,washington-dc,VA,Alexandria,22306.0,7329 Richmond Hwy,38.7575879,-77.0832997,meta,2025-06-02T07:00:00.000Z,0.9459263554653524,OpenStreetMap,2022-09-08T18:27:11.000Z,,False
ae8d3a05-64cc-4054-9262-852049d7b968,Coleman Cemetary Alexandria Va,public_service_and_government,['funeral_services_and_cemeteries'],6cabf3dc-411d-4368-82e8-c2bfc34110b2,,residential,detached,washington-dc,VA,Alexandria,22308.0,2000 Collingwood Rd,38.7356357,-77.0654829,meta,2025-06-02T07:00:00.000Z,0.5662921348314607,OpenStreetMap,2022-09-07T06:50:44.000Z,,False
88667fed-a3a4-4873-9e91-ee2c3b619544,"Heritage Presbyterian Church, Alexandria, VA",church_cathedral,['religious_organization'],02110c1e-cf96-4764-8022-cb0b618789f2,Church,religious,religious,washington-dc,VA,Alexandria,22308.0,8503 Fort Hunt Rd,38.7253694,-77.0578146,meta,2025-06-02T07:00:00.000Z,0.9784508333782836,OpenStreetMap,2022-09-07T06:50:47.000Z,,False
9e03bde1-36ae-4260-b449-3b6c3814f6a7,Alexandria Boat Works,active_life,"['campground', 'boat_service_and_repair']",f934e1ba-f13a-4bb7-bdb4-49ae3df7b8e0,,residential,detached,washington-dc,VA,Alexandria,22308.0,811 Arcturus on the Potomac,38.737512,-77.043294,meta,2025-06-02T07:00:00.000Z,0.4929396662387676,OpenStreetMap,2022-09-07T06:50:41.000Z,,False
e7342455-3abe-45bd-9656-f99f397decf7,Alexandria & Clinton Allergy,allergist,"['doctor', 'health_and_medical']",,,,,washington-dc,VA,Alexandria,22306.0,7906 Andrus Rd Ste 7,38.7428846,-77.0797446,Microsoft,2013-05-07T11:23:21.293Z,0.77,,,,False
360c4f94-70f9-4550-8263-6b1c94303430,Alexandria Orthodontics,dentist,"['orthodontist', 'medical_service_organizations']",6bec5965-c6c0-44e7-adc8-d117ea4c8b4a,,commercial,office,washington-dc,VA,Alexandria,22306.0,2616 Sherwood Hall Ln,38.7434622,-77.0774103,meta,2025-06-02T07:00:00.000Z,0.9879256218304756,OpenStreetMap,2022-01-05T18:55:49.000Z,,False
360c4f94-70f9-4550-8263-6b1c94303430,Alexandria Orthodontics,dentist,"['orthodontist', 'medical_service_organizations']",b20e1e58-f886-4a80-b5b2-95ebd4f27046,,,,washington-dc,VA,Alexandria,22306.0,2616 Sherwood Hall Ln,38.7434622,-77.0774103,meta,2025-06-02T07:00:00.000Z,0.9879256218304756,Microsoft ML Buildings,2023-09-01T00:00:00.000Z,0.9672999978065492,False
b7dedc14-e730-4ccb-9c59-d980f5e0aac3,Discovery Mood & Anxiety Program - Alexandria,health_and_medical,,2331c2b5-00fc-4e8d-97aa-570bc23e4456,,,,washington-dc,VA,Alexandria,22306.0,7809 Schelhorn Rd,38.74556,-77.077107,Microsoft,2025-05-12T02:59:59.943Z,0.77,OpenStreetMap,2022-09-08T18:27:15.000Z,,False
c73e1a08-8764-4649-9709-d50ebb5bad6b,Alexandria Knife Sharpening & Laser Engraving,professional_services,"['appliance_repair_service', 'furniture_assembly']",8f7ffc14-248a-4b61-a6c0-0781958e20f0,,residential,detached,washington-dc,VA,Alexandria,22306.0,7710 Maid Marian Ct,38.7479133,-77.0607175,meta,2025-06-02T07:00:00.000Z,0.9784508333782836,OpenStreetMap,2022-09-08T18:27:09.000Z,,False
86a050a4-2eef-4d2d-a253-6c7b4fbccda3,"The Accounting Firm | CPA Alexandria, VA",bookkeeper,['payroll_services'],,,,,washington-dc,VA,Alexandria,22315.0,6379 Victor Gray Ct,38.7605168,-77.1613293,Microsoft,2017-07-18T01:39:56.900Z,0.77,,,,False
ae78a245-a961-4ece-8eff-a30bcf90b0cc,Premier Allergist - Alexandria,allergist,"['doctor', 'health_and_medical']",1dede83b-aa3e-4fc9-b2f2-6cd90e76f5c7,Inova Healthplex,medical,,washington-dc,VA,Alexandria,22310.0,6355 Walker Lane Ste #307,38.7671668,-77.1608289,Microsoft,2022-08-05T19:26:30.813Z,0.77,OpenStreetMap,2023-09-24T18:12:12.000Z,,False
32dee76c-f84f-429d-92b3-7c895d8a9b65,Pediatric Associates of Alexandria,pediatrician,"['hospital', 'medical_service_organizations']",1dede83b-aa3e-4fc9-b2f2-6cd90e76f5c7,Inova Healthplex,medical,,washington-dc,VA,Alexandria,22310.0,6355 Walker Ln,38.7673046,-77.1605764,meta,2025-06-02T07:00:00.000Z,0.9784508333782836,OpenStreetMap,2023-09-24T18:12:12.000Z,,False
73653e98-41e3-4037-bbc6-2bcf20c385e9,Alexandria Podiatry Associates,podiatrist,"['health_and_medical', 'doctor']",1dede83b-aa3e-4fc9-b2f2-6cd90e76f5c7,Inova Healthplex,medical,,washington-dc,VA,Alexandria,22310.0,6355 Walker Ln,38.7673358,-77.1606783,meta,2025-06-02T07:00:00.000Z,0.9784508333782836,OpenStreetMap,2023-09-24T18:12:12.000Z,,False
529344bb-54d4-4220-abb5-64928f100885,Alexandria Medical Associates,medical_center,['professional_services'],1dede83b-aa3e-4fc9-b2f2-6cd90e76f5c7,Inova Healthplex,medical,,washington-dc,VA,Alexandria,22310.0,6355 Walker Ln,38.7673233,-77.1606378,meta,2025-06-02T07:00:00.000Z,0.8860580325548478,OpenStreetMap,2023-09-24T18:12:12.000Z,,False
74335439-5bfe-4a0c-907f-e9efba30663c,Alexandria Hearing Centers,audiologist,"['doctor', 'professional_services']",1dede83b-aa3e-4fc9-b2f2-6cd90e76f5c7,Inova Healthplex,medical,,washington-dc,VA,Alexandria,22310.0,6355 Walker Ln,38.7673246,-77.1605656,meta,2025-06-02T07:00:00.000Z,0.9784508333782836,OpenStreetMap,2023-09-24T18:12:12.000Z,,False
ec337aaa-e889-4508-862b-e2912395d31f,TPG Pediatrics - Alexandria,pediatrician,"['doctor', 'medical_center', 'nurse_practitioner', 'health_and_medical']",,,,,washington-dc,VA,Alexandria,22310.0,6354 Walker Lane Ste 210,38.7686383,-77.1602858,Microsoft,2025-05-07T06:05:53.967Z,0.77,,,,False
0ce13f8c-c2ba-43b9-85be-1c100024debe,Movingtonova - Modern Alexandria & Arlington Living,real_estate_agent,['real_estate'],ba49304f-981c-4eda-8c32-a5405dc542e2,,,,washington-dc,VA,Alexandria,22310.0,6361 Walker Ln,38.7689,-77.15798,meta,2025-06-02T07:00:00.000Z,0.8253968253968254,OpenStreetMap,2022-09-11T20:19:49.000Z,,False
ac727131-1172-4ca3-9092-acb9a4e44578,Samson Properties Alexandria,real_estate_agent,['real_estate_service'],2b37e8a3-d16d-4e80-84e6-a7a860226ab1,,commercial,office,washington-dc,VA,Alexandria,22310.0,6363 Walker Ln Ste 130,38.7689933,-77.1570053,Microsoft,2025-05-21T07:46:09.983Z,0.77,OpenStreetMap,2020-07-30T16:31:14.000Z,,False
68dcf37d-5217-489f-8d3a-fcd15d973a16,Chesterbrook Academy Alexandria,preschool,"['school', 'day_care_preschool']",d1855a76-117d-4ba0-8fff-daacfa173df7,,education,school,washington-dc,VA,Alexandria,22315.0,6200 Interparcel Rd,38.7632792,-77.1525636,meta,2025-06-02T07:00:00.000Z,0.9784508333782836,OpenStreetMap,2020-12-18T03:19:07.000Z,,False
26f77e3d-1ca9-4ceb-b311-7e2416e897a8,Hyper Kidz Alexandria,amusement_park,"['playground', 'active_life']",9a22c48e-ed3e-4bf2-abfb-1c51ac71e4c8,Manchester Lakes Shopping Center,commercial,retail,washington-dc,VA,Alexandria,22310.0,7005 Manchester Blvd,38.7663739,-77.1539953,meta,2025-06-02T07:00:00.000Z,0.9784508333782836,OpenStreetMap,2025-04-22T22:59:56.000Z,,False
a3459544-2e63-45d8-a5ea-fd1030a4007b,"Anytime Fitness Alexandria, Va.",gym,"['active_life', 'vitamins_and_supplements']",9a22c48e-ed3e-4bf2-abfb-1c51ac71e4c8,Manchester Lakes Shopping Center,commercial,retail,washington-dc,VA,Alexandria,22310.0,7009 Manchester Blvd,38.7656713,-77.1528388,meta,2025-06-02T07:00:00.000Z,0.9784508333782836,OpenStreetMap,2025-04-22T22:59:56.000Z,,False
0684455f-0eb6-4795-a5e5-f17263a70cb6,La Petite Academy of Alexandria,preschool,"['child_care_and_day_care', 'school', 'education']",041bd337-fd22-484c-8f9c-c563635ab06f,,,,washington-dc,VA,Alexandria,22310.0,6175 Charles Arrington Dr,38.76693,-77.15243,Microsoft,2025-05-22T19:48:55.553Z,0.77,OpenStreetMap,2022-09-11T20:19:41.000Z,,False
32d46f82-2c8f-43dc-b143-80596f00e3e0,Daltile Sales Service Center - Alexandria,carpet_store,['contractor'],,,,,washington-dc,VA,Alexandria,22310.0,6760 Gravel Ave,38.7702956,-77.155155,meta,2025-06-02T07:00:00.000Z,0.9784508333782836,,,,False
1fe31ec4-7d69-46cf-b7e0-6c0078362d4c,City Electric Supply Alexandria,electrical_supply_store,['retail'],ad8cf08a-f05f-44e3-8530-8ca90c44ee8f,,commercial,warehouse,washington-dc,VA,Alexandria,22310.0,"6668 Fleet Drive, Fleet Industrial Park - Bldg 2",38.7724625,-77.1542139,Microsoft,2025-04-25T10:09:58.100Z,0.77,OpenStreetMap,2020-12-18T03:29:46.000Z,,False
52229e30-90fb-4568-857c-657df1b75a80,Spine Care of Alexandria,chiropractor,"['hospital', 'naturopathic_holistic']",4dd24b6c-3fb8-4cca-a5ab-ae046dd4fc1d,,residential,terrace,washington-dc,VA,Alexandria,22310.0,6285 Franconia Rd,38.7797647,-77.1552359,meta,2025-06-02T07:00:00.000Z,0.9784508333782836,OpenStreetMap,2022-11-29T11:14:16.000Z,,False
4bc6451d-40c8-4659-8618-870746b05245,Urban Natural Hair Alexandria,beauty_salon,"['beauty_and_spa', 'cosmetic_and_beauty_supplies']",4dd24b6c-3fb8-4cca-a5ab-ae046dd4fc1d,,residential,terrace,washington-dc,VA,Alexandria,22310.0,6279 Franconia Rd,38.77977,-77.1548399,meta,2025-06-02T07:00:00.000Z,0.4929396662387676,OpenStreetMap,2022-11-29T11:14:16.000Z,,False
7190fc33-106e-41de-b5b7-ac77ac0453c0,STD Clinic of Alexandria,hospital,"['diagnostic_services', 'health_and_medical']",bd20ac3e-383b-4028-a8ee-b05930ef577c,,residential,terrace,washington-dc,VA,Alexandria,22310.0,6226 Old Franconia Rd,38.7797557,-77.1538274,meta,2025-06-02T07:00:00.000Z,0.9415384615384615,OpenStreetMap,2022-09-11T20:19:46.000Z,,False
7acf0075-e385-48ed-9223-45b5822433a2,STD Clinic of Alexandria,medical_center,"['public_health_clinic', 'health_and_medical']",bd20ac3e-383b-4028-a8ee-b05930ef577c,,residential,terrace,washington-dc,VA,Alexandria,22310.0,6226 Old Franconia Rd Ste A,38.7798433,-77.1538644,Microsoft,2023-04-05T00:50:45.413Z,0.77,OpenStreetMap,2022-09-11T20:19:46.000Z,,False
9a683eca-520c-48be-9528-7591e1af32c6,Lifebulb Counseling & Therapy Alexandria,health_and_medical,,388ef2a1-2e26-4f97-86a6-ee23bf2aa3ca,,residential,terrace,washington-dc,VA,Alexandria,22310.0,6210 Old Franconia Rd Ste A,38.780154,-77.153489,Microsoft,2025-01-13T13:40:58.403Z,0.77,OpenStreetMap,2022-09-11T20:19:46.000Z,,False
cd3cf9e5-0317-4e25-b93e-3c6e0344aad8,Navy Officer Recruiting Station Springfield/Alexandria,public_and_government_association,,f7c85d49-962a-4953-b01e-7236e329eaf4,,,,washington-dc,VA,Alexandria,22310.0,6198 Franconia Rd,38.781474,-77.151497,meta,2025-06-02T07:00:00.000Z,0.5662921348314607,OpenStreetMap,2021-01-22T22:09:06.000Z,,False
efcc9187-31bf-415b-90ef-f76714821f23,Alexandria Center of Dentistry,dentist,"['health_and_medical', 'oral_surgeon']",62885945-d46f-49d8-9abe-80fce6a4e846,,,,washington-dc,VA,Alexandria,22310.0,6420 Grovedale Dr,38.7781911,-77.1481522,meta,2025-06-02T07:00:00.000Z,0.9784508333782836,OpenStreetMap,2013-05-27T01:03:58.000Z,,False
901a67f5-77ae-46b1-82e6-6a694734ec70,Walmart Alexandria - Kingstowne Center,supermarket,"['shopping', 'superstore']",f9b00369-31c3-46ff-921b-204915fb4ce9,Walmart,commercial,retail,washington-dc,VA,Alexandria,22315.0,5800 Kingstowne Ctr,38.7692768,-77.1361346,meta,2025-06-02T07:00:00.000Z,0.9784508333782836,OpenStreetMap,2024-10-10T23:20:27.000Z,,False
c6639c2f-5be7-4eb8-9be3-5496436575c3,Alexandria Walmart,parking,['shopping'],f9b00369-31c3-46ff-921b-204915fb4ce9,Walmart,commercial,retail,washington-dc,VA,Alexandria,22315.0,5885 Kingstowne Blvd,38.76975,-77.13614,meta,2025-06-02T07:00:00.000Z,0.3376623376623376,OpenStreetMap,2024-10-10T23:20:27.000Z,,False
d9200cfd-08ee-4844-ba7a-791d80aa5206,Medi-Weightloss Alexandria VA,weight_loss_center,['health_and_medical'],12b493ed-ce62-4fac-83f4-6131b971bfaa,,commercial,office,washington-dc,VA,Alexandria,22315.0,5695 King Centre Dr Ste 303,38.769473,-77.132584,Microsoft,2023-03-23T18:50:59.023Z,0.77,OpenStreetMap,2020-12-09T05:48:12.000Z,,False
5f6e0e1c-9c64-49b2-88b8-60083345196c,YATES EXPRESS LUBE Oil Change - Alexandria VA,brake_service_and_repair,"['gas_station', 'automotive']",,,,,washington-dc,VA,Alexandria,22315.0,5800 Kingstowne Ctr,38.772389,-77.135495,Microsoft,2013-02-22T04:28:20.940Z,0.77,,,,False
764fbb36-e03e-4fd6-9f97-5a077750a47d,CertaPro Painters of Alexandria VA,painting,,,,,,washington-dc,VA,Alexandria,22315.0,5810 Kingstowne Ctr #120,38.77331145107746,-77.1351183950901,Microsoft,2014-07-02T18:49:19.740Z,0.77,,,,False
a4ce08c3-b0a3-4c5f-925b-51c4a290aa2d,Alexandria Braces,orthodontist,"['dentist', 'hospital']",dd5af3b3-2df7-4a2b-9858-26f869e7de41,Nora Graham,commercial,office,washington-dc,VA,Alexandria,22315.0,5901 Kingstowne Village Pkwy,38.7740152,-77.1376148,meta,2025-06-02T07:00:00.000Z,0.9784508333782836,OpenStreetMap,2023-09-24T18:12:12.000Z,,False
f2e73c7f-b5cb-4978-8519-6ee3cea07d8c,Comprehensive Sleep Care Center - Alexandria,doctor,"['sleep_specialist', 'health_and_medical']",,,,,washington-dc,VA,Alexandria,22315.0,5901 Kingstowne Village Pkwy Ste 101,38.7742775,-77.137751,Microsoft,2024-12-16T16:28:34.417Z,0.77,,,,False
69e5fabf-8967-48b5-91ba-58c242e430f4,"Hand & Stone Massage and Facial Spa - Alexandria, VA",spas,"['massage', 'beauty_and_spa']",,,,,washington-dc,VA,Alexandria,22315.0,5830 Kingstowne Towne Ctr,38.7738699,-77.1355996,meta,2025-06-02T07:00:00.000Z,0.9784508333782836,,,,False
ec349b10-0ed7-4ac7-a3c8-e7d8807e2668,Keyrenter Property Management Alexandria,property_management,['professional_services'],2376f1de-4c7f-4ba6-9b37-454dbb0aff4b,,commercial,office,washington-dc,VA,Alexandria,22315.0,5680 King Centre Dr,38.77175,-77.1329614,meta,2025-06-02T07:00:00.000Z,0.9297091412742382,OpenStreetMap,2024-01-29T02:02:34.000Z,,True
a1bcaf79-f753-4b3d-86e0-e9bd667f092b,Bold Patents Alexandria Patent Law Firm,patent_law,,,,,,washington-dc,VA,Alexandria,22315.0,"5680 King Centre Dr, Suite 600 Room B",38.771489,-77.132119,Microsoft,2023-11-29T16:58:04.397Z,0.77,,,,False
d4383e0e-5467-4489-b0d1-3a002ee583f7,ACT College - Alexandria,education,,,,,,washington-dc,VA,Alexandria,22310.0,6118 Franconia Rd Ste 200,38.781932,-77.147509,Microsoft,2012-09-21T19:04:12.047Z,0.77,,,,False
8a3c92c5-2ea2-451c-813b-7e48e78df317,Best Alexandria Carpet Care,carpet_cleaning,,,,,,washington-dc,VA,Alexandria,22310.0,6118 Franconia Rd Ste 330,38.7819218,-77.1474302,Microsoft,2023-04-07T17:33:52.980Z,0.77,,,,False
a827bba8-0b95-4c8a-884c-01d064fefd93,Pop-A-Lock of Alexandria,key_and_locksmith,,9e8c99b2-1ad3-485a-ac19-e2c996eb1a26,,residential,residential,washington-dc,VA,Alexandria,22310.0,6084 Franconia Rd Ste A,38.7826431,-77.1466055,Microsoft,2025-05-06T22:29:07.793Z,0.77,OpenStreetMap,2022-09-11T20:19:46.000Z,,False
947a62bf-1acb-4f34-8ab0-6dd583fdf4ab,ADI Global Distribution - Alexandria,online_shop,"['security_systems', 'corporate_office', 'private_establishments_and_corporates', 'retail']",14a9bfed-4c31-4fa5-b2a9-28203c5dce98,,,,washington-dc,VA,Alexandria,22312.0,5655-C General Washington Dr,38.797411,-77.164287,Microsoft,2019-09-26T23:10:08.210Z,0.77,OpenStreetMap,2013-05-07T05:27:23.000Z,,False
1ed62d2a-aaa9-4a55-8a3d-2c3a3248f2d7,Landmark Surfaces - Alexandria (aka United Granite),countertop_installation,,14a9bfed-4c31-4fa5-b2a9-28203c5dce98,,,,washington-dc,VA,Alexandria,22312.0,5655 General Washington Dr Ste G,38.79747,-77.16425,Microsoft,2024-03-26T14:22:44.550Z,0.77,OpenStreetMap,2013-05-07T05:27:23.000Z,,False
519b34ed-a8e4-4222-b504-7fefc32c5285,Alexandria Auctions,auction_house,"['shopping', 'antique_store']",,,,,washington-dc,VA,Alexandria,22312.0,5622 General Washington Dr,38.7987052,-77.164193,meta,2025-06-02T07:00:00.000Z,0.9415384615384615,,,,False
198c036e-6470-4d07-83f6-23a4ea178017,Futon Frame & Futon Matttress in Alexandria Virginia,furniture_store,,8c7b04d2-14cf-49fb-ab08-69f14351d013,,,,washington-dc,VA,Alexandria,22312.0,5618 General Washington Dr,38.79894,-77.16411,meta,2025-06-02T07:00:00.000Z,0.3961437335670464,OpenStreetMap,2013-05-27T03:02:49.000Z,,False
