id_left,primary_name_left,primary_category,alternate_category,id_right,primary_name_right,subtype,class,source_city,region,locality,zipcode,address,latitude,longitude,plc_source_dataset,plc_source_update_time,plc_source_confidence,bldg_dataset,bldg_update_time,bldg_confidence,is_office_by_pipeline
0c234238-b113-45fe-9413-9356872cedec,American Express,fast_food_restaurant,"['financial_service', 'accountant']",9bf7e31f-09e1-4b4d-b9b8-47ffda172e53,,residential,apartments,los-angeles,CA,Redondo Beach,90277.0,333 Calle Miramar,33.8120533,-118.3887097,meta,2025-06-02T07:00:00.000Z,0.3376623376623376,OpenStreetMap,2020-10-24T07:29:02.000Z,,False
134d44e0-e503-4872-8b98-9d7324430b67,American Express Stadium Club,stadium_arena,"['arts_and_entertainment', 'restaurant']",ba25d458-c017-4a12-a5fd-136eb0ac1d97,,entertainment,stadium,los-angeles,CA,Carson,90746.0,18400 Avalon Blvd,33.863472,-118.2611672,meta,2025-06-02T07:00:00.000Z,0.9459263554653524,OpenStreetMap,2022-12-17T17:39:11.000Z,,False
cb9149e8-ad97-4764-80a0-a93d7a3bcdbf,American Express,printing_services,"['fast_food_restaurant', 'travel_services']",a02c1582-a898-4e50-96ee-d1e9a9059f0c,,commercial,commercial,los-angeles,CA,West Hollywood,90069.0,9255 W Sunset Blvd,34.090462,-118.394152,meta,2025-06-02T07:00:00.000Z,0.3961437335670464,OpenStreetMap,2017-09-18T18:44:31.000Z,,False
4eac36ba-996e-4f58-af30-0d0d2cfb5cb2,"American Express Security Services, Inc",security_services,,,,,,los-angeles,CA,Los Angeles,90020.0,3407 W 6th St Ste 401,34.0635846,-118.2957662,Microsoft,2022-03-23T21:06:28.547Z,0.77,,,,False
d3f5307c-0ebb-48a7-896b-5d002b19b277,All American Express Car Wash Chino Spectrum,car_wash,['professional_services'],d6b50b38-41b4-4680-9b21-3202d7acb061,,,,los-angeles,CA,Chino,91710.0,4089 Grand Ave,33.9935245,-117.7155545,meta,2025-06-02T07:00:00.000Z,0.9784508333782836,OpenStreetMap,2019-11-06T03:40:05.000Z,,False
073e2737-0964-4166-bff2-5d78c93b3380,American Express Cargo,freight_and_cargo_service,"['transportation', 'rental_service']",0e7ed9b3-1783-47dc-9157-8d657ac6fa79,,,,chicago,IL,Lemont,60439.0,13511 Main St,41.6897825,-87.9506825,meta,2025-06-02T07:00:00.000Z,0.9879256218304756,OpenStreetMap,2021-02-21T09:52:07.000Z,,False
4530fc08-6138-46e7-b556-d9616a2a8ad3,American Express,financial_service,"['fast_food_restaurant', 'chinese_restaurant']",9085f38a-46a7-4857-b583-f9b7075b87f2,,industrial,industrial,chicago,IL,Itasca,60143.0,800 W Bryn Mawr Ave,41.97501,-88.02631,meta,2025-06-02T07:00:00.000Z,0.3376623376623376,OpenStreetMap,2021-06-05T06:36:46.000Z,,False
e55442ec-49bd-4981-ac55-46ad6cd1d80b,American Express Centurion,professional_services,"['freight_and_cargo_service', 'travel']",c4289c7b-6c2e-4967-889a-d70f93385090,,,,phoenix,AZ,Glendale,85302.0,10237 N 45th Ave,33.5798459,-112.1560019,meta,2025-06-02T07:00:00.000Z,0.4929396662387676,OpenStreetMap,2023-05-24T04:27:57.000Z,,False
0ba768ab-ffd6-4ffa-9213-0e5b7bdb88ec,American Express-Amy Mazza,travel_services,"['financial_service', 'accountant']",,,,,phoenix,AZ,Phoenix,85016.0,1939 E Missouri Ave,33.5159796,-112.0393813,meta,2025-06-02T07:00:00.000Z,0.3376623376623376,,,,False
e15251ae-03fd-4d6e-b1ab-75f2d38fa5ee,American Express Centurion Bank,bank_credit_union,['banks'],6e01d659-4dfb-4916-951c-f6b5b9a01d76,,commercial,commercial,phoenix,AZ,Phoenix,85029.0,11411 N 19th Ave,33.59012,-112.098924,meta,2025-06-02T07:00:00.000Z,0.5662921348314607,OpenStreetMap,2023-11-22T05:35:52.000Z,,False
d6329f7c-3e4c-498f-aa3a-2b6edc35eeff,American Express Global Business Travel,travel_services,"['transportation', 'event_planning']",d0302b7e-412c-4784-aabc-6aec820a1e5c,,commercial,commercial,phoenix,AZ,Phoenix,85254.0,14635 N Kierland Blvd,33.6204432,-111.9304162,meta,2025-06-02T07:00:00.000Z,0.9784508333782836,OpenStreetMap,2022-09-23T10:46:58.000Z,,False
413aefaf-bc46-4ddb-9d7e-d350e9bd06f8,Pan American Express Inc,freight_and_cargo_service,"['auto_company', 'transportation']",,,,,laredo,TX,Laredo,78041.0,4848 Riverside Dr,27.5453564,-99.5160483,meta,2025-06-02T07:00:00.000Z,0.9784508333782836,,,,False
9ac5b200-8cd9-4f98-b3ab-d3b4a5f2b061,American Express,accountant,"['financial_service', 'financial_advising']",2f4fe3aa-9561-4422-87e3-111f279268e9,,,,philadelphia,DE,Wilmington,19809.0,501 Silverside Rd,39.7880874,-75.485564,meta,2025-06-02T07:00:00.000Z,0.9300613496932516,Microsoft ML Buildings,2020-10-14T00:00:00.000Z,,False
7bc1b99f-9033-4d0f-b55e-cd89fa32ba19,American Express Centurion Lounge,lounge,"['airport_lounge', 'airport']",b2dcfc18-0438-4e32-b681-6702ea344c5e,Terminal A - West Ticketing,transportation,transportation,philadelphia,PA,Philadelphia,19153.0,8000 Essington Ave,39.8752121,-75.2476655,meta,2025-06-02T07:00:00.000Z,0.9415384615384615,OpenStreetMap,2023-11-30T04:19:46.000Z,,False
0b0e7412-925d-4b15-ac66-a5c9292ebdcc,American Express,financial_service,['fast_food_restaurant'],437051e1-f749-4a5e-a1d8-7cf915daa788,,,,philadelphia,NJ,Sewell,8080.0,647 Fairview Dr,39.769668,-75.149663,meta,2025-06-02T07:00:00.000Z,0.296943231441048,Microsoft ML Buildings,2020-10-03T00:00:00.000Z,,False
77c1a5b9-f2be-41a5-a9ab-ad87d0b65858,Avenue Travel/American Express,travel_services,"['tours', 'travel_company']",0a376888-c967-4828-83f8-bf994f94dffd,,,,philadelphia,NJ,Haddonfield,8033.0,33 Kings Hwy E,39.89693,-75.03493,meta,2025-06-02T07:00:00.000Z,0.4929396662387676,OpenStreetMap,2016-01-26T14:14:44.000Z,,False
774d3e63-cf44-42af-a7af-fba9b29a46a2,American Express Purchase Card,printing_services,"['sign_making', 'fast_food_restaurant']",ca4bd985-de16-45c4-bce5-a82f133eaaa1,,,,trenton,NJ,Ewing Twp,8628.0,18 Revere Ct,40.276382,-74.832344,meta,2025-06-02T07:00:00.000Z,0.3961437335670464,Microsoft ML Buildings,2020-09-21T00:00:00.000Z,,False
8fe0ac7e-dc7c-42b7-ae72-5ab4b5c59822,American Express Centurion Lounge,installment_loans,"['american_restaurant', 'bar']",,,,,atlanta,GA,Atlanta,30320.0,6000 N Terminal Pkwy,33.64156,-84.44662,meta,2025-06-02T07:00:00.000Z,0.296943231441048,,,,False
f0abd853-a019-4dea-a183-e504d10ccd68,The American Express,topic_concert_venue,,,,,,indio,CA,La Quinta,,,33.67814,-116.29538,meta,2025-06-02T07:00:00.000Z,0.2456896551724137,,,,False
a139c742-0c6a-4607-b575-6cda3a197c19,American Express,financial_service,,,,,,indio,CA,Indian Wells,92210.0,44600 Indian Wells Ln,33.7242952,-116.3316928,meta,2025-06-02T07:00:00.000Z,0.5662921348314607,,,,False
c596e396-1fe6-45df-92c1-00df809fcd03,American Express,financial_service,,66794bbe-3b0c-49f3-b6f2-a0b43154272a,,commercial,office,san-francisco,CA,San Francisco,94102.0,150 Hayes St,37.777672,-122.419018,meta,2025-06-02T07:00:00.000Z,0.3961437335670464,OpenStreetMap,2025-01-05T00:36:20.000Z,,True
5da8cb3e-e603-4f94-891a-32d9e2d87b2f,American Express Azumano Travel,travel_services,['travel_company'],f2eb6511-8758-4206-836c-34b66f025f3a,Marriott,,,portland,OR,Portland,97204.0,400 SW 4th Ave,45.520395,-122.675339,meta,2025-06-02T07:00:00.000Z,0.296943231441048,OpenStreetMap,2024-01-17T09:59:03.000Z,,False
50eec71e-05cc-4074-b50b-9b3bb7dadd95,American Express,financial_service,,2736f216-25ab-4ace-82a7-197ed2fc7d00,Wyndham San Antonio Riverwalk,,,san-antonio,TX,San Antonio,,,29.42878,-98.49294,meta,2025-06-02T07:00:00.000Z,0.3376623376623376,OpenStreetMap,2023-10-03T13:28:53.000Z,,False
d2ed1589-d7b4-4040-aa7e-1e503a42ffec,American Express Ventures,currency_exchange,"['business', 'professional_services']",f51370ed-19ef-458a-94be-870b6b8dba67,,,,san-jose,CA,Palo Alto,94301.0,431 Waverley St,37.4476757,-122.1609069,meta,2025-06-02T07:00:00.000Z,0.8831168831168831,OpenStreetMap,2017-04-27T06:59:39.000Z,,False
9f96a0fd-537a-457f-a356-800231835157,Tramites De Visa American Express,financial_service,['employment_law'],1016b422-56a7-4c9f-8682-8a3f8bedd1c7,,,,san-jose,CA,San Jose,90001.0,"31 N 2nd St Suite 325, San Jose, CA 95113",37.33707,-121.89025,meta,2025-06-02T07:00:00.000Z,0.672566371681416,OpenStreetMap,2022-03-20T19:08:03.000Z,,False
19b5aeaa-9d1e-435c-8142-d536577371ed,American Express Taxi,taxi_service,['travel'],a08c5d85-2375-4362-9413-ae75d6e4307c,,,,bakersfield,CA,Bakersfield,93309.0,1004 Montclair St,35.36466598510742,-119.04981994628906,Microsoft,2017-05-26T00:20:52.717Z,0.77,OpenStreetMap,2015-03-01T02:51:43.000Z,,False
bbf7857c-4a9d-421d-a45b-00c1bdca3f92,Up and Away American Express Travel,travel_agents,['travel'],0bf9b4a8-5988-44ba-bcdf-7c038ab69e49,,,,washington-dc,DC,Washington,20005.0,1010 Vermont Ave NW Ste 620,38.9031143188477,-77.0338668823242,Microsoft,2016-03-03T22:33:47.187Z,0.77,OpenStreetMap,2024-02-15T23:31:25.000Z,,False
0528e280-c78d-4477-849b-3138ccc7941e,American Express-MD,travel_services,"['fast_food_restaurant', 'travel']",3073b502-8db8-440c-99c5-dfba7545ed70,,,,washington-dc,MD,Fort Washington,20744.0,8311 Allentown Rd,38.775404,-76.951836,meta,2025-06-02T07:00:00.000Z,0.3961437335670464,OpenStreetMap,2018-08-14T14:25:51.000Z,,False
37add1c7-4240-4228-a3f9-868e3dddc29e,American Express,financial_service,"['chinese_restaurant', 'american_restaurant']",da23a8e8-e23d-481d-a85a-9dc256522800,,,,temecula-murrieta,CA,Temecula,92590.0,43548 Ridge Park Dr,33.4954479,-117.1587242,meta,2025-06-02T07:00:00.000Z,0.9300613496932516,OpenStreetMap,2010-08-18T22:34:47.000Z,,False
fac644c6-aafb-4f2d-b130-b9cfea3fd6b7,American Express Centurion Lounge,chinese_restaurant,"['fast_food_restaurant', 'lounge']",f48dd920-c33d-4006-9ad5-29ff3f62e349,DFW Administration,commercial,commercial,dallas,TX,Dallas,75261.0,3200 E Airfield Dr,32.87481,-97.01446,meta,2025-06-02T07:00:00.000Z,0.3961437335670464,OpenStreetMap,2016-05-10T16:56:00.000Z,,False
b78bbf9e-c147-4124-8a22-0438e30513fe,ALTOUR American Express,travel_agents,['travel'],911155b5-a72f-4fcf-ada0-84c136fc3e1d,,commercial,commercial,dallas,TX,Richardson,75080.0,333 W Campbell Rd Ste 440,32.974866,-96.7222912,Microsoft,2020-12-21T15:38:29.667Z,0.77,OpenStreetMap,2021-01-29T19:47:31.000Z,,False
fe5c9f42-2c1b-44b3-b1d5-c73996b1a591,Altour American Express,travel_services,['financial_service'],4e3e1af1-7e92-47af-8f83-e4b6c1d7d9e9,,commercial,retail,dallas,TX,Plano,75024.0,5700 Legacy Dr,33.0774214,-96.8194404,meta,2025-06-02T07:00:00.000Z,0.4929396662387676,OpenStreetMap,2018-11-24T21:05:39.000Z,,False
bf6a3519-2cf7-448d-ae65-9c528b932067,All American Express Car Wash,car_wash,['professional_services'],7268f28d-c50c-4b7c-83fb-3653e07a5446,,,,riverside-san-bernardino,CA,Chino,91708.0,7856 Pine Ave,33.9585112,-117.6330805,meta,2025-06-02T07:00:00.000Z,0.9784508333782836,Microsoft ML Buildings,2022-03-17T00:00:00.000Z,,False
f4165515-6a15-468d-a63a-2a510f0dd6e6,All American Express Car Wash,car_wash,['professional_services'],,,,,riverside-san-bernardino,CA,Eastvale,92880.0,7075 Hamner Ave,33.9592161,-117.5585849,meta,2025-06-02T07:00:00.000Z,0.4929396662387676,,,,False
fbbe5ae6-0a22-4faa-b1b7-2ed1b2af96c5,Avenue Travel Group American Express Travel,travel_agents,['travel'],3ee57066-ca7b-4cc7-9704-e0469ced4fb2,,,,new-york,NJ,Madison,7940.0,62 Main St,40.7589716,-74.4150389,Microsoft,2021-03-04T19:41:58.423Z,0.77,OpenStreetMap,2020-07-10T14:43:57.000Z,,False
203f5836-3a06-4f10-a4ea-dd699dadf073,American Express Co,professional_services,['event_planning'],f07abe96-e7ca-48d4-bd50-0e569fdc5673,American Express Building,,,new-york,NY,New York,10006.0,65 Broadway,40.7071412,-74.0123155,meta,2025-06-02T07:00:00.000Z,0.8860580325548478,OpenStreetMap,2024-10-05T03:12:17.000Z,,True
d784df84-3825-4bb0-ac0c-195d10b0143c,American Express,financial_service,['installment_loans'],04cf7520-291a-4d82-80ba-64f9a7e90489,95 Wall Street,,,new-york,NY,New York,10005.0,40 Wall St,40.704997,-74.007358,meta,2025-06-02T07:00:00.000Z,0.296943231441048,OpenStreetMap,2024-07-25T18:16:20.000Z,,False
8622a7fa-d428-4633-a76e-352671c1191d,American Express,financial_service,"['bank_credit_union', 'airport']",b4da1496-c4e2-46ea-b67b-258cf1286a88,200 Vesey Street,,,new-york,NY,New York,10281.0,200 Vesey St,40.7138806,-74.014737,meta,2025-06-02T07:00:00.000Z,0.9784508333782836,OpenStreetMap,2025-03-22T19:23:00.000Z,,False
3ce67e79-dc20-47ec-a577-71f552f46c22,American Express Company,professional_services,['financial_service'],e06649cd-cf28-400c-8620-c50fc843ce44,,,,new-york,NJ,Jersey City,7302.0,301 2nd St,40.722581,-74.04655,meta,2025-06-02T07:00:00.000Z,0.3961437335670464,OpenStreetMap,2023-09-13T19:54:14.000Z,,True
3ce67e79-dc20-47ec-a577-71f552f46c22,American Express Company,professional_services,['financial_service'],6739ded9-e960-4193-9143-0ab485fb3f66,,,,new-york,NJ,Jersey City,7302.0,301 2nd St,40.722581,-74.04655,meta,2025-06-02T07:00:00.000Z,0.3961437335670464,OpenStreetMap,2023-09-13T19:54:14.000Z,,True
3ce67e79-dc20-47ec-a577-71f552f46c22,American Express Company,professional_services,['financial_service'],4b9348a6-3feb-4a3c-92fb-7377fb682a39,,,,new-york,NJ,Jersey City,7302.0,301 2nd St,40.722581,-74.04655,meta,2025-06-02T07:00:00.000Z,0.3961437335670464,OpenStreetMap,2023-09-13T19:54:14.000Z,,True
b7af2ad4-a2a9-4b4f-b25b-23334cc903c4,American Express Global Business Travel,travel_company,"['travel_services', 'tours']",d86d9afb-dd34-405f-a58d-e9023723fb2d,101 Hudson Street,commercial,office,new-york,NJ,Jersey City,7302.0,101 Hudson St,40.716107,-74.034947,meta,2025-06-02T07:00:00.000Z,0.3376623376623376,OpenStreetMap,2024-03-23T00:20:22.000Z,,False
9adfc689-f751-42f7-ac77-ba5a83e2d367,American Express,financial_service,,032b23c1-52c2-4696-8947-709a13e5b031,,residential,apartments,new-york,NY,New York,,,40.74083,-74.00468,meta,2025-06-02T07:00:00.000Z,0.3376623376623376,OpenStreetMap,2021-05-07T19:34:46.000Z,,False
9adfc689-f751-42f7-ac77-ba5a83e2d367,American Express,financial_service,,d79dfe12-4b29-4530-a07a-981d36ed1d30,Gansevoort Market,commercial,,new-york,NY,New York,,,40.74083,-74.00468,meta,2025-06-02T07:00:00.000Z,0.3376623376623376,OpenStreetMap,2016-09-20T19:49:33.000Z,,False
6aefd520-c5cf-45d8-adfc-9678d27e9dfc,American Express OPEN Business Lounge,lounge,['private_association'],bab47795-1edc-4bcb-99ce-e893cd1ee509,Jacob K. Javits Convention Center,,,new-york,NY,New York,10001.0,655 W 34th St,40.756879,-74.001858,meta,2025-06-02T07:00:00.000Z,0.4929396662387676,OpenStreetMap,2024-06-04T23:47:03.000Z,,False
fd09777a-b92d-4cfe-842d-3d451e637959,American Express,travel_services,"['professional_services', 'fast_food_restaurant']",ea69c53a-e2bd-46ba-9dd6-52fd7f1d7336,,,,new-york,NY,New York,10023.0,156 W 75th St,40.780148,-73.979614,meta,2025-06-02T07:00:00.000Z,0.296943231441048,OpenStreetMap,2020-05-04T22:34:42.000Z,,False
fd09777a-b92d-4cfe-842d-3d451e637959,American Express,travel_services,"['professional_services', 'fast_food_restaurant']",49e63e05-86cb-4bef-aefe-c36ae11e6d45,,,,new-york,NY,New York,10023.0,156 W 75th St,40.780148,-73.979614,meta,2025-06-02T07:00:00.000Z,0.296943231441048,OpenStreetMap,2020-05-04T22:34:42.000Z,,False
fd09777a-b92d-4cfe-842d-3d451e637959,American Express,travel_services,"['professional_services', 'fast_food_restaurant']",db680b73-afb4-465e-94da-4d92c388dd5d,,,,new-york,NY,New York,10023.0,156 W 75th St,40.780148,-73.979614,meta,2025-06-02T07:00:00.000Z,0.296943231441048,OpenStreetMap,2020-05-04T22:34:42.000Z,,False
d03c47af-7690-4650-918f-f9a49a214e38,American Express,financial_service,"['bank_equipment_service', 'chinese_restaurant']",a74335a4-e33e-4738-8e7a-8483b083aebf,,,,new-york,NY,Rego Park,11374.0,95-22 63rd Rd,40.730341,-73.861586,meta,2025-06-02T07:00:00.000Z,0.296943231441048,OpenStreetMap,2013-11-23T19:46:58.000Z,,False
d03c47af-7690-4650-918f-f9a49a214e38,American Express,financial_service,"['bank_equipment_service', 'chinese_restaurant']",dd9d5f53-47af-4134-9013-b0d54148c429,,outbuilding,roof,new-york,NY,Rego Park,11374.0,95-22 63rd Rd,40.730341,-73.861586,meta,2025-06-02T07:00:00.000Z,0.296943231441048,OpenStreetMap,2023-02-10T16:13:15.000Z,,False
fb446fec-03e2-4c70-8022-7369e4262dae,American Express Suite - US Open,tennis_stadium,"['topic_concert_venue', 'stadium_arena']",669409f0-9d2d-4d34-ba04-6c6b1c7a56c1,Arthur Ashe Stadium,entertainment,stadium,new-york,,,11368.0,,40.7498842,-73.8470474,meta,2025-06-02T07:00:00.000Z,0.2456896551724137,OpenStreetMap,2023-09-09T23:46:39.000Z,,False
2943ab17-42cc-40ea-b4b4-80e6e6baeb76,American Express Centurion Lounge,lounge,"['airport_lounge', 'accommodation']",e0b09e2c-48b4-418b-9c6c-605f1881db2b,Terminal 4,,,new-york,,,11430.0,Central Terminal Area,40.6434275,-73.7810623,meta,2025-06-02T07:00:00.000Z,0.9415384615384615,OpenStreetMap,2024-10-01T08:46:15.000Z,,False
89925b55-254a-4c30-8267-866bd4a9844b,"American Express Lounge, JFK Airport New York",lounge,"['travel', 'airport']",e0b09e2c-48b4-418b-9c6c-605f1881db2b,Terminal 4,,,new-york,NY,New York,,,40.6436255,-73.7812975,meta,2025-06-02T07:00:00.000Z,0.4929396662387676,OpenStreetMap,2024-10-01T08:46:15.000Z,,False
b32f4381-486e-4249-a4f9-5f0682a9e53c,ALTOUR American Express,bank_credit_union,['travel'],,,,,new-york,NY,Garden City,11530.0,600 Old Country Rd,40.742986,-73.6157794,Microsoft,2014-05-02T16:34:11.390Z,0.77,,,,False
6202e9f1-4aec-4dca-a976-130978610216,American Express,professional_services,"['bank_equipment_service', 'chinese_restaurant']",26194f81-a7e5-4d64-94fe-1a5ab076ab89,,,,new-york,NY,New York,10128.0,3 E 95th St,40.787244,-73.956,meta,2025-06-02T07:00:00.000Z,0.296943231441048,OpenStreetMap,2022-05-02T20:25:40.000Z,,False
9e6c4745-6ca5-4436-a63d-448180977fe8,American Express Gbt,financial_service,"['fast_food_restaurant', 'chinese_restaurant']",45d771c0-e045-4a60-972d-1388a1c08d48,,,,salt-lake-city,UT,Herriman,84096.0,5959 W Fragrant Ln,40.505923,-112.032963,meta,2025-06-02T07:00:00.000Z,0.3376623376623376,OpenStreetMap,2023-01-11T10:37:55.000Z,,False
43d4ca54-1eaa-4231-8889-4c672bd02d4c,American Express,financial_service,['fast_food_restaurant'],29309a38-4ceb-4d19-a456-799243b2d2a2,,,,salt-lake-city,UT,Herriman,84096.0,5416 W Brundisi Way,40.521828,-112.020031,meta,2025-06-02T07:00:00.000Z,0.296943231441048,OpenStreetMap,2021-09-22T09:39:55.000Z,,False
19503c60-889a-4da7-a036-38c2708e7897,American Express,financial_service,"['fast_food_restaurant', 'chinese_restaurant']",ae48b743-3ac0-449c-b5b6-be6728e16de6,,residential,apartments,salt-lake-city,UT,West Jordan,84084.0,6828 S Savoie Ct,40.62682,-111.98381,meta,2025-06-02T07:00:00.000Z,0.296943231441048,OpenStreetMap,2024-08-23T18:44:59.000Z,,False
454655ed-e574-4e04-9d5b-5c05a4a0553e,American Express Centurion Bank,bank_credit_union,"['financial_service', 'gym']",ee474cdf-7ba7-4f69-ba54-21bd4b19e0a1,,transportation,parking,salt-lake-city,UT,Midvale,84047.0,6985 S Union Park Ctr,40.624417,-111.857007,meta,2025-06-02T07:00:00.000Z,0.242152466367713,OpenStreetMap,2024-08-05T17:12:50.000Z,,False
991f99e9-ef7a-443e-acba-6a5376bd7edf,Pan American Express Inc,professional_services,"['transportation', 'event_photography']",3bf7d495-5429-4c55-9c7c-472ad35740a9,,,,toledo,OH,Toledo,43612.0,5110 Stickney Ave,41.7101602,-83.5273789,meta,2025-06-02T07:00:00.000Z,0.9204819277108434,OpenStreetMap,2013-11-03T01:32:10.000Z,,False
df1bb26d-d1ec-4360-97d8-d3b94c1ac41e,American Express Business Travel,travel_services,"['financial_service', 'fast_food_restaurant']",df819b79-c534-4474-afe9-3dfd86875667,,,,raleigh,NC,Cary,27519.0,1325 Brook Arbor Dr,35.797601,-78.8722,meta,2025-06-02T07:00:00.000Z,0.296943231441048,OpenStreetMap,2020-10-18T01:54:41.000Z,,False
a1172fd0-3bdd-4be0-984f-7bc7330fd11a,American Express,financial_service,,92de73a5-f8d9-4279-8d71-ff5548cdc7bf,Las Vegas Convention Center,entertainment,,las-vegas,NV,Las Vegas,,,36.1319361,-115.1521035,meta,2025-06-02T07:00:00.000Z,0.3961437335670464,OpenStreetMap,2025-05-14T02:00:33.000Z,,False
3c9d1f83-6847-47bd-86d4-4618d923807a,"American Express, The Centurion Lounge",airport_lounge,"['lounge', 'airport']",0434d0c6-9830-44b2-96a3-f30667e83683,Concourse D,,,las-vegas,NV,Las Vegas,89119.0,"Harry Reid International Airport, 5757 Wayne Newton Blvd",36.0816462,-115.1366379,meta,2025-06-02T07:00:00.000Z,0.7548172757475083,OpenStreetMap,2025-05-01T20:28:20.000Z,,False
fe5c9f42-2c1b-44b3-b1d5-c73996b1a591,Altour American Express,travel_services,['financial_service'],4e3e1af1-7e92-47af-8f83-e4b6c1d7d9e9,,commercial,retail,denton-lewisville,TX,Plano,75024.0,5700 Legacy Dr,33.0774214,-96.8194404,meta,2025-06-02T07:00:00.000Z,0.4929396662387676,OpenStreetMap,2018-11-24T21:05:39.000Z,,False
ba498d8e-65e9-4a4e-b2d8-2881af50864a,American Express Centurion Lounge,restaurant,,f5857b2a-fca0-4e3c-8c21-f2c0262290a0,Terminal D,,,houston,,,77032.0,2800 N Terminal Rd,29.987785,-95.334886,meta,2025-06-02T07:00:00.000Z,0.296943231441048,OpenStreetMap,2024-12-18T14:52:35.000Z,,False
45c09347-a300-4366-81fc-b3ac69d2a23b,Fox Travel American Express,travel_agents,['travel'],,,,,houston,TX,Spring,77380.0,"25701 I-45, Ste 3a",30.1356675,-95.445493,Microsoft,2019-06-16T13:44:14.877Z,0.77,,,,False
0357ce74-caca-4d9e-b405-641e0272e1f6,All American Express Solutions,freight_and_cargo_service,['hvac_services'],3e834f86-126e-4647-a88b-87452144f89a,,,,indianapolis,IN,Indianapolis,46241.0,5101 Decatur Blvd,39.6891085,-86.2855543,meta,2025-06-02T07:00:00.000Z,0.9415384615384615,OpenStreetMap,2022-04-09T19:53:42.000Z,,False
11d782ff-78d5-451c-b638-e687290917e7,American Express Logistics,freight_and_cargo_service,"['professional_services', 'financial_service']",40fbba7f-955c-4966-a4e3-f2918fb77e9f,,,,miami,FL,Miami,33122.0,8000 NW 31st St,25.8020253,-80.3274557,meta,2025-06-02T07:00:00.000Z,0.296943231441048,OpenStreetMap,2016-08-02T21:16:36.000Z,,False
d2d9cb03-5c2b-4bc9-aeae-9283ea72c2b7,American Express Centurion Lounge,lounge,"['airport_lounge', 'bar']",49680525-84fd-4ef5-adbf-7a96e3304429,North Terminal,,,miami,FL,Miami,33142.0,2100 NW 42nd Ave,25.7984754,-80.2731032,meta,2025-06-02T07:00:00.000Z,0.9459263554653524,OpenStreetMap,2025-04-13T21:10:10.000Z,,False
d2d9cb03-5c2b-4bc9-aeae-9283ea72c2b7,American Express Centurion Lounge,lounge,"['airport_lounge', 'bar']",6425fd8e-fdf6-463f-b3cd-3afda76e3e82,Concourse D,,,miami,FL,Miami,33142.0,2100 NW 42nd Ave,25.7984754,-80.2731032,meta,2025-06-02T07:00:00.000Z,0.9459263554653524,OpenStreetMap,2025-04-13T21:10:10.000Z,,False
94f60769-bb5e-4a72-953e-9f3228a2553f,TRANS American Express,financial_service,"['transportation', 'truck_dealer']",2ef9171a-7497-4529-ad36-eb528815c522,,,,miami,FL,Hollywood,33024.0,7777 Davie Rd Ext,26.0356896,-80.2442289,meta,2025-06-02T07:00:00.000Z,0.8980891719745223,OpenStreetMap,2022-02-28T02:44:51.000Z,,False
56ddc77a-a3c8-48fb-87f1-63a8331390b5,American Express Moving,movers,['storage_facility'],17c08674-8f3b-4d26-a54c-8f86c6b4acf5,,,,miami,FL,Davie,33328.0,4438 Arabian Way,26.0662004,-80.2621314,meta,2025-06-02T07:00:00.000Z,0.672566371681416,OpenStreetMap,2022-01-26T16:59:10.000Z,,False
