id_left,primary_name_left,primary_category,alternate_category,id_right,primary_name_right,subtype,class,source_city,region,locality,zipcode,address,latitude,longitude,plc_source_dataset,plc_source_update_time,plc_source_confidence,bldg_dataset,bldg_update_time,bldg_confidence,is_office_by_pipeline
589f5531-294b-4954-bfba-003d3698b803,Campbell's Pharmacy,pharmacy,"['drugstore', 'retail']",,,,,birmingham,AL,Adamsville,35005.0,3925 Adamsville Pkwy,33.5888243,-86.9359841,Microsoft,2021-04-15T15:20:42.410Z,0.77,,,,False
dda76c94-5f67-4c2a-98b2-464746d97be5,Campbell's Collision,automotive_repair,"['auto_body_shop', 'automotive']",,,,,detroit,MI,Waterford,48327.0,6818 Cooley Lake Rd,42.6157344,-83.4202139,meta,2025-06-02T07:00:00.000Z,0.9784508333782836,,,,False
b6d23e31-f093-430d-86bd-daf6e9a659e9,Campbell's Barber & Beauty,barber,['beauty_and_spa'],,,,,detroit,MI,Mt Clemens,48043.0,250 Southbound Gratiot Ave,42.5889111,-82.8827475,meta,2025-06-02T07:00:00.000Z,0.9459263554653524,,,,False
9c31df3d-96e4-48c8-8c91-b30a1d9b8b5d,Campbell's Carpets,carpet_store,['contractor'],,,,,reno,NV,Sparks,89431.0,605 Glendale Ave,39.5270954,-119.7510014,meta,2025-06-02T07:00:00.000Z,0.9415384615384615,,,,False
63479895-ae85-42ab-8642-f2a830f05003,Campbell's Carpets of Nevada,flooring_contractors,"['flooring_store', 'retail']",,,,,reno,NV,Sparks,89431.0,605 Glendale Ave,39.52725,-119.750693,Microsoft,2025-02-15T02:04:25.683Z,0.77,,,,False
6580c944-0747-4606-8b66-da113274bd3e,Campbell's Green House,nursery_and_gardening,"['retirement_home', 'japanese_restaurant']",d68f3a92-59fa-4325-92db-ae1be86f61cc,,,,raleigh,NC,Raleigh,27606.0,2816 Campbell Rd,35.74063,-78.735971,meta,2025-06-02T07:00:00.000Z,0.3376623376623376,OpenStreetMap,2020-06-21T02:55:01.000Z,,False
cd917de0-779e-4d19-818c-512999d3b7cf,Campbell's Home Services,contractor,"['interior_design', 'automotive_repair']",0f069fe7-1919-406b-b0ce-56a129f6f718,,,,oakland,CA,Castro Valley,94546.0,21967 Redwood Rd,37.6879883,-122.073967,meta,2025-06-02T07:00:00.000Z,0.2456896551724137,OpenStreetMap,2020-09-18T19:40:29.000Z,,False
cd917de0-779e-4d19-818c-512999d3b7cf,Campbell's Home Services,contractor,"['interior_design', 'automotive_repair']",0f069fe7-1919-406b-b0ce-56a129f6f718,,,,concord,CA,Castro Valley,94546.0,21967 Redwood Rd,37.6879883,-122.073967,meta,2025-06-02T07:00:00.000Z,0.2456896551724137,OpenStreetMap,2020-09-18T19:40:29.000Z,,False
5be87536-c151-4cbc-8465-51709fa31379,Campbell's Bakery & Cafe,coffee_shop,['restaurant'],b42853c8-992c-4597-9913-911939928e68,,,,concord,CA,Antioch,94509.0,211 G St,38.01640681,-121.81345469,Microsoft,2019-04-11T04:36:01.990Z,0.77,OpenStreetMap,2025-01-26T03:27:39.000Z,,False
f7cd1a6c-9b92-4d01-a034-6219f5761364,Campbell's Taekwondo,martial_arts_club,"['sports_club_and_league', 'active_life']",5fa7cfd1-93ca-43d4-8c91-7cfb967a4968,,,,fort-worth,TX,Burleson,76028.0,550 NW Summercrest Blvd,32.5414236,-97.3425879,meta,2025-06-02T07:00:00.000Z,0.5662921348314607,Microsoft ML Buildings,2024-02-06T00:00:00.000Z,0.97680002450943,False
66b46e0c-60be-4eed-b95e-b2d7df6cd496,CARSTAR Campbell's Auto Body,automotive_repair,"['auto_body_shop', 'automotive']",,,,,fort-worth,TX,Burleson,76028.0,451 N Burleson Blvd,32.551,-97.3192274,meta,2025-06-02T07:00:00.000Z,0.9784508333782836,,,,False
99802a56-f6c7-43a8-a559-c2c85416ede3,Campbell's Maintenance Service Mobile RV Repair,recreation_vehicle_repair,['automotive'],,,,,austin,TX,Austin,78748.0,9300 S Interstate 35 Ste A500,30.1635629,-97.7903315,Microsoft,2025-02-17T08:11:14.213Z,0.77,,,,False
30bb6155-360c-40d5-bcee-358c5be5afb2,Campbell's Hole,active_life,"['travel', 'transportation']",,,,,austin,,,78746.0,"Barton Creek, Austin, TX",30.2599797,-97.7852993,meta,2025-06-02T07:00:00.000Z,0.8860580325548478,,,,False
97227337-a0f1-4119-a9c7-a5928708e565,Campbell's Quality Fence,fence_and_gate_sales_service,,,,,,austin,TX,Cedar Park,78613.0,711 N Bell Blvd,30.5175099,-97.8279239,Microsoft,2021-09-19T06:25:02.460Z,0.77,,,,False
9315ecef-eacb-420c-9b02-a7f906204bbe,Campbell Soup Co,business_manufacturing_and_supply,"['business', 'eat_and_drink']",71a44d5f-36e8-4ce8-bf91-4d081ab2723c,,industrial,industrial,milwaukee,WI,Milwaukee,53207.0,500 W Edgerton Ave,42.9523367,-87.918313,meta,2025-06-02T07:00:00.000Z,0.9784508333782836,OpenStreetMap,2022-12-06T10:48:44.000Z,,False
d2830836-15ce-4ac9-aebb-4d00d41960cf,Campbell's Cleaners,dry_cleaning,"['bridal_shop', 'shopping']",,,,,savannah,GA,Savannah,31406.0,8422 Waters Ave,31.9945657,-81.1051112,meta,2025-06-02T07:00:00.000Z,0.9784508333782836,,,,False
3fcb24fd-6123-4040-ae23-4c7f57e5dcb8,Campbell's Towing & Recovery,towing_service,['automotive'],a499cd7b-9f60-4653-a37c-45168c2ac2a4,,,,sarasota-bradenton,FL,Sarasota,34237.0,2040 Cornell St,27.345153944667764,-82.52927780151364,Microsoft,2018-02-03T14:18:48.220Z,0.77,OpenStreetMap,2020-07-28T14:27:03.000Z,,False
3fcb24fd-6123-4040-ae23-4c7f57e5dcb8,Campbell's Towing & Recovery,towing_service,['automotive'],28005f69-4436-4bc3-8b1e-f7724c805cba,,,,sarasota-bradenton,FL,Sarasota,34237.0,2040 Cornell St,27.345153944667764,-82.52927780151364,Microsoft,2018-02-03T14:18:48.220Z,0.77,Microsoft ML Buildings,2020-02-24T00:00:00.000Z,,False
bd67c4e1-b9ca-44c6-8f3b-753c5809098a,Campbell's Delivery Services,freight_and_cargo_service,"['transportation', 'storage_facility']",,,,,laredo,TX,Laredo,78041.0,4118 Airpark Dr,27.5349824,-99.4663464,meta,2025-06-02T07:00:00.000Z,0.9297091412742382,,,,False
c0121b2c-b470-4c30-9c07-0987fa24019d,G P Campbell's Automotive Body Shop,automotive_repair,"['auto_body_shop', 'tire_dealer_and_repair']",3a72bc44-3ae1-4f04-8f10-cc7d04897609,,,,durham,NC,Durham,27703.0,3427 Angier Ave,35.9642084,-78.8569971,meta,2025-06-02T07:00:00.000Z,0.9784508333782836,OpenStreetMap,2020-06-27T23:20:51.000Z,,False
f31ddb46-c498-4ced-92d6-6b0d0ff62c7c,Jamie Campbell's Dance Company,dance_school,"['active_life', 'education']",e4c56559-26e0-4d12-ada5-768cbe9a3bbe,,,,boston,MA,Braintree,2184.0,1515 Washington St,42.1875254,-71.0108532,meta,2025-06-02T07:00:00.000Z,0.9784508333782836,OpenStreetMap,2023-01-07T16:54:38.000Z,,False
38012dd9-ba7b-49ee-b79a-742797bfd042,Campbell's Fence,fence_and_gate_sales_service,"['contractor', 'construction_services']",,,,,boston,MA,Saugus,1906.0,498 Lincoln Ave,42.4485207,-71.0093535,meta,2025-06-02T07:00:00.000Z,0.9415384615384615,,,,False
5c7818da-3c50-4132-a022-3b4193bc2da7,Campbell's Junction,real_estate,,420e00af-a453-4a59-8d7f-9c1065f75b6d,,,,new-york,NJ,Belford,0.0,,40.414901,-74.0942584,meta,2025-06-02T07:00:00.000Z,0.5662921348314607,OpenStreetMap,2023-01-30T07:25:18.000Z,,False
f883122e-c19c-4027-808b-530a4c03860e,Campbell's Construction llc,landscaping,,,,,,new-york,NJ,Piscataway,8854.0,411 Hillside Ave,40.537323,-74.484984,Microsoft,2009-10-21T16:00:01.183Z,0.77,,,,False
875d9900-1245-4690-9e34-b6becc5faadd,Campbell's Tavern,bar,['pub'],a4ecdb8d-7525-4a60-a3c5-e2dd66b51d24,,,,new-york,NY,New York,10314.0,555 Find Your Way,40.6213563,-74.1290382,meta,2025-06-02T07:00:00.000Z,0.3961437335670464,OpenStreetMap,2013-11-20T14:43:17.000Z,,False
00aa1d7c-7d80-4ffc-b47c-47adcaf8b6bc,Campbell's Bakery,bakery,"['cupcake_shop', 'desserts']",86b51a3b-e92a-444b-8122-aa87ac5d54c9,,commercial,commercial,new-york,NY,Islip,11717.0,794 Suffolk Ave,40.7811811,-73.2456599,meta,2025-06-02T07:00:00.000Z,0.9879256218304756,OpenStreetMap,2017-01-26T23:58:06.000Z,,False
3b741ba8-d3d9-428e-bbd5-d975264d1389,Campbell's Auto Diagnostic & Repair,automotive_repair,['professional_services'],3ca91bc4-6e13-47c5-acfc-27d24dad892f,Brothers Mercedes Repair,,,new-york,NJ,Pompton Plains,7444.0,704 Newark Pompton Tpke,40.9719806,-74.2964537,meta,2025-06-02T07:00:00.000Z,0.9300613496932516,OpenStreetMap,2014-03-23T21:18:59.000Z,,False
e21af2b8-7c14-4743-bd49-170c0c4bbbaf,Campbell's Wines & Liquor,liquor_store,['shopping'],cb3f5e6a-3cfe-4963-b50a-add31ed6747a,,,,new-york,NJ,Cliffside Park,7010.0,730 Anderson Ave,40.8295357,-73.9859072,meta,2025-06-02T07:00:00.000Z,0.9459263554653524,OpenStreetMap,2020-05-19T20:24:35.000Z,,False
921eaa16-4d5f-4254-900a-1d71b4cbb7cb,Campbell's Carpet & Service,carpet_store,['retail'],,,,,new-york,NY,Port Washington,11050.0,356 Port Washington Blvd,40.8173793,-73.6798165,Microsoft,2025-05-14T20:51:48.693Z,0.77,,,,False
d184c33a-4107-4682-bbad-1d52fb1d16bb,Campbell's Carpet & Service,carpet_store,"['carpet_cleaning', 'home_improvement_store']",d5f93a16-670c-4d40-84d3-39e77331cc7d,,,,new-york,NY,Port Washington,11050.0,356 Port Washington Blvd,40.8173935,-73.6799591,meta,2025-06-02T07:00:00.000Z,0.9300613496932516,OpenStreetMap,2020-02-05T15:02:11.000Z,,False
ba1b0c1c-cd8c-4b66-b82d-17b86a3f31eb,Campbell's Carpet and Service,carpet_store,"['flooring_store', 'carpet_cleaning', 'retail']",3f28e01c-72b2-4197-acc7-9e647a52c2c7,,,,new-york,NY,Port Washington,11050.0,413 Main St,40.8295083045959,-73.7020685523748,Microsoft,2017-02-22T22:10:41.213Z,0.77,OpenStreetMap,2021-05-30T19:34:06.000Z,,False
23156377-4dec-4610-866f-8ed782777ad3,Campbell's Market Basket,grocery_store,"['fruits_and_vegetables', 'cafe']",b82177b9-20bb-4d65-b7a7-c1d800207f62,,,,lansing,MI,East Lansing,48823.0,547 E Grand River Ave,42.7335009,-84.4771152,meta,2025-06-02T07:00:00.000Z,0.9784508333782836,OpenStreetMap,2015-02-06T04:18:32.000Z,,False
5a016819-9e04-4450-a08a-431ba9d45b26,Campbell's Lawn Equipment,lawn_mower_store,"['auto_parts_and_supply_store', 'farm_equipment_repair_service', 'retail']",,,,,atlanta,GA,Forest Park,30297.0,810 Morrow Rd,33.5904475,-84.3640876,Microsoft,2015-05-25T12:06:18.680Z,0.77,,,,False
39329b71-38e7-46ab-ab3d-34599f025970,Campbell's Lawn Equipment,nursery_and_gardening,['outdoor_gear'],429f86f6-6f6c-47c7-9102-696224669b52,,,,atlanta,GA,Forest Park,30297.0,810 Morrow Rd,33.5910469,-84.3638275,meta,2025-06-02T07:00:00.000Z,0.9879256218304756,OpenStreetMap,2022-05-16T00:33:50.000Z,,False
f8120288-5611-43bd-837b-3510070cbf2e,Campbell's Auto Repair,automotive_repair,"['automotive_dealer', 'automotive']",,,,,pittsburgh,PA,South Park,15129.0,6538 Church St,40.2876202,-80.0231236,meta,2025-06-02T07:00:00.000Z,0.9459263554653524,,,,False
fbf64139-2b26-459e-8554-efb4a0ab206c,Campbell's Auto and Customs,automotive_repair,"['auto_customization', 'automotive']",e5861fa7-bcaa-483d-af51-7221fedb157b,Meineke,commercial,commercial,pittsburgh,PA,McKeesport,15132.0,4236 Walnut St,40.32151,-79.8374,meta,2025-06-02T07:00:00.000Z,0.5662921348314607,OpenStreetMap,2024-01-17T03:39:19.000Z,,False
6d9dfaff-3eef-4bb2-a448-85f5a604300d,Campbell's Auto and Customs,auto_customization,['automotive'],fc48b363-a94a-49da-b578-026b353aa8f8,Campbell's Auto & Customs,,,pittsburgh,PA,McKeesport,15132.0,627 Rebecca St,40.3479779,-79.8732377,Microsoft,2019-11-29T13:05:10.627Z,0.77,OpenStreetMap,2018-07-22T16:32:57.000Z,,False
ef229bc5-23e1-4b0c-bdbf-60f9b8ee6107,Campbell's Nutrition,vitamins_and_supplements,"['health_food_store', 'organic_grocery_store']",f1dcd7f3-40c3-466e-8a81-7f193f35eefe,,,,des-moines,IA,Urbandale,50322.0,2749 100th St,41.6196279,-93.7547716,meta,2025-06-02T07:00:00.000Z,0.9784508333782836,OpenStreetMap,2013-12-29T02:30:12.000Z,,False
c88753a8-a7fe-459b-aa6c-3c3abc558d51,Campbell's Nutrition,health_food_store,"['vitamins_and_supplements', 'grocery_store']",1a49e927-1482-4a39-85ed-5b818f7ba039,,,,des-moines,IA,Des Moines,50311.0,4040 University Ave,41.6000238,-93.6727654,meta,2025-06-02T07:00:00.000Z,0.9784508333782836,OpenStreetMap,2012-02-01T02:09:29.000Z,,False
0ccb860b-0046-4c58-b996-7a3cd6d5c0af,Campbell's Concessions,american_restaurant,"['burger_restaurant', 'caterer']",93cc189f-af26-4421-9987-cc429f7bdab0,Robert G. Horner & Sheri Avis Horner Service Center,,,des-moines,,,50317.0,3000 E Grand Ave,41.595441,-93.553884,meta,2025-06-02T07:00:00.000Z,0.296943231441048,OpenStreetMap,2022-07-28T20:11:36.000Z,,False
0ccb860b-0046-4c58-b996-7a3cd6d5c0af,Campbell's Concessions,american_restaurant,"['burger_restaurant', 'caterer']",182af897-b087-4565-ae76-1d77d6b331e4,,,,des-moines,,,50317.0,3000 E Grand Ave,41.595441,-93.553884,meta,2025-06-02T07:00:00.000Z,0.296943231441048,Microsoft ML Buildings,2020-06-12T00:00:00.000Z,0.993499994277954,False
1ab650fd-771d-4ca2-8fd8-0e5d01511c93,Campbell's Roofing and Construction,roofing,"['contractor', 'home_improvement_store']",b43a9ba5-4584-472b-b5e3-f7e901662de4,,,,oklahoma-city,OK,Oklahoma City,73106.0,1632 NW 5th St,35.4727786,-97.5425268,meta,2025-06-02T07:00:00.000Z,0.909823677581864,Esri Community Maps,2024-10-15T00:00:00.000Z,,False
7208fceb-6efb-44c8-9961-adc4123a82ad,Ron Campbell's Automatic,automotive_repair,"['professional_services', 'auto_restoration_services']",cbc898fe-e070-49f8-97fe-ba757779e844,,commercial,commercial,baltimore,MD,Essex,21221.0,1003 Race Rd,39.330585,-76.4764578,meta,2025-06-02T07:00:00.000Z,0.8540983606557377,OpenStreetMap,2014-08-19T02:48:18.000Z,,False
f384b3a1-d4a0-44db-a517-2ec28975219e,Ron Campbell's Automatic,transmission_repair,['automotive'],0e55a338-21be-45e7-bb1e-a1a0b6caeb82,Rocky's Garage,commercial,commercial,baltimore,MD,Essex,21221.0,1003 Race Rd,39.3336791992188,-76.4741134643555,Microsoft,2015-06-25T17:28:49.693Z,0.77,OpenStreetMap,2020-10-13T06:06:39.000Z,,False
f384b3a1-d4a0-44db-a517-2ec28975219e,Ron Campbell's Automatic,transmission_repair,['automotive'],d69c3e39-7455-4e85-b7bc-59c193d4b610,,commercial,commercial,baltimore,MD,Essex,21221.0,1003 Race Rd,39.3336791992188,-76.4741134643555,Microsoft,2015-06-25T17:28:49.693Z,0.77,OpenStreetMap,2014-08-20T04:06:48.000Z,,False
fb77a56a-86b9-49c3-b2cd-73f751eda159,Campbell's Tile Concepts,contractor,['carpet_store'],d34cf0b8-6d12-4164-a0c8-8aa52152504f,,,,portland,OR,Beaverton,97008.0,7755 SW Cirrus Dr,45.4620312,-122.7898371,meta,2025-06-02T07:00:00.000Z,0.242152466367713,OpenStreetMap,2015-11-16T07:07:13.000Z,,False
fdfb76bb-a4bd-4632-b9b0-9e210fb709ed,Campbell's Can Chasers,active_life,"['horse_trainer', 'gym']",,,,,portland,OR,Hillsboro,97124.0,1981 NW 2nd Ct,45.5390182,-122.9967885,meta,2025-06-02T07:00:00.000Z,0.909823677581864,,,,False
7b491941-b576-408d-92a0-46a211cffb77,Campbell's Fountain,landmark_and_historical_building,"['fountain', 'attractions_and_activities']",77aee46d-5eea-41bb-8bb1-45cadc9c9ebc,,,,portland,OR,Portland,97209.0,"Hostelling International, 479 NW 18th Ave",45.527417,-122.689103,meta,2025-06-02T07:00:00.000Z,0.7548172757475083,OpenStreetMap,2023-03-24T03:59:24.000Z,,False
e93d8824-f01a-4f02-ab61-80688fb3e356,S Campbell's Accounting and Tax Service,accountant,['professional_services'],,,,,flint,MI,Flint,48532.0,2425 S Linden Rd,42.9899799,-83.7718914,meta,2025-06-02T07:00:00.000Z,0.9300613496932516,,,,False
f47adf3e-b173-42d6-8fbf-b4512c0df0bb,Campbell's Kickboxing & Self Protection,gym,"['martial_arts_club', 'active_life']",,,,,knoxville,TN,Knoxville,37931.0,7544 Oak Ridge Hwy,35.98028,-84.10158,meta,2025-06-02T07:00:00.000Z,0.7548172757475083,,,,False
f904f69e-760c-46ef-9f0d-510f87429903,Shelby Campbell's Tavern & Grill,american_restaurant,"['diner', 'sports_bar']",9085e9aa-dfb5-46be-a5b6-5c9434ff3a6f,Holiday Inn Chicago Elk Grove,commercial,hotel,chicago,IL,Elk Grove Village,60007.0,1000 Busse Rd,42.0106594,-87.9604329,meta,2025-06-02T07:00:00.000Z,0.9784508333782836,OpenStreetMap,2024-01-02T06:59:41.000Z,,False
f904f69e-760c-46ef-9f0d-510f87429903,Shelby Campbell's Tavern & Grill,american_restaurant,"['diner', 'sports_bar']",5f4b4a1d-d08c-4942-bafc-fd8cac56400b,,commercial,hotel,chicago,IL,Elk Grove Village,60007.0,1000 Busse Rd,42.0106594,-87.9604329,meta,2025-06-02T07:00:00.000Z,0.9784508333782836,OpenStreetMap,2024-01-02T06:59:41.000Z,,False
b463c3e4-744c-4868-a88c-40072dbebda5,Campbell's Jerk,caribbean_restaurant,"['restaurant', 'fast_food_restaurant']",b226ea30-0a84-4516-a9ed-c330614a9d5b,,,,chicago,IL,Chicago,60619.0,412 E 87th St,41.7365898,-87.6138087,meta,2025-06-02T07:00:00.000Z,0.9784508333782836,OpenStreetMap,2013-03-18T19:56:56.000Z,,False
b463c3e4-744c-4868-a88c-40072dbebda5,Campbell's Jerk,caribbean_restaurant,"['restaurant', 'fast_food_restaurant']",343d8553-8b4d-4bfb-b144-da9f9f902676,,,,chicago,IL,Chicago,60619.0,412 E 87th St,41.7365898,-87.6138087,meta,2025-06-02T07:00:00.000Z,0.9784508333782836,OpenStreetMap,2013-03-18T19:56:59.000Z,,False
b0fc06ec-8760-4146-9131-bfa390b88b63,Campbell's Dress Shop,womens_clothing_store,"['shopping', 'clothing_store']",b31ed0d5-44a9-4ac2-929f-0ebb960d1a03,,,,chicago,IL,Chicago,60619.0,212 E 83rd St,41.743985,-87.618872,meta,2025-06-02T07:00:00.000Z,0.3961437335670464,OpenStreetMap,2013-03-18T20:35:17.000Z,,False
eb9dfdd0-54f9-45a7-802a-dc00458cb903,Campbell's TempraCure,hvac_services,"['contractor', 'home_improvement_store']",b499b9ab-01c7-465e-b5d4-ec7943aa1944,,,,chicago,IL,Crystal Lake,60014.0,7316 Teckler Blvd,42.222322,-88.3206708,meta,2025-06-02T07:00:00.000Z,0.9415384615384615,Microsoft ML Buildings,2022-08-18T00:00:00.000Z,,False
5be87536-c151-4cbc-8465-51709fa31379,Campbell's Bakery & Cafe,coffee_shop,['restaurant'],b42853c8-992c-4597-9913-911939928e68,,,,antioch,CA,Antioch,94509.0,211 G St,38.01640681,-121.81345469,Microsoft,2019-04-11T04:36:01.990Z,0.77,OpenStreetMap,2025-01-26T03:27:39.000Z,,False
9d7f9dab-bfb7-45d6-878f-4bdac7269d12,Campbell's Flooring,contractor,"['shopping', 'real_estate_agent']",,,,,orlando,FL,Orlando,32804.0,1305 Edgewater Dr,28.5632275,-81.3892772,meta,2025-06-02T07:00:00.000Z,0.8831168831168831,,,,False
e4c2352e-caa8-4fd8-8c7f-190cd6f63407,Grant Campbell's USA Karate,martial_arts_club,"['active_life', 'specialty_school']",048d986c-5748-4ef2-9764-8fde50345e6e,,,,miami,FL,Hollywood,33021.0,4749 Hollywood Blvd,26.0106368,-80.1913217,meta,2025-06-02T07:00:00.000Z,0.9784508333782836,OpenStreetMap,2022-05-31T21:28:11.000Z,,False
5fb85588-60b0-49d1-a095-59fa2c39bdbf,Campbell's Area Rugs & Carpeting,carpet_store,"['home_improvement_store', 'shopping']",,,,,miami,FL,Pompano Beach,33064.0,2601 NW 17th Ln,26.2625304,-80.1479689,meta,2025-06-02T07:00:00.000Z,0.9784508333782836,,,,False
00706338-93e6-44ef-b54f-6e2ffc7af89c,Campbell's Barber Shop,barber,"['beauty_salon', 'beauty_and_spa']",6b49ce6e-c5bb-4d9f-9025-aa4f047e0852,,,,winston-salem,NC,Winston-Salem,27105.0,2002 N Cleveland Ave,36.117655,-80.230545,meta,2025-06-02T07:00:00.000Z,0.3376623376623376,OpenStreetMap,2022-12-21T03:32:43.000Z,,False
6b5e5da1-0e30-44e9-bf11-6ddcd719ba2e,Campbell's Chapel AME Church,church_cathedral,['religious_organization'],5758df4f-2951-46e1-8a41-9b847e799831,Camels Chapel,religious,church,virginia-beach,VA,Virginia Beach,23456.0,3252 Indian River Rd,36.7333758,-76.0975011,meta,2025-06-02T07:00:00.000Z,0.9784508333782836,OpenStreetMap,2024-05-15T20:50:52.000Z,,False
2d186ee0-f7bc-4192-b7e6-0d29358d821f,Campbell's Asphalt Paving,masonry_concrete,['contractor'],26b12915-de38-4e51-b18e-3b25eb4c04c7,,residential,house,virginia-beach,VA,Virginia Beach,23455.0,5420 Sunnywood Dr,36.896143,-76.167985,meta,2025-06-02T07:00:00.000Z,0.2456896551724137,OpenStreetMap,2016-04-03T13:21:05.000Z,,False
b8cb2fd0-b9bd-4b4d-b3f0-8a3e32e7b076,Campbell's Collision Repair Shop,auto_body_shop,"['automotive', 'wholesale_store']",6ae07396-853b-429a-96b2-696bbba36db4,,,,indianapolis,IN,Indianapolis,46208.0,1055 W 25th St,39.8027691,-86.1796545,meta,2025-06-02T07:00:00.000Z,0.9415384615384615,OpenStreetMap,2021-04-28T14:53:36.000Z,,False
bd5312ad-0a37-48ab-a705-239f075e89b5,Campbell's Service Equipment and Parts,outdoor_gear,"['nursery_and_gardening', 'automotive_repair']",b2830dee-db9a-4c2e-afd3-fb7f2e2ba3ed,,,,indianapolis,IN,Noblesville,46060.0,1332 S 8th St,40.0342712,-86.0140699,meta,2025-06-02T07:00:00.000Z,0.9879256218304756,Esri Community Maps,2024-10-15T00:00:00.000Z,,False
15aee21a-7de1-4bf6-8885-f2d8fde2d713,Campbell's Learning Academy,home_service,"['day_care_preschool', 'tutoring_center']",,,,,memphis,TN,Memphis,38109.0,4933 Fairley Rd,35.0137434,-90.0512671,meta,2025-06-02T07:00:00.000Z,0.9784508333782836,,,,False
d2d2d4bc-7273-4e0b-bb78-adc33cf06ae7,Campbell's curbside Cafe,delicatessen,"['grocery_store', 'sandwich_shop']",2762b6d8-defc-45f1-9af4-0fda09b1ec90,,,,memphis,TN,Memphis,38109.0,204 W Brooks Rd,35.0634759,-90.0707985,meta,2025-06-02T07:00:00.000Z,0.3961437335670464,OpenStreetMap,2018-09-26T00:27:33.000Z,,False
c71ec55f-70ac-4838-87ad-4000aaa9f280,Campbell's Express,freight_and_cargo_service,"['transportation', 'travel']",28fe92a3-582b-4250-973a-40b87f91d29d,,,,philadelphia,NJ,Pitman,8071.0,134 Laurel Dr,39.7439548,-75.1381035,meta,2025-06-02T07:00:00.000Z,0.9784508333782836,Microsoft ML Buildings,2020-10-03T00:00:00.000Z,,False
9ffac25b-9245-4f33-ae20-bff2d0cc6f40,Campbell's,american_restaurant,"['restaurant', 'eat_and_drink']",5e6b14cd-6479-44ce-b948-c47ef1e23253,,,,philadelphia,NJ,Camden,8103.0,1 Campbell Pl,39.939551,-75.108349,meta,2025-06-02T07:00:00.000Z,0.8384615384615385,OpenStreetMap,2015-07-29T23:08:46.000Z,,False
05906882-19ed-49aa-b9ad-53b2f03b1ebc,Campbell Soup Co.,eat_and_drink,"['soup_restaurant', 'grocery_store']",5b46e15b-7af1-4550-ad47-c24aa3b75b90,,,,philadelphia,NJ,Haddon Twp,8107.0,1101 Elm Ave,39.907157,-75.090795,meta,2025-06-02T07:00:00.000Z,0.3376623376623376,Microsoft ML Buildings,2020-10-14T00:00:00.000Z,,False
ccacb852-a9af-4192-8008-b57b0621716c,Campbell's Place,american_restaurant,"['bar', 'pub']",d7a2d1a6-1339-45f0-8fe8-5a6497f793cc,,,,philadelphia,PA,Philadelphia,19118.0,8337 Germantown Ave,40.075051,-75.204632,meta,2025-06-02T07:00:00.000Z,0.9784508333782836,OpenStreetMap,2023-08-15T16:58:34.000Z,,False
ccacb852-a9af-4192-8008-b57b0621716c,Campbell's Place,american_restaurant,"['bar', 'pub']",46d34cf9-adcf-42d7-a507-e1009fcd134d,,,,philadelphia,PA,Philadelphia,19118.0,8337 Germantown Ave,40.075051,-75.204632,meta,2025-06-02T07:00:00.000Z,0.9784508333782836,OpenStreetMap,2023-08-15T16:58:34.000Z,,False
ccacb852-a9af-4192-8008-b57b0621716c,Campbell's Place,american_restaurant,"['bar', 'pub']",0bbf9d4a-c430-4a07-8de8-79243bcd187e,,,,philadelphia,PA,Philadelphia,19118.0,8337 Germantown Ave,40.075051,-75.204632,meta,2025-06-02T07:00:00.000Z,0.9784508333782836,OpenStreetMap,2023-08-15T16:58:34.000Z,,False
0b547360-658f-4cd2-bb6b-bdedfe755505,Campbell's Custom Woodworks,countertop_installation,"['shopping', 'home_improvement_store']",172874f0-f136-47e0-b3f1-4df0c00cb3e5,,,,philadelphia,PA,Pottstown,19464.0,62 Lemon St,40.2486117,-75.6818983,meta,2025-06-02T07:00:00.000Z,0.9297091412742382,Microsoft ML Buildings,2020-09-19T00:00:00.000Z,,False
5e1fa52f-6a77-438b-ac7d-e54d1717b075,Campbell's Custom Clubs,active_life,"['bar', 'tattoo_and_piercing']",1bef2464-06e7-4f33-9f0c-05427d56efa6,,,,fort-wayne,IN,Fort Wayne,46819.0,1718 Legoma Dr,41.012647,-85.160349,meta,2025-06-02T07:00:00.000Z,0.3376623376623376,Microsoft ML Buildings,2020-07-08T00:00:00.000Z,,False
b7dc892a-2181-48fe-8c4c-29ecfb483d3e,Campbell's Automotive,automotive_repair,"['car_dealer', 'professional_services']",,,,,fort-wayne,IN,Fort Wayne,46806.0,5015 Decatur Rd,41.0369212,-85.1302851,meta,2025-06-02T07:00:00.000Z,0.9784508333782836,,,,False
0ba33797-b9ae-4cea-861b-64640a5aac7f,Campbell's Barber Shop,barber,"['beauty_and_spa', 'beauty_salon']",5a036804-3e29-4a14-a0f0-f597e0779770,,,,washington-dc,DC,Washington,20019.0,5011 H St SE,38.8785204,-76.9308636,meta,2025-06-02T07:00:00.000Z,0.9784508333782836,OpenStreetMap,2014-07-31T19:02:56.000Z,,False
0a86f45f-c583-4fa1-a3ad-58670afa51b1,Campbell's Roofing Co LLC,roofing,"['contractor', 'construction_services']",,,,,dayton,OH,Dayton,45426.0,5857 Wolf Creek Pike,39.7947472,-84.2883334,meta,2025-06-02T07:00:00.000Z,0.9300613496932516,,,,False
67d4b5a1-3a89-44d9-bd53-11798db2575a,Lady Campbell's Faith Academy,day_care_preschool,"['home_service', 'school']",,,,,new-orleans,LA,Violet,70092.0,5005 E St Bernard Hwy,29.91581,-89.91162,meta,2025-06-02T07:00:00.000Z,0.7548172757475083,,,,False
e4aa5f75-788c-4db8-a71b-81151d9efe6c,Campbell's Showroom,plumbing,"['wholesale_store', 'travel']",4c691d6f-4660-437f-b833-d912a566b626,,,,grand-rapids,MI,Wyoming,49418.0,5570 Wilson Ave SW,42.86412,-85.7612997,meta,2025-06-02T07:00:00.000Z,0.9415384615384615,OpenStreetMap,2021-01-11T06:52:39.000Z,,False
35d4b31f-7c09-45ae-946e-c8bc5e637a7e,Campbell's Clearview Window,windows_installation,"['glass_and_mirror_sales_service', 'carpenter']",,,,,grand-rapids,MI,Wyoming,49519.0,1760 Corbin Ct SW,42.8656241,-85.7077652,meta,2025-06-02T07:00:00.000Z,0.8831168831168831,,,,False
d3428017-4804-4075-8455-bf4d6293686b,Campbell's Market,grocery_store,"['supermarket', 'convenience_store']",,,,,riverside-san-bernardino,CA,Riverside,92505.0,10590 Campbell Ave,33.9356361,-117.4866331,meta,2025-06-02T07:00:00.000Z,0.9784508333782836,,,,False
70ef641b-4bdd-4ffc-ac6e-e7d636aba403,Campbell's Janitorial Service & Floor Care,home_cleaning,"['carpet_store', 'professional_services']",769a6b82-bc60-46e1-a779-ef93fd7c6697,,,,mcallen,TX,McAllen,78504.0,2212 Primrose Ave,26.2438226,-98.2381902,meta,2025-06-02T07:00:00.000Z,0.9415384615384615,Microsoft ML Buildings,2000-01-01T00:00:00.000Z,,False
c118d8b0-51e3-43d8-bd82-ef6ab18e1422,Julie Campbell's Upholstery,furniture_assembly,,48a67ab0-cc0e-472e-9221-4bd6cb2bf878,,,,columbus-ohio,OH,Prairie Twp,43228.0,259 Garden Heights Ave,39.9580511,-83.120073,meta,2025-06-02T07:00:00.000Z,0.8540983606557377,Esri Community Maps,2024-10-15T00:00:00.000Z,,False
bfac0800-ce7d-4b60-beb6-0376448c017d,Campbell Soup Co,food_beverage_service_distribution,"['eat_and_drink', 'cosmetic_and_beauty_supplies']",,,,,stockton,CA,Stockton,95206.0,760 Industrial Dr,37.9088055,-121.2658115,meta,2025-06-02T07:00:00.000Z,0.9784508333782836,,,,False
3e29cba9-d8bf-4af8-b8e6-a2272ec9b6c5,Campbell's Kidz Learning Center,day_care_preschool,['social_service_organizations'],1bbd11b5-1537-41e0-b4bd-fa53c061b0aa,,,,baton-rouge,LA,Baton Rouge,70805.0,4618 Winbourne Ave,30.4786138,-91.1438941,meta,2025-06-02T07:00:00.000Z,0.9784508333782836,Esri Community Maps,2024-10-15T00:00:00.000Z,,False
a9549091-a962-4274-bcdb-59c8f7823023,Campbell's Trucking,freight_and_cargo_service,['transportation'],13338733-c5fd-4781-b82e-2371817020d3,,,,seattle,WA,Tacoma,98444.0,12115 Steele St S,47.1478959,-122.4662911,meta,2025-06-02T07:00:00.000Z,0.9297091412742382,OpenStreetMap,2024-11-23T17:29:32.000Z,,False
8d8cb73f-f3ab-470a-bdff-af25fc3f836e,Campbell's Tree Farm,farm,"['pop_up_shop', 'agricultural_service']",,,,,seattle,WA,Snohomish,98296.0,12219 Springhetti Rd,47.8853091,-122.0983532,meta,2025-06-02T07:00:00.000Z,0.9784508333782836,,,,False
8cdca529-d55f-4bc2-9700-8e7c5d6ba542,Campbell's Dairyland,fast_food_restaurant,"['restaurant', 'ice_cream_shop']",c4a7a204-f20a-49f8-afa1-e744356bedfe,,,,tampa,FL,Brandon,33511.0,200 S Parsons Ave,27.9355613,-82.2859931,meta,2025-06-02T07:00:00.000Z,0.9784508333782836,OpenStreetMap,2022-06-15T15:22:47.000Z,,False
1c2958f6-24f4-490e-9202-3d32ea01f4aa,Campbell's Compounding Pharmacy,pharmacy,"['medical_supply', 'health_and_medical']",e186e45b-c3a2-485e-9838-04c945845852,,,,houston,TX,Houston,77005.0,6603 Kirby Dr,29.7076988,-95.4181549,meta,2025-06-02T07:00:00.000Z,0.9784508333782836,OpenStreetMap,2019-09-12T19:55:49.000Z,,False
b10908a8-37d0-4413-9452-31c23c371080,Campbell's Pest Control and Landscape,pest_control_service,"['landscaping', 'pool_cleaning']",,,,,houston,TX,Tomball,77375.0,111 N Willow St,30.1462515,-95.4464577,meta,2025-06-02T07:00:00.000Z,0.9300613496932516,,,,False
b04ec4ac-4ebe-4aa1-949d-d0ea4f1882a1,Campbell's Corner Store,thrift_store,"['antique_store', 'shopping']",eb3c871b-6f01-4905-95a9-1cfed0101953,,,,wichita,KS,Wichita,67217.0,4605 S Seneca St,37.6110613,-97.3527335,meta,2025-06-02T07:00:00.000Z,0.9784508333782836,Microsoft ML Buildings,2018-11-29T00:00:00.000Z,,False
b04ec4ac-4ebe-4aa1-949d-d0ea4f1882a1,Campbell's Corner Store,thrift_store,"['antique_store', 'shopping']",33478dcc-2d3f-455b-aba9-da941fbddb3a,,,,wichita,KS,Wichita,67217.0,4605 S Seneca St,37.6110613,-97.3527335,meta,2025-06-02T07:00:00.000Z,0.9784508333782836,Microsoft ML Buildings,2018-11-29T00:00:00.000Z,,False
5c4c136c-66db-4525-99a0-03f869820977,Campbell's Phoenix Greenhouse,nursery_and_gardening,"['home_improvement_store', 'farm']",a9dd85d6-4c49-4d11-aff3-ece9442fe139,,,,wichita,KS,Wichita,67216.0,3560 S Broadway St,37.6292789,-97.3330512,meta,2025-06-02T07:00:00.000Z,0.9459263554653524,Microsoft ML Buildings,2018-11-29T00:00:00.000Z,,False
e20ba763-4f15-48fe-9edd-0bb568daf15d,Campbell's,burger_restaurant,"['restaurant', 'american_restaurant']",f1f3dc51-20cf-40dc-af6f-760f7a6d4d26,,,,phoenix,AZ,Peoria,85383.0,9098 W Pinnacle Peak Rd,33.6966428,-112.2546377,meta,2025-06-02T07:00:00.000Z,0.9784508333782836,OpenStreetMap,2023-02-20T05:08:13.000Z,,False
d373144d-bebd-4bab-8180-881b8ea7b143,Campbell's Carwash,car_wash,"['auto_detailing', 'car_window_tinting']",,,,,phoenix,AZ,Mesa,85203.0,1220 N Horne,33.4362254,-111.8141342,meta,2025-06-02T07:00:00.000Z,0.9784508333782836,,,,False
89f10d4c-2989-40b1-9a4b-7c0113b3af79,Campbell's Carwash,car_wash,"['auto_detailing', 'automotive']",,,,,phoenix,AZ,Phoenix,85022.0,2150 E Sweetwater Ave,33.6042327,-112.0359621,meta,2025-06-02T07:00:00.000Z,0.9784508333782836,,,,False
32daf903-6d63-4d83-a6af-0cdc8dab7f2a,Campbell's Carwash,auto_detailing,"['automotive', 'limo_services']",aefde9ab-3d89-442c-863e-029bf9fdcecf,,commercial,retail,phoenix,AZ,Phoenix,85022.0,14630 N Cave Creek Rd,33.619633,-112.031137,meta,2025-06-02T07:00:00.000Z,0.3376623376623376,OpenStreetMap,2021-09-23T00:51:34.000Z,,False
fa36f0a5-51f2-49db-9ab3-7c451e57737c,Campbell's Sweets Factory,cupcake_shop,"['desserts', 'candy_store', 'chocolatier', 'restaurant', 'retail']",,,,,cleveland,OH,Cleveland,44113.0,2084 W 25th St,41.4830703735352,-81.7025527954102,Microsoft,2015-10-23T16:42:06.197Z,0.77,,,,False
fc22b4ee-f5f7-4396-b536-c9c8f0e35a8b,Grandma Campbell's Fresh Bake,bakery,"['restaurant', 'smoothie_juice_bar']",967f29f9-026b-4107-bf58-13f4734adc23,West Side Market,commercial,retail,cleveland,OH,Cleveland,44113.0,1979 W 25th St,41.4844961,-81.7028941,meta,2025-06-02T07:00:00.000Z,0.9204819277108434,OpenStreetMap,2025-03-14T17:04:29.000Z,,False
d7421db0-f828-4410-9f89-402097cfdf74,Campbell's Popcorn Shop,gift_shop,"['desserts', 'popcorn_shop', 'restaurant', 'retail']",967f29f9-026b-4107-bf58-13f4734adc23,West Side Market,commercial,retail,cleveland,OH,Cleveland,44113.0,1979 W 25th St #C13,41.48479843139648,-81.70298767089844,Microsoft,2015-10-26T14:11:13.987Z,0.77,OpenStreetMap,2025-03-14T17:04:29.000Z,,False
0962bb41-71ee-4886-86a1-4bc155113b1c,Campbell's Greenhouses,greenhouses,"['farm_equipment_and_supply', 'b2b_farming', 'b2b_agriculture_and_food', 'business_to_business', 'retail']",,,,,charlotte,NC,Charlotte,28203.0,209 Mcdonald Ave,35.2076325,-80.8601218,Microsoft,2025-04-10T08:17:35.357Z,0.77,,,,False
96d9706f-7a87-464f-8c95-1a58985149a9,The Reserve at Campbell's Creek,landmark_and_historical_building,['social_service_organizations'],a93e8d0c-3f8d-44c1-95d4-889e5cef6d3b,,,,charlotte,NC,Charlotte,28212.0,5616 Farm Pond Ln,35.2042244,-80.7389252,meta,2025-06-02T07:00:00.000Z,0.9300613496932516,OpenStreetMap,2023-04-07T20:20:31.000Z,,False
2a627325-1802-4d50-860b-35f833554dd1,Campbell's Cooling & Heating Inc,hvac_services,"['home_improvement_store', 'shopping']",53b6155e-6828-4406-8d68-215e920265a5,,,,palm-bay-melbourne,FL,Melbourne,32901.0,4038 Babcock St S,28.047592,-80.623171,meta,2025-06-02T07:00:00.000Z,0.242152466367713,OpenStreetMap,2025-01-04T01:32:31.000Z,,False
8fd3fccd-40e7-463a-a153-f09fa80c1825,Campbell's Cooling & Heating Inc,hvac_services,,,,,,palm-bay-melbourne,FL,Melbourne,32901.0,4038 S Babcock St,28.047886,-80.6231748,Microsoft,2025-04-10T08:17:07.820Z,0.77,,,,False
91a39cae-9f0a-4686-a111-c1a0051e1503,Campbell's Cooling & Heating Inc,hvac_services,,ec0ab3ad-750a-4c5f-aae5-4e630752b28b,,,,palm-bay-melbourne,FL,Melbourne,32901.0,4038 S Babcock St,28.047522,-80.623024,Microsoft,2014-11-12T13:55:13.183Z,0.77,OpenStreetMap,2025-01-04T01:32:31.000Z,,False
de5d614c-c0ce-4979-8e4f-71872d5865ef,Eric Campbell's Window Cleaning,window_washing,,17de5fd0-f592-4d5b-9b61-a56aca9f579e,,residential,apartments,los-angeles,CA,Los Angeles,90034.0,3616 Cardiff Ave Apt 210,34.0282325744629,-118.397979736328,Microsoft,2014-03-27T05:22:52.723Z,0.77,OpenStreetMap,2016-06-16T20:48:17.000Z,,False
268d1235-5e3b-4035-913e-b2f2b30f5f6c,Campbell's Automotive Repair Service,automotive_repair,"['tire_dealer_and_repair', 'automotive']",496f71a1-90cc-4c0c-8534-feb53c5836e5,,industrial,industrial,los-angeles,CA,Glendale,91214.0,3840 Foothill Blvd,34.238532,-118.263321,meta,2025-06-02T07:00:00.000Z,0.9784508333782836,OpenStreetMap,2016-07-21T12:28:43.000Z,,False
0fec7d35-36b1-4831-b20b-ce005aa312c1,Campbell Soup,soup_restaurant,"['food_beverage_service_distribution', 'professional_services']",7d1e867c-a34f-44a0-94d7-fd27b501a616,,,,sacramento,CA,Sacramento,95824.0,6200 Franklin Blvd,38.5140957,-121.4714065,meta,2025-06-02T07:00:00.000Z,0.3961437335670464,OpenStreetMap,2012-06-17T18:59:30.000Z,,False
1e07d09e-c01a-4d50-be31-dbb0a66340df,Campbell's Cleaning,cleaning_services,,,,,,sacramento,CA,Sacramento,95821.0,3240 Bell St Apt 12,38.624831,-121.4107071,Microsoft,2021-07-19T03:18:52.710Z,0.77,,,,False
24edae76-df81-4661-88b0-4ac98293ec20,Campbell's Tires and Service,tire_dealer_and_repair,['automotive_repair'],,,,,columbia-south-carolina,SC,Columbia,29210.0,1168 Saint Andrews Rd,34.0492994,-81.1081582,meta,2025-06-02T07:00:00.000Z,0.9784508333782836,,,,False
70107a47-d1a3-4421-ab78-7a47df352540,Campbell's Wrecker Service,towing_service,"['automotive', 'environmental_conservation_and_ecological_organizations']",bda45f38-ba2a-4028-8da8-197c52d6973d,Campbell's Wrecker Service,,,columbia-south-carolina,SC,Columbia,29201.0,801 Rosewood Dr,33.9718307,-81.0301006,meta,2025-06-02T07:00:00.000Z,0.9297091412742382,OpenStreetMap,2024-09-29T16:20:16.000Z,,False
