id_left,primary_name_left,primary_category,alternate_category,id_right,primary_name_right,subtype,class,source_city,region,locality,zipcode,address,latitude,longitude,plc_source_dataset,plc_source_update_time,plc_source_confidence,bldg_dataset,bldg_update_time,bldg_confidence,is_office_by_pipeline
16d4c90a-09f7-465e-9b8d-3d85de9b630b,Dominion Energy Ohio,public_utility_company,"['public_service_and_government', 'electric_utility_provider']",909335cd-ed91-4216-98c4-838e39116c8f,,,,akron,OH,Akron,44314.0,1000 W Wilbeth Rd,41.038863,-81.563776,meta,2025-06-02T07:00:00.000Z,0.3376623376623376,Microsoft ML Buildings,2020-09-21T00:00:00.000Z,,False
278ade82-42fe-408f-88c3-943dd1419061,Dominion Energy Virginia,public_utility_company,"['electric_utility_provider', 'energy_company']",506f088d-4b46-485c-b938-507b5cee65a8,,,,virginia-beach,VA,Virginia Beach,23462.0,4901 Princess Anne Rd,36.822298,-76.15308,meta,2025-06-02T07:00:00.000Z,0.9459263554653524,OpenStreetMap,2022-11-02T09:49:25.000Z,,False
533109ab-6964-4cdf-8fb4-2819f46fbe10,Dominion Energy Virginia,electricity_supplier,['utility_service'],,,,,virginia-beach,VA,Norfolk,23509.0,2749 Cromwell Dr,36.8804157052687,-76.2547661135542,Microsoft,2023-08-30T18:11:28.303Z,0.77,,,,False
a643e899-60fe-458a-9534-8f5562185a8f,Dominion Energy Management,professional_services,"['solar_installation', 'energy_company']",ae8fed92-00e0-4010-a57c-376ad9671da7,,commercial,commercial,virginia-beach,VA,Virginia Beach,23462.0,4445 Corporation Ln,36.8470438,-76.1264471,meta,2025-06-02T07:00:00.000Z,0.9297091412742382,OpenStreetMap,2016-03-07T21:47:49.000Z,,False
c320bcab-7ca5-430b-b7cd-9af9937b61d6,Dominion Energy Charity Classic,active_life,,7b61d7f7-276a-45e7-89ae-98b793a83877,,,,richmond,VA,Henrico,23238.0,709 S Gaskins Rd,37.5726501,-77.613964,meta,2025-06-02T07:00:00.000Z,0.2456896551724137,OpenStreetMap,2019-07-26T07:34:11.000Z,,False
9a15685e-7aa5-4027-b462-ef901f0a9e9d,Dominion Energy Virginia,electric_utility_provider,"['public_utility_company', 'energy_company']",c90c76c8-ebc3-4a5e-ad55-15701741e6f8,,,,richmond,VA,Richmond,23219.0,120 Tredegar St,37.533782,-77.4537118,meta,2025-06-02T07:00:00.000Z,0.8980891719745223,OpenStreetMap,2025-03-23T02:14:53.000Z,,False
62de59cb-c425-43cb-af70-388c19165d65,Dominion Energy,electricity_supplier,['utility_service'],,,,,richmond,VA,Richmond,23219.0,120 Tredegar St,37.53359,-77.45225,Microsoft,2019-06-09T20:58:27.190Z,0.77,,,,False
9740d63d-6432-4af8-993e-515ce9005371,Dominion Energy Solutions,energy_equipment_and_solution,"['home_security', 'professional_services']",fa29c6fc-e958-42d7-a093-27b7ddb3a9c7,,residential,garage,richmond,VA,Richmond,23219.0,600 E Canal St,37.538283,-77.4400975,meta,2025-06-02T07:00:00.000Z,0.8253968253968254,OpenStreetMap,2025-03-23T02:15:24.000Z,,False
f6fd7d9c-0769-48da-86c9-f266d89db49c,Dominion Energy Center,theatre,"['music_venue', 'topic_concert_venue']",e4cf2c64-c5f0-4457-b238-e393dc63ad90,Dominion Energy Center,entertainment,,richmond,VA,Richmond,23219.0,600 E Grace St,37.5416015,-77.4370617,meta,2025-06-02T07:00:00.000Z,0.9879256218304756,OpenStreetMap,2025-03-23T02:14:53.000Z,,False
9595d5be-6a61-4357-b4ee-bb2defaa88e3,Dominion Energy Christmas Parade,arts_and_entertainment,"['attractions_and_activities', 'community_services_non_profits']",f3011c1b-9f60-443d-983e-219d0e5d5d9c,Science Museum of Virginia,entertainment,,richmond,VA,Richmond,23220.0,2500 W Broad St,37.5615772,-77.4660523,meta,2025-06-02T07:00:00.000Z,0.8831168831168831,OpenStreetMap,2025-03-23T02:14:56.000Z,,False
48abe2d8-0808-49e7-8eb1-72f00820a703,Dominion Energy Virginia,public_utility_company,"['public_service_and_government', 'internet_service_provider']",1bb91e90-f79b-4778-bcdc-92c104af7f4f,,,,richmond,VA,Henrico,23294.0,7500 W Broad St,37.6183541,-77.5204081,meta,2025-06-02T07:00:00.000Z,0.9784508333782836,OpenStreetMap,2019-08-04T07:30:36.000Z,,False
d9cf21c1-3aed-4a7c-afc1-c0304523a7b2,Dominion Energy GardenFest of Lights at Lewis Ginter,park,"['botanical_garden', 'arts_and_entertainment']",173b7ac8-4e55-42ff-aaf4-aee1445c66fd,Robins Visitors Center,,,richmond,VA,Henrico,23228.0,1800 Lakeside Ave,37.6201578,-77.4709784,meta,2025-06-02T07:00:00.000Z,0.242152466367713,OpenStreetMap,2023-04-23T22:38:45.000Z,,False
16fa58e7-e5a2-427b-b521-71cc416f8bfe,Dominion Energy Manchester Street Station,public_utility_company,"['public_service_and_government', 'community_center']",3ef89ada-8e1a-47bb-bc7b-7795e2fa65eb,,,,providence,RI,Providence,2903.0,40 Point St,41.8168934,-71.4056057,meta,2025-06-02T07:00:00.000Z,0.9300613496932516,OpenStreetMap,2020-02-10T20:30:31.000Z,,False
f59414f8-67f3-4fe7-ba5e-16953213f070,Dominion Energy Virginia,public_utility_company,"['public_service_and_government', 'electric_utility_provider']",f6fd5a11-7197-4383-9cc8-7ab30a1f65d9,Dominion Energy Virginia,,,washington-dc,VA,Herndon,20171.0,3072 Centreville Rd,38.9222999,-77.4182936,meta,2025-06-02T07:00:00.000Z,0.9297091412742382,OpenStreetMap,2022-09-13T20:23:23.000Z,,False
320943fb-cb7e-4bf9-9c4e-8134a7511005,Dominion Energy Virginia,public_utility_company,"['internet_service_provider', 'energy_company']",,,,,washington-dc,VA,Leesburg,20175.0,620 Sycolin Rd SE,39.0846289,-77.5514034,meta,2025-06-02T07:00:00.000Z,0.9415384615384615,,,,False
706c55cb-91da-4cdb-af44-25a0849ce89f,Dominion Energy Virginia,electric_utility_provider,"['real_estate', 'public_service_and_government']",,,,,washington-dc,VA,Springfield,22150.0,7888 Backlick Rd,38.7451132,-77.1899376,meta,2025-06-02T07:00:00.000Z,0.9204819277108434,,,,False
0d45e722-26d5-490e-a85b-878a32b3342d,Dominion Energy Virginia,electricity_supplier,['utility_service'],c5bdf277-eacd-4130-a807-58e2243d3bba,Dominion,,,washington-dc,VA,Alexandria,22305.0,907 W Glebe Rd,38.84228,-77.07306,Microsoft,2023-08-30T18:11:28.303Z,0.77,OpenStreetMap,2022-10-05T17:45:44.000Z,,False
9c69fd5b-32f1-40d2-b095-f26efebd79b3,Dominion Energy Utah,public_utility_company,"['storage_facility', 'chemical_plant']",,,,,salt-lake-city,UT,Salt Lake City,84111.0,333 S State St,40.76161,-111.8874,meta,2025-06-02T07:00:00.000Z,0.7548172757475083,,,,False
38416414-67d6-420a-98e3-8302623be7a0,Dominion Energy South Carolina,electricity_supplier,['utility_service'],,,,,columbia-south-carolina,SC,Cayce,29033.0,220 Operation Way,33.95592167,-81.04919667,Microsoft,2023-08-30T18:11:28.303Z,0.77,,,,False
2dad26b0-0d66-45b3-933e-af9b394120aa,Dominion Energy South Carolina,electricity_supplier,['utility_service'],,,,,columbia-south-carolina,SC,Cayce,29033.0,400 Otarre Pkwy,33.9730630099405,-81.0500416960152,Microsoft,2023-08-30T18:11:28.303Z,0.77,,,,False
acfeb3dc-e365-4fe7-9955-6b82352f2ef2,Dominion Energy South Carolina,electricity_supplier,['utility_service'],48403be4-20cf-4fcc-97a6-3a144a0db420,,residential,house,columbia-south-carolina,SC,Cayce,29033.0,400 Otarre Pkwy,33.9799995422363,-81.055061340332,Microsoft,2023-08-30T18:11:28.303Z,0.77,OpenStreetMap,2019-02-06T02:43:53.000Z,,False
