id_left,primary_name_left,primary_category,alternate_category,region,locality,zipcode,address,latitude,longitude,plc_source_dataset,plc_source_update_time,plc_source_confidence,id_right,primary_name_right,subtype,class,bldg_dataset,bldg_update_time,bldg_confidence,source_city,is_office_by_pipeline
913ce9be-512e-48b8-a4ab-54547ab7875d,Copeland's Chem-Dry,carpet_store,"['carpet_cleaning', 'retail']",TX,El Paso,79932.0,5115 Ocotillo St,31.8462041,-106.5831778,Microsoft,2015-09-25T19:00:18.980Z,0.77,,,,,,,,el-paso,False
f26cb013-b5e2-49cf-a3dd-cb978d40c30d,Fisher & Asociados - Abogados Consultores,legal_services,"['employment_law', 'divorce_and_family_law']",,Juárez,32500.0,Avenida Pedro Rosales de León 7361,31.71488,-106.42091,meta,2025-06-02T07:00:00.000Z,0.3376623376623376,6748c54e-1acd-40dc-b646-b56c34df601e,,,,Microsoft ML Buildings,2018-08-01T00:00:00.000Z,,el-paso,False
3f071897-dd28-42c4-89e2-28d6798a1c19,Metal Detectors Fisher,sports_club_and_league,"['active_life', 'outdoor_gear']",TX,El Paso,79907.0,1120 Alza Dr,31.7071946,-106.2974595,meta,2025-06-02T07:00:00.000Z,0.8540983606557377,4d448c3b-283b-4f4d-8b11-991bcb8c5615,,,,Microsoft ML Buildings,2020-11-17T00:00:00.000Z,,el-paso,False
f9cc8584-60d3-4228-a41d-157c3682c1c1,Fisher Research Labs,b2b_science_and_technology,"['industrial_equipment', 'structural_engineer']",TX,El Paso,79907.0,1120 Alza Dr,31.728244,-106.294753,meta,2025-06-02T07:00:00.000Z,0.3961437335670464,aec6ff49-188f-4ee9-a719-876989414689,,,,OpenStreetMap,2019-03-08T15:58:02.000Z,,el-paso,False
d691e8ff-d2d7-4e95-9565-9cf7eb1f2c68,Emerson Electric,contractor,"['electrician', 'appliance_repair_service']",TX,El Paso,79936.0,1281 Joe Battle Blvd,31.715727,-106.273114,meta,2025-06-02T07:00:00.000Z,0.5662921348314607,935297a7-780d-4838-9ab1-e615bd804f7b,,commercial,commercial,OpenStreetMap,2019-08-08T17:32:28.000Z,,el-paso,False
53ac07dc-dcb2-4bd7-b596-acc8b2ec87ba,Fort Bliss Army Fisher House,community_services_non_profits,"['public_and_government_association', 'public_service_and_government']",TX,El Paso,79930.0,7360 Rodriguez St,31.822286,-106.459115,meta,2025-06-02T07:00:00.000Z,0.7548172757475083,a9040c86-b7e0-4260-be26-25427176d30b,Army Fisher House,,,OpenStreetMap,2022-10-18T17:44:12.000Z,,el-paso,False
55e90865-6e76-437d-8072-3cebd337a031,"Leigh Ann Emerson, Pilkerton Realtors",real_estate_agent,"['professional_services', 'real_estate']",TN,Brentwood,37027.0,2 Cadillac Dr,36.035811,-86.7959027,meta,2025-06-02T07:00:00.000Z,0.9415384615384615,018fdaab-4269-478e-8aad-52561839b5c5,,,,OpenStreetMap,2019-12-09T14:26:42.000Z,,nashville-davidson,False
c3f48f7a-1bf6-453a-8797-d77a9d7fa493,LA Emerson Homes,real_estate_agent,"['professional_services', 'real_estate']",TN,Brentwood,37027.0,2 Cadillac Dr,36.036029,-86.795752,meta,2025-06-02T07:00:00.000Z,0.8831168831168831,,,,,,,,nashville-davidson,False
80ec690b-ba5e-4e67-8280-51720ed40c52,Emerson Tables,furniture_store,['professional_services'],TN,Nashville,37215.0,1470 Tyne Blvd,36.0789549,-86.8184177,meta,2025-06-02T07:00:00.000Z,0.909823677581864,,,,,,,,nashville-davidson,False
0adf20fc-0f36-468d-99ae-c59c1fa58f95,Fisher Speech Language & Literacy Services,speech_therapist,"['test_preparation', 'professional_services']",TN,Nashville,37215.0,2116 Hobbs Rd,36.10039,-86.82017,meta,2025-06-02T07:00:00.000Z,0.8540983606557377,f7c731a1-b51b-4b70-bac2-ca69cb6f733b,,,,OpenStreetMap,2018-05-06T19:33:29.000Z,,nashville-davidson,False
947cc640-6c78-4f85-af4b-12bd3767dc36,Eileen Fisher,t_shirt_store,"['designer_clothing', 'clothing_store', 'retail']",TN,Nashville,37215.0,"2126 Abbott Martin Rd, Spc 277",36.1060722,-86.8151079,Microsoft,2025-05-02T22:39:11.137Z,0.77,,,,,,,,nashville-davidson,False
692f3bcb-1df3-4555-b530-ce0aea901098,Eileen Fisher,womens_clothing_store,"['clothing_store', 'shopping']",TN,Nashville,37215.0,2126 Abbott Martin Rd,36.1074234,-86.8157014,meta,2025-06-02T07:00:00.000Z,0.9784508333782836,8b045bd2-36b3-4466-9680-96a15c51ba25,The Mall at Green Hills,commercial,retail,OpenStreetMap,2024-11-20T21:56:39.000Z,,nashville-davidson,False
b11d3a92-073c-4c15-9229-3a90d4a7b2e3,Kelly Fisher,real_estate_agent,['real_estate'],TN,Nashville,37204.0,2701 8th Ave S,36.1189122,-86.7746545,meta,2025-06-02T07:00:00.000Z,0.8253968253968254,,,,,,,,nashville-davidson,False
ab86142f-804c-4998-8d2d-4c8ea63dac82,Emerson at Harding,landmark_and_historical_building,['accommodation'],TN,Nashville,37211.0,380 Harding Pl,36.0823083,-86.7131887,meta,2025-06-02T07:00:00.000Z,0.9784508333782836,7447fbe5-d88a-46d7-be1e-11084c0ac3b6,,residential,apartments,OpenStreetMap,2020-04-03T01:45:51.000Z,,nashville-davidson,False
309725fc-d37e-4c28-9925-79284707c75f,"Jenny Emerson, LMFT",counseling_and_mental_health,['health_and_medical'],TN,Nashville,37212.0,2021 21st Ave S,36.132359,-86.804263,meta,2025-06-02T07:00:00.000Z,0.2456896551724137,f3c3d630-abcf-45c1-9c20-9221b6cd568a,,,,OpenStreetMap,2022-06-26T17:05:21.000Z,,nashville-davidson,False
eca90d46-0554-4379-b8e8-5a438bd24407,The Fisher Center for the Performing Arts,theatre,['topic_concert_venue'],TN,Nashville,37212.0,2020 Belmont Blvd,36.1311252,-86.7951945,meta,2025-06-02T07:00:00.000Z,0.9784508333782836,ed83ab1e-168e-4b34-89f6-ac2cc00a89ad,,,,Esri Community Maps,2024-10-15T00:00:00.000Z,,nashville-davidson,False
763a424f-91d0-485c-9aac-3e369b6f9d07,Emerson Grace,womens_clothing_store,"['clothing_store', 'fashion_accessories_store']",TN,Nashville,37204.0,2304 12th Ave S,36.1271161,-86.7890349,meta,2025-06-02T07:00:00.000Z,0.9784508333782836,ffadc82f-eb91-48e0-a16a-132177a926aa,,commercial,commercial,OpenStreetMap,2021-02-07T03:31:41.000Z,,nashville-davidson,False
2d6a8ba6-6748-493d-bdbd-74378b74ea09,Emerson Hall,topic_concert_venue,"['event_planning', 'comedy_club']",TN,Nashville,37206.0,2512 Gallatin Ave,36.1960519,-86.7420079,meta,2025-06-02T07:00:00.000Z,0.9784508333782836,8830f392-0721-484d-962b-0edbe647bd5c,,,,OpenStreetMap,2025-01-21T17:05:38.000Z,,nashville-davidson,False
fda2ec2d-74aa-478c-bda7-2307529a5250,Fisher Travel,travel_services,"['travel_company', 'spas']",TN,Nashville,37216.0,1912 Berkshire Dr,36.196827,-86.715215,meta,2025-06-02T07:00:00.000Z,0.242152466367713,577fb925-123b-43d3-b6a2-47b816926bfa,,,,OpenStreetMap,2023-01-14T14:25:13.000Z,,nashville-davidson,False
49863061-4543-49d7-9ad6-71c0fff90104,Fisher Plumbing,plumbing,"['contractor', 'professional_services']",TN,Nashville,37013.0,5424 Bell Forge Ln E,36.0484802,-86.6453168,meta,2025-06-02T07:00:00.000Z,0.8540983606557377,84b89401-daca-4511-9ddf-e09dc1532f6b,,civic,post_office,OpenStreetMap,2019-08-05T15:55:34.000Z,,nashville-davidson,False
1b0b76f8-51ea-48df-9aaa-4bf368210bc5,The Emerson Cocktail Lounge,cocktail_bar,"['bar', 'lounge']",NV,Reno,89502.0,955 S Virginia St,39.5155503,-119.8081182,meta,2025-06-02T07:00:00.000Z,0.9879256218304756,,,,,,,,reno,False
5ad3464f-fece-474d-97c2-75f57db5ae4e,Brent Copeland,real_estate_agent,['professional_services'],NV,Reno,89502.0,1755 E Plumb Ln,39.5067015,-119.7793584,meta,2025-06-02T07:00:00.000Z,0.8253968253968254,20888493-4322-4870-8c2e-6eb9eb9e79ce,,commercial,office,OpenStreetMap,2024-11-07T23:18:26.000Z,,reno,False
56c72498-8f03-468c-9a19-0cebc7015756,Thermo Fisher Scientific,biotechnology_company,"['b2b_medical_support_services', 'business_to_business']",WI,Madison,53719.0,505 S Rosa Rd,43.057516,-89.4778457,Microsoft,2018-07-31T18:45:20.543Z,0.77,6c041dd8-2ce6-44bc-ac74-0d0c21ff9196,,,,OpenStreetMap,2015-02-15T03:09:02.000Z,,madison,False
03a06d27-5108-4422-8074-21bd2dccec29,Thermo Fisher Scientific,industrial_equipment,"['professional_services', 'health_and_medical']",WI,Fitchburg,53711.0,5225 Verona Rd,43.0223895,-89.4668104,meta,2025-06-02T07:00:00.000Z,0.9415384615384615,fb59bed7-b19d-42cf-a9da-e4fcab81f5f4,Thermo Fisher Scientific,commercial,commercial,OpenStreetMap,2021-05-21T15:55:24.000Z,,madison,False
fb917eb5-740c-46d1-95ad-1246e8d99eb8,Fisher Taft Apartments,landmark_and_historical_building,"['social_service_organizations', 'holiday_rental_home']",WI,Madison,53713.0,2110 Fisher St,43.043149,-89.392262,meta,2025-06-02T07:00:00.000Z,0.7548172757475083,4a1769dc-f316-457e-8723-47727a937e80,,residential,apartments,OpenStreetMap,2019-02-12T14:34:30.000Z,,madison,False
96272528-4b2e-456e-bf13-cd4b9800e426,The Emerson At Bay Creek,landmark_and_historical_building,['professional_services'],WI,Madison,53715.0,1121 S Park St,43.0544831,-89.3965332,meta,2025-06-02T07:00:00.000Z,0.9300613496932516,7098931b-09e7-41ea-8679-d987f539862f,The Emerson,residential,apartments,OpenStreetMap,2024-09-09T02:06:04.000Z,,madison,False
b85caf33-e926-4e7e-b5e8-0175878f861c,"Jennifer Fisher, PhD",psychologist,"['doctor', 'health_and_medical']",WI,Middleton,53562.0,2275 Deming Way Ste 180,43.0992425,-89.5184285,Microsoft,2025-05-05T13:34:45.400Z,0.77,0c61036d-c229-42de-876d-44ba32d41c23,,,,OpenStreetMap,2023-10-31T11:30:02.000Z,,madison,False
37a9460d-db66-41d3-b2ce-b0124f1c75ce,Fisher Apartments,landmark_and_historical_building,"['contractor', 'professional_services']",WI,Madison,53703.0,380 W Washington Ave,43.071848,-89.3891173,meta,2025-06-02T07:00:00.000Z,0.9415384615384615,2539df66-3ede-4bd8-b324-500b2a434aaa,,residential,apartments,OpenStreetMap,2024-08-18T14:11:59.000Z,,madison,False
16983c6b-aa74-4742-b742-822bee3d6b7b,Emerson Elementary School,elementary_school,"['education', 'public_school']",WI,Madison,53704.0,2421 E Johnson St,43.1006404,-89.3525102,meta,2025-06-02T07:00:00.000Z,0.9784508333782836,,,,,,,,madison,False
0599ad91-b047-4316-8999-7166b5ff2f03,St John Fisher Catholic Church,church_cathedral,['catholic_church'],TX,Richmond,77469.0,410 Clay St,29.5904797,-95.7651864,meta,2025-06-02T07:00:00.000Z,0.9784508333782836,ee995d8b-4aac-4391-af47-ba16bfcff518,,,,Microsoft ML Buildings,2023-09-01T00:00:00.000Z,0.9991999864578248,houston,False
45c5715a-e5e0-4aaa-9f64-cea8fbf6f5c8,Sybil J. Fisher,podiatrist,"['hospital', 'beauty_salon']",TX,Sugar Land,77479.0,145 Promenade Way,29.6102755,-95.6524519,meta,2025-06-02T07:00:00.000Z,0.9459263554653524,863dd6e3-7627-4e18-af57-f206079b9907,,,,OpenStreetMap,2024-12-20T22:29:11.000Z,,houston,False
3c69c741-a9f3-4d42-a37f-3948d9a47fd3,Thermo Fisher Scientific,biotechnology_company,"['b2b_medical_support_services', 'business_to_business']",TX,Houston,77084.0,16700 Park Row,29.7899008,-95.6729997,Microsoft,2018-07-31T18:45:20.543Z,0.77,d6c9ab0b-74ca-497a-86ec-1493bf270cd9,,,,OpenStreetMap,2018-07-21T05:48:00.000Z,,houston,False
ea154e73-af59-4067-aa48-85e93205260a,George Copeland and Associates,real_estate_agent,"['real_estate_service', 'real_estate']",TX,Houston,77095.0,16322 Summer Dawn Ln,29.8818611,-95.6558547,meta,2025-06-02T07:00:00.000Z,0.8540983606557377,741d2632-ebba-43e7-a160-325aa482bc04,,residential,house,OpenStreetMap,2017-09-01T16:25:22.000Z,,houston,False
4f5c9905-f40f-4303-8a5b-71867bc98526,Copeland Elementary School,elementary_school,"['public_school', 'school']",TX,Houston,77095.0,18018 Forest Heights Dr,29.8914279,-95.6823603,meta,2025-06-02T07:00:00.000Z,0.9784508333782836,59a5b2e5-93c1-4773-882e-439e4467ea2e,,,,OpenStreetMap,2017-11-27T03:31:47.000Z,,houston,False
73019906-b888-4065-9756-1b7a23be1028,"Mrs. Corinne Copeland, MSN, APRN FNP-C",doctor,"['nurse_practitioner', 'health_and_medical']",TX,Office or Telemedicine,77429.0,17920 Huffmeister Rd Ste 220,29.99748,-95.69512,Microsoft,2025-05-24T07:30:39.953Z,0.77,93d72353-6736-4505-a95a-737bb5a90d34,,,,OpenStreetMap,2024-05-28T15:08:04.000Z,,houston,False
778ffc27-5c7c-4fc8-b870-1d8b9de7558a,Emerson Park Apartment Homes,apartments,,TX,Webster,77598.0,1799 Fm 528 Rd,29.5241485,-95.1417991,Microsoft,2022-10-23T02:58:22.203Z,0.77,,,,,,,,houston,False
fcec210a-c696-40c0-ac0b-4ef4d1cf8bfa,Emerson Park Apartment Homes,apartments,,TX,Webster,77598.0,1799 Fm 528 Rd,29.522383,-95.141421,Microsoft,2020-12-18T21:44:35.887Z,0.77,7e880261-a52e-4cec-a162-8fc59dcd4be0,,,,Microsoft ML Buildings,2022-03-25T00:00:00.000Z,,houston,False
0585ddcc-1f98-4893-9e0a-a53988fff32f,Landmark at Emerson Park,accommodation,"['park', 'landmark_and_historical_building']",TX,Webster,77598.0,1799 FM 528 Rd,29.522926,-95.141227,meta,2025-06-02T07:00:00.000Z,0.5662921348314607,56e7fa8d-7094-4c08-a2d9-610110ace564,,,,Microsoft ML Buildings,2022-03-25T00:00:00.000Z,,houston,False
a691e42a-79c7-42ae-8975-863640d82311,Dr Fisher,doctor,"['podiatrist', 'health_and_medical']",TX,Sugar Land,77478.0,1327 Lake Pointe Pkwy,29.604894,-95.619985,meta,2025-06-02T07:00:00.000Z,0.242152466367713,a41d7dca-7896-4ef5-b5d4-708a465659aa,,medical,hospital,OpenStreetMap,2019-01-10T18:02:24.000Z,,houston,False
88b4f7d1-2b40-4d7b-96a8-aa787a9c0812,"Fisher Associates, P.E., L.S., L.A., D.P.C.",civil_engineers,['engineering_services'],TX,Sugar Land,77478.0,14090 Southwest Fwy Ste 103,29.6180704,-95.605197,Microsoft,2025-04-08T19:40:24.130Z,0.77,,,,,,,,houston,False
24523b65-9195-44f6-bbd4-287dfc239b93,Fisher Insurance Agency,insurance_agency,,TX,Missouri City,77459.0,3331 Cartwright Rd,29.5826144,-95.5557742,meta,2025-06-02T07:00:00.000Z,0.7548172757475083,,,,,,,,houston,False
437ff0a8-52bd-4578-ae29-2e95cc6b76e0,Emerson Magtech,professional_services,['property_management'],TX,Pearland,77584.0,3902 Magnolia Rd,29.5439739,-95.2840777,meta,2025-06-02T07:00:00.000Z,0.9459263554653524,5e1ceedb-1d75-4f41-bcfb-a0cfef2e8a5a,,,,Microsoft ML Buildings,2022-03-25T00:00:00.000Z,,houston,False
bc03237f-9e8d-411f-a4fc-3ffc7c4e2d33,Fisher House Friends of Houston,organization,,TX,Houston,77054.0,1333 Old Spanish Trl,29.694364,-95.41214,Microsoft,2024-12-20T21:11:39.180Z,0.77,e56b2ec0-46aa-45f1-9024-ad5dde5e3230,Domain at Kirby,residential,apartments,OpenStreetMap,2024-03-29T20:26:30.000Z,,houston,False
7cec85ef-b671-4fef-8ca5-2d30100eafcb,VA Fisher House,seafood_restaurant,"['health_and_medical', 'landmark_and_historical_building']",TX,Houston,77030.0,Veterans Hospital 5 Dr,29.7025633,-95.3882666,meta,2025-06-02T07:00:00.000Z,0.4929396662387676,1cb70ba5-0c70-4a61-8663-a07e9d8c7a92,,,,OpenStreetMap,2013-04-25T03:49:36.000Z,,houston,False
c166ca98-8efd-4e5c-a214-42bd111afae0,Fisher Control Valve,professional_services,"['industrial_equipment', 'event_photography']",TX,Houston,77075.0,9200 Telephone Rd,29.6316103,-95.2871443,meta,2025-06-02T07:00:00.000Z,0.9204819277108434,f0568c66-fc9e-4773-b23f-5bd20d182fbd,,,,OpenStreetMap,2025-02-20T00:02:16.000Z,,houston,False
1e7e3833-c731-4eb5-b946-23f75d7de26e,Emerson's Zedi Cloud SCADA Solutions,software_development,,TX,Houston,77072.0,6005 Rogerdale Rd,29.708994,-95.559048,Microsoft,2020-08-17T13:57:56.457Z,0.77,d54ae9a1-fe29-4e23-9737-46f5d6943ebb,,,,OpenStreetMap,2020-09-13T17:48:02.000Z,,houston,False
8c759d95-0d51-478c-8a70-6d941dca09ca,Emerson,automation_services,"['engineering_services', 'industrial_company']",TX,Houston,77072.0,6001 Rogerdale Rd,29.71073,-95.55901,meta,2025-06-02T07:00:00.000Z,0.9459263554653524,dc12ecd1-84d6-4ccb-84dc-205b79907b46,,,,OpenStreetMap,2020-09-13T17:48:02.000Z,,houston,False
de5ba564-0710-405d-a4d7-cb919f6a1606,Fisher Burns Realty Advisors,real_estate_agent,,TX,Houston,77063.0,3600 S Gessner Rd Ste 250,29.724718,-95.53999,Microsoft,2020-01-02T20:02:04.883Z,0.77,262f8a3a-2095-4081-848f-847fbb0f6e19,,,,OpenStreetMap,2022-11-01T05:50:18.000Z,,houston,False
12c0ddb0-d731-4772-9cdd-b6cf4ddbbd8f,Emerson Elementary School,elementary_school,"['education', 'school']",TX,Houston,77063.0,9533 Skyline Dr,29.7266077,-95.5343012,meta,2025-06-02T07:00:00.000Z,0.9784508333782836,84e8c1e1-53cc-4e22-9513-8c865fb8aec7,,,,OpenStreetMap,2021-07-15T07:35:16.000Z,,houston,False
9fd53efd-0ae3-4875-a93d-352cb4dd19de,David Fisher DDS,cosmetic_dentist,"['dentist', 'doctor']",TX,Bellaire,77401.0,4910 Bissonnet St,29.7090834,-95.4653234,meta,2025-06-02T07:00:00.000Z,0.9784508333782836,ff49a18e-9055-4091-83c8-0a762b4890be,,,,OpenStreetMap,2021-02-01T00:48:48.000Z,,houston,False
3e6226e9-27ee-43cb-9676-9147339bce67,Copeland Law Group,lawyer,"['legal_services', 'professional_services']",TX,Houston,77057.0,5718 Westheimer Rd,29.7385034,-95.4788875,meta,2025-06-02T07:00:00.000Z,0.9300613496932516,fcce06a1-387f-474b-8542-0f663c283031,,commercial,commercial,OpenStreetMap,2014-12-08T07:38:57.000Z,,houston,False
e39cd060-c638-44d5-aa40-8b4506576c93,Emerson Unitarian Universalist Church,church_cathedral,['religious_organization'],TX,Houston,77057.0,1900 Bering Dr,29.7467924,-95.47997,meta,2025-06-02T07:00:00.000Z,0.9879256218304756,af4136d8-6ac9-485e-abe4-e3979ae322a3,Emerson Unitarian Universalist Church,religious,,OpenStreetMap,2023-10-20T04:27:13.000Z,,houston,False
411944d1-4148-4462-9696-844a4db4ab56,Dr. Fisher,naturopathic_holistic,"['doctor', 'health_and_medical']",TX,Houston,77027.0,4544 Post Oak Place Dr,29.7505089,-95.4496125,meta,2025-06-02T07:00:00.000Z,0.9415384615384615,181cff01-0bb2-456c-b20a-02d991d8dd07,,commercial,commercial,OpenStreetMap,2019-09-16T04:04:57.000Z,,houston,False
d8e0bd24-f59d-4506-9dd4-186723efbec1,Emerson Sloan,toy_store,"['retail', 'flowers_and_gifts_shop']",TX,Houston,77057.0,1319 S Voss Rd,29.754309,-95.4998036,meta,2025-06-02T07:00:00.000Z,0.9784508333782836,282cc6b1-d84c-4324-90ef-ba1a11093cca,,,,OpenStreetMap,2015-08-29T00:51:26.000Z,,houston,False
379e1228-fa98-4b94-a299-25651ecea32f,Emerson Pines,landmark_and_historical_building,"['topic_concert_venue', 'retirement_home']",TX,Houston,77080.0,10100 Kempwood Dr,29.8237012,-95.542303,meta,2025-06-02T07:00:00.000Z,0.9784508333782836,,,,,,,,houston,False
1c6895f0-d371-440d-b823-b82b9d8f213b,Emerson Automation Solutions,event_planning,['business'],TX,Houston,77041.0,10707 Clay Rd,29.8314523,-95.5552986,meta,2025-06-02T07:00:00.000Z,0.9459263554653524,617d5a5e-fc0e-461a-8d06-74c0a5333812,,,,OpenStreetMap,2011-09-16T19:15:32.000Z,,houston,True
a1721a05-c9ef-4663-9095-11dacd8fd5e8,Emerson Process Management,event_planning,"['engineering_services', 'business_management_services']",TX,Houston,77041.0,5650 Brittmoore Rd,29.8490666,-95.5689708,meta,2025-06-02T07:00:00.000Z,0.9415384615384615,40d147d3-1ec9-4aa6-bdd6-707c13b46d65,,commercial,commercial,OpenStreetMap,2017-09-01T14:20:43.000Z,,houston,True
f17e8978-db09-4b4d-8228-a7f16bd2846e,Rosemount Analytical Gas Division,surgical_appliances_and_supplies,"['industrial_equipment', 'shopping']",TX,Houston,77040.0,10241 W Little York Rd,29.8680087,-95.5495068,meta,2025-06-02T07:00:00.000Z,0.9300613496932516,,,,,,,,houston,False
6d4c4e5e-85d8-4f09-850c-7eddc7fff141,Emerson Automotive,automotive,,TX,Houston,77092.0,6004 W 34th St,29.8196449,-95.4779184,Microsoft,2017-12-12T09:00:44.257Z,0.77,1f7a1106-f26e-48e5-80e0-c2aa89e57661,,,,OpenStreetMap,2021-07-24T04:56:15.000Z,,houston,False
e7fc73da-ae7d-4213-afaa-8e199e2a1ffe,Copeland International,automotive_repair,"['automotive_parts_and_accessories', 'industrial_equipment']",TX,Houston,77040.0,7200 Ertel Ln,29.8756174,-95.5343741,meta,2025-06-02T07:00:00.000Z,0.9784508333782836,,,,,,,,houston,False
6d5f27f3-3d91-40e4-9a1b-9e9c34eac348,Emerson Sloan,party_supply,"['flowers_and_gifts_shop', 'professional_services']",TX,Houston,77005.0,2438 Rice Blvd,29.7176214,-95.416528,meta,2025-06-02T07:00:00.000Z,0.9784508333782836,24465d9a-deea-4f60-a4e8-a766a15a8096,,,,OpenStreetMap,2021-08-10T18:38:35.000Z,,houston,False
c079a582-bd5a-4cc7-9465-718b5efd4fba,Emily Fisher,urologist,"['doctor', 'health_and_medical']",TX,Houston,77030.0,6560 Fannin St Ste 2100,29.7105545,-95.4003239,Microsoft,2023-04-21T01:42:03.170Z,0.77,,,,,,,,houston,False
499bc49e-4c9c-4e36-b8ed-d77d6373f750,Fibich Leebron Copeland & Briggs,personal_injury_law,,TX,Houston,77005.0,1150 Bissonnet St,29.7261255,-95.3934996,Microsoft,2025-01-11T07:41:51.167Z,0.77,,,,,,,,houston,False
4a08af02-b4c9-4b6c-84bc-ff5a974d9ca8,"Fibich, Leebron, Copeland & Briggs",personal_injury_law,['lawyer'],TX,Houston,77005.0,1150 Bissonnet St,29.7262624,-95.3935215,meta,2025-06-02T07:00:00.000Z,0.9879256218304756,d6feb63c-88bc-49c1-96fd-9ac998888e83,,residential,residential,OpenStreetMap,2018-09-29T19:27:57.000Z,,houston,False
f6dca41c-3381-456f-aaa5-af8e3c13a5fc,Emerson Rose Montrose,womens_clothing_store,"['boutique', 'clothing_store']",TX,Houston,77006.0,1637 Westheimer Rd,29.7427009,-95.4007875,meta,2025-06-02T07:00:00.000Z,0.9784508333782836,bff82383-d8ee-4e49-8a47-5506a41d940a,,,,OpenStreetMap,2025-01-31T04:09:30.000Z,,houston,False
b01d2f5b-4905-4376-9d53-021ef4bbb5d8,Sybil J. Fisher,podiatrist,"['doctor', 'hospital']",TX,Houston,77007.0,5151 Katy Fwy,29.7767043,-95.4132353,meta,2025-06-02T07:00:00.000Z,0.9784508333782836,2daca566-91a6-45b3-bce6-e63013d6f437,,,,OpenStreetMap,2021-08-31T01:39:46.000Z,,houston,False
bdcabbed-e772-4f8a-b234-b852b42bd045,Fisher Lane Building & Design,contractor,"['construction_services', 'professional_services']",TX,Houston,77007.0,3301 White Oak Dr,29.7814809,-95.3930542,meta,2025-06-02T07:00:00.000Z,0.909823677581864,341d826f-3741-466c-b437-6a0b20c0d860,,,,OpenStreetMap,2022-01-19T21:53:55.000Z,,houston,False
f8604222-e8ca-4f10-9c55-320a2faa38a8,Copeland Insurance Group,insurance_agency,['health_and_medical'],TX,Houston,77018.0,2180 North Loop W,29.8122956,-95.4387454,meta,2025-06-02T07:00:00.000Z,0.9784508333782836,5e840994-5d4c-4866-a362-1b21a62f378a,,commercial,office,OpenStreetMap,2022-08-18T05:57:07.000Z,,houston,False
0f4b2d5a-cd43-4aed-a531-b83cc391f6d9,Emerson Rose,womens_clothing_store,"['flowers_and_gifts_shop', 'boutique']",TX,Houston,77008.0,350 W 19th St,29.8027766,-95.4032906,meta,2025-06-02T07:00:00.000Z,0.9784508333782836,5b9a7a5d-07ef-4d4c-8f92-7acde0c52b8d,,commercial,retail,OpenStreetMap,2025-04-04T04:28:27.000Z,,houston,False
8e68d5e4-e031-471f-bfd0-58402c1d9110,Fisher Elementary School,elementary_school,"['education', 'public_school']",TX,Pasadena,77502.0,2920 Watters Rd,29.6673778,-95.1801601,meta,2025-06-02T07:00:00.000Z,0.9784508333782836,,,,,,,,houston,False
ac337f6e-2d79-4e0f-937f-0d9e43ae4f5d,Emerson Process Management,commercial_industrial,"['business_management_services', 'shopping']",TX,Pasadena,77505.0,5404 Spencer Hwy,29.6647325,-95.1579092,meta,2025-06-02T07:00:00.000Z,0.9459263554653524,2641dd32-0138-4b86-8cca-e7c420f2879a,,,,OpenStreetMap,2017-08-31T15:25:17.000Z,,houston,False
81e0672c-be66-440f-8b37-d552fc154ec5,Copeland Valve & Coating Technologies,industrial_company,['industrial_equipment'],TX,Pasadena,77507.0,9415 New Century Dr,29.6495386,-95.0911813,meta,2025-06-02T07:00:00.000Z,0.909823677581864,949fa6a8-f5bb-4690-ac26-c9491fecbd2c,,,,OpenStreetMap,2025-03-24T22:23:35.000Z,,houston,False
a59a677f-6883-4dd1-8b33-bfe37f0e54da,Emerson Valve Automation,professional_services,"['business_management_services', 'automation_services']",TX,Houston,77065.0,19200 Northwest Fwy,29.9080714,-95.6075306,meta,2025-06-02T07:00:00.000Z,0.5662921348314607,23bab057-3b21-4ca1-80ee-11212ef66054,,,,Microsoft ML Buildings,2022-03-25T00:00:00.000Z,,houston,False
22a7652f-aaa5-4e05-b809-6768ab7dc670,Emerson Process Management,automation_services,"['commercial_industrial', 'professional_services']",TX,Houston,77065.0,19200 Northwest Fwy,29.9081632,-95.6074411,meta,2025-06-02T07:00:00.000Z,0.9784508333782836,23bab057-3b21-4ca1-80ee-11212ef66054,,,,Microsoft ML Buildings,2022-03-25T00:00:00.000Z,,houston,False
42b359f7-14eb-4a9d-8c45-25342b30e049,Thermo Fisher Scientific,biotechnology_company,"['b2b_medical_support_services', 'business_to_business']",TX,Houston,77038.0,"11440 Compaq Center Drive W, Building 10",29.992035,-95.582853,Microsoft,2018-07-31T18:45:20.543Z,0.77,,,,,,,,houston,False
b1e8e7b5-cbb8-458a-88a8-8426a1d3477d,Thermo Fisher Scientific,hospital,"['surgical_appliances_and_supplies', 'laboratory_testing']",TX,Houston,77070.0,11450 Compaq Center West Dr,29.9937642,-95.5831069,meta,2025-06-02T07:00:00.000Z,0.909823677581864,b387df5b-1ffc-41a9-8273-ef7e463595ea,,,,OpenStreetMap,2018-10-09T21:08:38.000Z,,houston,False
24a5fce2-d8be-408b-ae24-c18cf2bf8ebf,The Salon by Nina Fisher,beauty_salon,"['beauty_and_spa', 'hair_removal']",TX,Houston,77069.0,6263 FM 1960 Rd W,29.9737533,-95.5232889,meta,2025-06-02T07:00:00.000Z,0.9300613496932516,,,,,,,,houston,False
f43f3891-d863-4ccc-8748-0113385a74b3,Fisher Ham & Meat Company,butcher_shop,"['food_beverage_service_distribution', 'health_food_store']",TX,Spring,77379.0,5023 Spring Cypress Rd,30.0474052,-95.4980479,meta,2025-06-02T07:00:00.000Z,0.9784508333782836,1ab124f6-38f0-461f-8c36-059b5f908923,,,,OpenStreetMap,2024-06-13T15:26:18.000Z,,houston,True
0a92e42a-f5c8-42d9-af83-ee3185502131,Fisher's Delicatessen,delicatessen,"['restaurant', 'grocery_store']",TX,Houston,77060.0,16800 Greenspoint Park Dr,29.9450411,-95.4023686,meta,2025-06-02T07:00:00.000Z,0.9415384615384615,ed644300-86a6-4c2e-bd55-5b6fa765cbb4,,,,OpenStreetMap,2020-10-04T22:26:47.000Z,,houston,False
85089241-6eb7-4f66-a98b-e6ad77bc5d39,Sallie Fisher's Art Gallery & Custom Framing,art_gallery,"['shopping', 'arts_and_entertainment']",TX,Tomball,77375.0,914 W Main St,30.0942313,-95.6249014,meta,2025-06-02T07:00:00.000Z,0.9784508333782836,f9393a29-5999-4212-99fd-96fe11383207,,,,OpenStreetMap,2024-11-12T04:39:29.000Z,,houston,False
29ef7169-406d-4e7e-b970-591e11bad805,"Emerson Custom Homes, Ltd",contractor,"['carpenter', 'advertising_agency']",TX,Magnolia,77354.0,6606 FM 1488 Rd,30.22264,-95.56626,meta,2025-06-02T07:00:00.000Z,0.242152466367713,5a9398b2-6e5a-41d5-98dd-ca34da42512f,,,,OpenStreetMap,2021-12-15T23:24:59.000Z,,houston,False
688cc91e-9490-4ad3-910d-42af0c0e3a97,Fisher CPA Firm PC,trusts,"['financial_service', 'professional_services']",TX,Spring,77380.0,2002 Timberloch Pl,30.15858,-95.46737,meta,2025-06-02T07:00:00.000Z,0.3376623376623376,6af3cdbd-e786-4dce-9d3e-8afbe6b75d10,,,,OpenStreetMap,2011-09-27T15:16:27.000Z,,houston,False
6f1c54fc-72b3-4a81-b47f-cd109a74d95b,Michelle Fisher Realtor,real_estate_agent,"['real_estate_service', 'real_estate']",TX,Spring,77380.0,26403 Oak Ridge Dr,30.1448263,-95.4490862,meta,2025-06-02T07:00:00.000Z,0.909823677581864,,,,,,,,houston,False
1e84969b-5ba4-454f-9882-d5f6de0862cd,Copeland Intermediate School,elementary_school,"['middle_school', 'school']",TX,Huffman,77336.0,24405 E Lake Houston Pkwy,30.0248229,-95.1127461,meta,2025-06-02T07:00:00.000Z,0.9204819277108434,1276489d-8f83-4657-a908-0407244cda8e,Huffman Intermediate School,education,school,OpenStreetMap,2024-05-20T22:03:02.000Z,,houston,False
40837b11-9f2c-4a1a-93b4-ba4c41d17669,Copeland Elementary School,elementary_school,"['school', 'public_school']",TX,Huffman,77336.0,24403 E Lake Houston Pkwy,30.0246657,-95.1120943,meta,2025-06-02T07:00:00.000Z,0.9784508333782836,0cddc318-be14-4634-b587-29cc8a8b1309,Copeland Elementary School,education,school,OpenStreetMap,2024-05-20T22:20:59.000Z,,houston,False
ebafde94-1980-4976-9f88-67fc037918e8,Thermo Fisher Scientific,biotechnology_company,"['chemical_plant', 'freight_and_cargo_service']",NJ,Bridgewater,8807.0,755 US-202,40.5719512,-74.662036,meta,2025-06-02T07:00:00.000Z,0.9415384615384615,4c47abbd-551f-420a-bbfe-ce895ce86b5b,Thermo Fisher Scientific,industrial,industrial,OpenStreetMap,2020-12-20T00:00:48.000Z,,new-york,False
c5b5dd61-16e8-4d32-b1d6-7d2ae582ef17,Jarret Fisher carpentry,construction_services,"['windows_installation', 'roofing']",NJ,Raritan,8869.0,10 3rd St,40.5699658,-74.6369057,meta,2025-06-02T07:00:00.000Z,0.8831168831168831,291e05bc-fbda-4aca-a0fd-cd3d4b98c859,Crossings at Raritan,residential,apartments,OpenStreetMap,2021-11-20T14:27:36.000Z,,new-york,False
abae4209-a490-497b-bf9c-638f1f600244,Norman Ray Fisher Electric,electrician,"['electric_utility_provider', 'appliance_repair_service']",NJ,Franklin Twp,8873.0,373 Elizabeth Ave,40.5403331,-74.5355515,meta,2025-06-02T07:00:00.000Z,0.909823677581864,,,,,,,,new-york,False
d359f7ab-334c-437c-979a-a340d2ac4af6,"Savo, Schalk, Corsini, Warner, Gillespie, O'Grodnick and Fisher",wills_trusts_and_probate,"['lawyer', 'criminal_defense_law']",NJ,Somerville,8876.0,56 E Main St,40.567169,-74.6095222,meta,2025-06-02T07:00:00.000Z,0.9784508333782836,,,,,,,,new-york,False
5494a42d-f240-4620-93c0-cf5244ac4db5,Fisher Automotive,automotive_repair,"['professional_services', 'automotive']",NJ,Bound Brook,8805.0,506 E Main St,40.5748909,-74.553367,meta,2025-06-02T07:00:00.000Z,0.9784508333782836,,,,,,,,new-york,False
4a63fdb6-3671-4673-988d-d6d2f5637b64,Brian Fisher: Allstate Insurance,insurance_agency,['financial_service'],NJ,Matawan,7747.0,1016 State Route 34,40.4031065,-74.2313255,meta,2025-06-02T07:00:00.000Z,0.9784508333782836,e2aea7c4-cd63-4973-ae8e-b6efeaf526c6,The Shoppes at Matawan,commercial,commercial,OpenStreetMap,2024-11-22T09:42:48.000Z,,new-york,False
b8b959c8-ade9-41b6-86ef-813bb4068c14,Fisher Price IV Sportfishing,boat_service_and_repair,"['active_life', 'hunting_and_fishing_supplies']",NJ,Highlands,7732.0,52 Shrewsbury Ave,40.4016499,-73.98313,meta,2025-06-02T07:00:00.000Z,0.3376623376623376,,,,,,,,new-york,False
d0c70b33-e023-48ca-8bc4-6e3a12f86dff,Fisher Roofing LLC,roofing,"['gutter_service', 'ceiling_and_roofing_repair_and_service']",NJ,Somerset,8873.0,17 Bartle Rd,40.4902091,-74.5024408,Microsoft,2018-04-24T19:32:16.170Z,0.77,,,,,,,,new-york,False
a94a4317-727b-433b-a37f-33b587884cbd,Emerson Gutters LLC,gutter_service,"['home_improvement_store', 'professional_services']",NJ,North Brunswick,8902.0,785 Nassau St,40.4739906,-74.4533164,meta,2025-06-02T07:00:00.000Z,0.8831168831168831,38709144-d120-434f-955f-f4cbbd39b4fd,,,,Microsoft ML Buildings,2022-10-16T00:00:00.000Z,,new-york,False
8a604a0f-dcdb-44e9-9a6a-3dbb10b51dee,"Sam Fisher, CPA",accountant,,NJ,New Brunswick,8901.0,100 Bayard St Ste 311,40.49356,-74.44731,Microsoft,2018-07-18T14:34:56.253Z,0.77,f636aa82-6d6e-431f-844a-2f96d128e5d5,,,,OpenStreetMap,2019-05-05T18:48:36.000Z,,new-york,False
9d1b8600-e7ae-4e0a-9a4b-094e2e1c10f5,Samuel S. Fisher CPA,accountant,"['financial_service', 'trusts']",NJ,New Brunswick,8901.0,100 Bayard St,40.4937297,-74.4473388,meta,2025-06-02T07:00:00.000Z,0.9415384615384615,f636aa82-6d6e-431f-844a-2f96d128e5d5,,,,OpenStreetMap,2019-05-05T18:48:36.000Z,,new-york,False
c0a5bd9a-b24d-466b-a333-aeabd84986db,Thermo Fisher Scientific,biotechnology_company,"['b2b_medical_support_services', 'corporate_office', 'business_to_business', 'private_establishments_and_corporates']",NJ,Somerset,8873.0,265 Davidson Ave 1st Fl-101,40.5338124,-74.5272717,Microsoft,2018-07-31T18:45:20.543Z,0.77,,,,,,,,new-york,True
b602780b-c8e1-4a79-a38d-c799ac07552b,Sayre And Fisher Reading Room,landmark_and_historical_building,"['library', 'fountain']",,,8872.0,Main St,40.471257,-74.355028,meta,2025-06-02T07:00:00.000Z,0.3961437335670464,8bf0616b-70b4-48dc-a3aa-6eec42ddcad8,,residential,house,OpenStreetMap,2023-12-09T19:08:51.000Z,,new-york,False
b602780b-c8e1-4a79-a38d-c799ac07552b,Sayre And Fisher Reading Room,landmark_and_historical_building,"['library', 'fountain']",,,8872.0,Main St,40.471257,-74.355028,meta,2025-06-02T07:00:00.000Z,0.3961437335670464,c0b267b2-8e50-4230-92d2-bf9a028d43f9,Tap and Growler Bar & Grill,commercial,,OpenStreetMap,2023-12-09T19:08:51.000Z,,new-york,False
bd756773-5151-41b1-928a-b08bc7f2108e,Fisher Fence Co. Inc.,fence_and_gate_sales_service,,NY,Staten Island,10309.0,440 Sharrotts Rd,40.5376842,-74.2332102,Microsoft,2025-04-10T10:21:21.800Z,0.77,,,,,,,,new-york,False
32269250-df42-4fe2-914a-811763680143,Emerson Theatre Group Plainfield N.J,theatre,['arts_and_entertainment'],NJ,Plainfield,7062.0,"Emerson Elementary School, 305 Emerson Ave",40.6343184,-74.4064213,meta,2025-06-02T07:00:00.000Z,0.296943231441048,,,,,,,,new-york,False
ad0ecb58-fd98-4f3c-a7c1-7cf319eba631,Emerson Community School,elementary_school,"['public_school', 'school']",NJ,Plainfield,7062.0,305 Emerson Ave,40.63447,-74.4053737,meta,2025-06-02T07:00:00.000Z,0.9784508333782836,e2157a27-f309-422f-aeab-a2da035fab66,,,,Microsoft ML Buildings,2022-10-16T00:00:00.000Z,,new-york,False
bdd43e78-ff31-49b5-bb38-f48e95641b5f,Eileen Fisher,womens_clothing_store,"['designer_clothing', 'clothing_store', 'retail']",NJ,Westfield,7090.0,9 Elm St,40.6504328,-74.3481583,Microsoft,2016-09-01T21:20:51.390Z,0.77,028a4708-4c3e-41fa-a8cd-adb550cfde11,,commercial,commercial,OpenStreetMap,2020-11-12T15:00:54.000Z,,new-york,False
ffed4a97-031e-4bca-be32-67ade892acb3,Olando Fisher/Sales Associate,real_estate_agent,,NJ,Westfield,7090.0,137 Elmer St,40.6524039,-74.3453266,meta,2025-06-02T07:00:00.000Z,0.3376623376623376,0c12374f-ba9d-45d5-8e28-7f6a89f693d4,,,,OpenStreetMap,2022-06-11T00:56:25.000Z,,new-york,False
b3ab0150-3ea0-467b-ae21-64aec9a2914a,Rosemount Memorial Park,public_service_and_government,"['funeral_services_and_cemeteries', 'social_service_organizations']",NJ,Elizabeth,7201.0,1109 Neck Ln,40.6863184,-74.196184,meta,2025-06-02T07:00:00.000Z,0.9784508333782836,,,,,,,,new-york,False
e293a0b0-4335-4090-8a6b-38c236087f6c,Fisher Radio,professional_services,"['event_photography', 'audio_visual_equipment_store']",NY,New York,10308.0,27 Daleham St,40.5649136,-74.1524602,meta,2025-06-02T07:00:00.000Z,0.909823677581864,,,,,,,,new-york,False
a6676ac0-19d0-45dd-9c7e-0051028bfd54,Fisher Stone,lawyer,"['personal_injury_law', 'legal_services']",NY,New York,10306.0,360 New Dorp Ln,40.5708611,-74.1106148,meta,2025-06-02T07:00:00.000Z,0.9297091412742382,e842573b-6534-404f-b01c-f339b5de6f4a,,commercial,retail,OpenStreetMap,2022-11-17T00:12:06.000Z,,new-york,False
cf740907-2592-4048-b613-5fdfe33ea3ef,Emerson Medical,hospital,"['doctor', 'internal_medicine']",NY,New York,10304.0,11 Ralph Pl,40.6052167,-74.0916631,meta,2025-06-02T07:00:00.000Z,0.909823677581864,5610a82a-2dd9-4053-9094-7385d403c791,,,,OpenStreetMap,2013-11-22T13:44:28.000Z,,new-york,False
71d760e5-3734-49f4-a047-ca5fade3ee32,Dr MARTIN FISHER,pediatrician,"['doctor', 'health_and_medical']",NY,Brooklyn,11214.0,8622 Bay Pkwy,40.601649,-73.99456,Microsoft,2023-10-17T23:07:44.483Z,0.77,77b1f961-0520-482b-a643-97e5cfb3b3b7,,commercial,office,OpenStreetMap,2022-11-27T22:32:16.000Z,,new-york,False
12b0c6a2-9566-410d-844f-406801b080d3,Martin M. Fisher MD,pediatrician,"['doctor', 'professional_services']",NY,New York,11214.0,8622 Bay Pkwy,40.6015737,-73.9944052,meta,2025-06-02T07:00:00.000Z,0.909823677581864,77b1f961-0520-482b-a643-97e5cfb3b3b7,,commercial,office,OpenStreetMap,2022-11-27T22:32:16.000Z,,new-york,False
d220e013-a425-4c34-b4e0-e4566b8f45c2,Fisher Stone,lawyer,"['legal_services', 'professional_services']",NY,New York,10004.0,42 Broadway,40.70604,-74.0128392,meta,2025-06-02T07:00:00.000Z,0.9300613496932516,7dc68d0d-5ba0-42b4-a323-9dcb103f3908,Empire Trust Building,,,OpenStreetMap,2024-11-22T09:39:47.000Z,,new-york,False
b7fe6997-e18a-41e2-baf8-1bbbbdd21401,Fisher Taubenfeld LLP,employment_law,"['lawyer', 'legal_services']",NY,New York,10007.0,225 Broadway,40.7118716,-74.0083823,meta,2025-06-02T07:00:00.000Z,0.8980891719745223,7dc65ebf-6239-4260-bc93-8357539027e8,Transportation Building,,,OpenStreetMap,2020-07-14T04:43:42.000Z,,new-york,False
6c6f926f-0908-4fbe-b899-2fd54153b215,"Queller, Fisher, Washor, Fuchs & Kool",personal_injury_law,"['lawyer', 'legal_services']",NY,New York,10279.0,233 Broadway,40.7123287,-74.0084067,meta,2025-06-02T07:00:00.000Z,0.9459263554653524,a8c95904-bfb7-4e8e-875c-b3d9d2a93d84,Woolworth Building,entertainment,,OpenStreetMap,2024-03-24T19:38:09.000Z,,new-york,False
662bb13c-96c1-4f9a-801f-76cebb6bb174,The Law Office of Laura M Fisher,real_estate_law,"['lawyer', 'professional_services']",NJ,Jersey City,7302.0,201 Montgomery St,40.717372,-74.0436785,meta,2025-06-02T07:00:00.000Z,0.9300613496932516,fe7945e9-498d-4987-aa3a-35c9073654ce,Charles & Co.,residential,apartments,OpenStreetMap,2024-03-18T21:00:49.000Z,,new-york,True
d70ec330-1d22-4d82-8ef0-c5599acb717b,Eileen Fisher,womens_clothing_store,"['fashion_accessories_store', 'clothing_store', 'retail']",NJ,Secaucus,7094.0,45A Enterprise Ave N,40.779362,-74.0713837,Microsoft,2025-05-02T22:40:02.860Z,0.77,,,,,,,,new-york,False
0305884f-486e-4cb1-ad64-ee40f8998fe8,Eileen Fisher,clothing_store,"['womens_clothing_store', 'shopping']",NJ,Secaucus,7094.0,45 Enterprise Ave N,40.7809956,-74.071026,meta,2025-06-02T07:00:00.000Z,0.9784508333782836,caa4b392-e2b7-403c-8320-f9156d2003f0,Eileen Fisher Boutique,,,OpenStreetMap,2023-06-21T15:17:24.000Z,,new-york,False
609c4146-62c2-45a7-9217-21d27932a16d,Emerson Middle School,middle_school,"['school', 'high_school']",NJ,Union City,7087.0,318 18th St,40.7629644,-74.0331558,meta,2025-06-02T07:00:00.000Z,0.9784508333782836,dcc94805-7876-475d-98e6-e720d4f0d77d,,education,school,OpenStreetMap,2019-11-08T01:11:43.000Z,,new-york,False
92f6979a-2e2d-4571-b886-9b54bf81d1ac,Joan Emerson,counseling_and_mental_health,"['psychologist', 'professional_services']",NY,New York,11215.0,496 7th St,40.6675299,-73.9795656,meta,2025-06-02T07:00:00.000Z,0.8540983606557377,da9daee8-2608-4b6f-aaca-b6fc9cae8029,,,,OpenStreetMap,2024-01-08T15:36:15.000Z,,new-york,False
92f6979a-2e2d-4571-b886-9b54bf81d1ac,Joan Emerson,counseling_and_mental_health,"['psychologist', 'professional_services']",NY,New York,11215.0,496 7th St,40.6675299,-73.9795656,meta,2025-06-02T07:00:00.000Z,0.8540983606557377,e4260054-6b60-4391-8bd8-f5d7bfb2dcdb,,,,OpenStreetMap,2024-01-08T15:36:15.000Z,,new-york,False
388026ab-5e61-4519-ae63-691a6b06c93d,Eileen Fisher,clothing_store,"['womens_clothing_store', 'shopping']",NY,New York,11201.0,47 Bergen St,40.6872454,-73.9912882,meta,2025-06-02T07:00:00.000Z,0.9784508333782836,8c833108-e367-461d-8015-3cf76956cf59,,,,OpenStreetMap,2013-11-08T18:26:54.000Z,,new-york,False
388026ab-5e61-4519-ae63-691a6b06c93d,Eileen Fisher,clothing_store,"['womens_clothing_store', 'shopping']",NY,New York,11201.0,47 Bergen St,40.6872454,-73.9912882,meta,2025-06-02T07:00:00.000Z,0.9784508333782836,dffd16cd-3055-4a1c-9fd8-2513f9edfa4a,,,,OpenStreetMap,2013-11-08T18:26:53.000Z,,new-york,False
d63c0ef2-2159-4c89-a398-d7ad562446ce,Emerson Atkins Realty,real_estate,['real_estate_agent'],NY,New York,11238.0,459 Vanderbilt Ave,40.684606,-73.967904,meta,2025-06-02T07:00:00.000Z,0.4929396662387676,90883418-3226-4e01-857b-4386b0c101aa,,,,OpenStreetMap,2023-09-06T02:51:59.000Z,,new-york,False
d63c0ef2-2159-4c89-a398-d7ad562446ce,Emerson Atkins Realty,real_estate,['real_estate_agent'],NY,New York,11238.0,459 Vanderbilt Ave,40.684606,-73.967904,meta,2025-06-02T07:00:00.000Z,0.4929396662387676,ce6700a9-f46f-42e2-bc73-894aa79a4a5d,,,,OpenStreetMap,2023-09-06T02:51:59.000Z,,new-york,False
d63c0ef2-2159-4c89-a398-d7ad562446ce,Emerson Atkins Realty,real_estate,['real_estate_agent'],NY,New York,11238.0,459 Vanderbilt Ave,40.684606,-73.967904,meta,2025-06-02T07:00:00.000Z,0.4929396662387676,ee7f254c-667c-4f71-be53-6c57995bbcdd,,,,OpenStreetMap,2023-09-06T02:51:59.000Z,,new-york,False
702fb2b8-c7bd-470e-aa8a-98a2966d4fa7,"Fisher Law Practice, P.C.",lawyer,"['divorce_and_family_law', 'personal_injury_law']",NY,Brooklyn,11201.0,195 Montague St,40.69412,-73.99139,meta,2025-06-02T07:00:00.000Z,0.3961437335670464,8da5f692-f274-4ec5-837a-9b92c367021d,,,,OpenStreetMap,2021-12-15T18:38:29.000Z,,new-york,False
106ca31c-6e76-4394-98e9-e3b2d4a22ca5,The Emerson,pub,"['bar', 'lounge']",NY,New York,11205.0,561 Myrtle Ave,40.6940402,-73.9618097,meta,2025-06-02T07:00:00.000Z,0.9784508333782836,ca6ca211-e4a2-40cb-accf-0f69f502f964,,,,OpenStreetMap,2013-12-06T16:09:06.000Z,,new-york,False
106ca31c-6e76-4394-98e9-e3b2d4a22ca5,The Emerson,pub,"['bar', 'lounge']",NY,New York,11205.0,561 Myrtle Ave,40.6940402,-73.9618097,meta,2025-06-02T07:00:00.000Z,0.9784508333782836,b831d215-6770-4f05-b016-9103df0d1cf9,,,,OpenStreetMap,2013-12-06T16:09:06.000Z,,new-york,False
106ca31c-6e76-4394-98e9-e3b2d4a22ca5,The Emerson,pub,"['bar', 'lounge']",NY,New York,11205.0,561 Myrtle Ave,40.6940402,-73.9618097,meta,2025-06-02T07:00:00.000Z,0.9784508333782836,7dbee5af-625d-4ac1-8217-90c7805042c8,,,,OpenStreetMap,2013-12-06T16:09:06.000Z,,new-york,False
6187599a-00a0-43c9-b055-409800a4c856,Emerson Recycling,recycling_center,"['professional_services', 'garbage_collection_service']",NY,New York,11205.0,65 Emerson Pl,40.6957949,-73.9624484,meta,2025-06-02T07:00:00.000Z,0.8860580325548478,f3f1d3df-9e79-4511-8e23-a8c40d31d8c7,,,,OpenStreetMap,2014-01-30T06:50:15.000Z,,new-york,False
56a99460-363f-4d5f-bfc9-ac640d76b0a1,Eileen Fisher,womens_clothing_store,"['clothing_store', 'shopping']",NY,New York,10012.0,395 W Broadway,40.7241689,-74.001991,meta,2025-06-02T07:00:00.000Z,0.9784508333782836,d464c6a4-0077-4de6-bc7c-0288e2bb19f8,,,,OpenStreetMap,2018-12-21T20:05:22.000Z,,new-york,False
fb839e78-2eca-473e-a571-47ef1f0268fa,Jennifer Fisher Jewelry,jewelry_store,['clothing_store'],NY,New York,10012.0,400 W Broadway,40.7243624,-74.0022483,meta,2025-06-02T07:00:00.000Z,0.9784508333782836,26b0091e-4e26-489c-966a-cd849f319d26,,,,OpenStreetMap,2014-04-28T13:38:50.000Z,,new-york,False
fb839e78-2eca-473e-a571-47ef1f0268fa,Jennifer Fisher Jewelry,jewelry_store,['clothing_store'],NY,New York,10012.0,400 W Broadway,40.7243624,-74.0022483,meta,2025-06-02T07:00:00.000Z,0.9784508333782836,4f2aa16e-144d-4f34-96e6-62a98ae5a665,,,,OpenStreetMap,2014-04-28T13:38:49.000Z,,new-york,False
fe63dab0-025c-4996-a072-3d1570c9c5a9,Nyu Bobst Avery Fisher Center,library,['public_service_and_government'],NY,New York,10012.0,70 Washington Sq S,40.7294229,-73.9972145,meta,2025-06-02T07:00:00.000Z,0.7548172757475083,05a75c73-2627-4123-91ce-b7ea7bd4c76c,Elmer Holmes Bobst Library,education,library,OpenStreetMap,2022-03-07T22:21:54.000Z,,new-york,False
98d76fca-ab7d-4510-920f-6a604571635a,Eileen Fisher,t_shirt_store,"['designer_clothing', 'clothing_store', 'retail']",NY,New York,10003.0,314 E 9th St,40.728687,-73.986616,Microsoft,2022-03-23T08:58:13.933Z,0.77,c0dc0cff-a13f-407a-9951-31657e4f342f,,residential,apartments,OpenStreetMap,2022-12-19T03:14:31.000Z,,new-york,False
98d76fca-ab7d-4510-920f-6a604571635a,Eileen Fisher,t_shirt_store,"['designer_clothing', 'clothing_store', 'retail']",NY,New York,10003.0,314 E 9th St,40.728687,-73.986616,Microsoft,2022-03-23T08:58:13.933Z,0.77,62897d94-11db-4659-828e-024a8466d27a,,residential,apartments,OpenStreetMap,2022-12-19T03:14:31.000Z,,new-york,False
98d76fca-ab7d-4510-920f-6a604571635a,Eileen Fisher,t_shirt_store,"['designer_clothing', 'clothing_store', 'retail']",NY,New York,10003.0,314 E 9th St,40.728687,-73.986616,Microsoft,2022-03-23T08:58:13.933Z,0.77,a79d3630-b201-4299-a9b3-5b6d4c5fda6c,,residential,apartments,OpenStreetMap,2022-12-19T03:14:31.000Z,,new-york,False
a4951995-1149-404b-bae9-f4028ec1038a,Eileen Fisher,womens_clothing_store,"['fashion_accessories_store', 'clothing_store', 'retail']",NJ,Secaucus,7094.0,45A Enterprise Ave N,40.733314,-73.988615,Microsoft,2025-05-01T18:11:31.973Z,0.77,0a66e52d-b4de-43a5-83ba-8b236191e539,Palladium Hall,residential,dormitory,OpenStreetMap,2024-04-02T22:06:00.000Z,,new-york,False
a4951995-1149-404b-bae9-f4028ec1038a,Eileen Fisher,womens_clothing_store,"['fashion_accessories_store', 'clothing_store', 'retail']",NJ,Secaucus,7094.0,45A Enterprise Ave N,40.733314,-73.988615,Microsoft,2025-05-01T18:11:31.973Z,0.77,c75a1d0e-2dcb-4e3f-b8cc-b79c8a6ce70b,,residential,apartments,OpenStreetMap,2024-04-02T22:06:00.000Z,,new-york,False
f9b28ff8-47ca-4f88-bed0-359bcc65537f,Fisher Stone PC,lawyer,"['personal_injury_law', 'legal_services']",NY,New York,11221.0,88 Suydam St,40.69747,-73.9295442,meta,2025-06-02T07:00:00.000Z,0.9459263554653524,d1b16bef-9584-4e39-8bb3-775ee9ec2d05,,,,OpenStreetMap,2013-12-06T19:18:00.000Z,,new-york,False
f9b28ff8-47ca-4f88-bed0-359bcc65537f,Fisher Stone PC,lawyer,"['personal_injury_law', 'legal_services']",NY,New York,11221.0,88 Suydam St,40.69747,-73.9295442,meta,2025-06-02T07:00:00.000Z,0.9459263554653524,c9fbdbe4-0e4f-44e1-9229-3eafb5c032e4,,,,OpenStreetMap,2013-12-06T19:17:40.000Z,,new-york,False
8e605568-42e5-43d3-b370-d830ff3c499a,"Fisher Dachs Associates, Theatre Planning and Design",professional_services,"['lighting_store', 'architectural_designer']",NY,New York,10011.0,22 W 19th St,40.7396186,-73.9927097,meta,2025-06-02T07:00:00.000Z,0.9459263554653524,,,,,,,,new-york,False
a776367f-766d-4308-980f-b6b244036e4f,Clare Fisher Photography LLC,professional_services,"['event_photography', 'advertising_agency']",NY,New York,10011.0,20 W 20th St,40.7398577,-73.9925938,meta,2025-06-02T07:00:00.000Z,0.9204819277108434,3dafb6d2-4776-4b5a-b943-67cdcb99081d,,,,OpenStreetMap,2014-03-05T21:01:11.000Z,,new-york,False
a776367f-766d-4308-980f-b6b244036e4f,Clare Fisher Photography LLC,professional_services,"['event_photography', 'advertising_agency']",NY,New York,10011.0,20 W 20th St,40.7398577,-73.9925938,meta,2025-06-02T07:00:00.000Z,0.9204819277108434,055d8019-fb91-47e3-9bf0-08f4fe997202,,,,OpenStreetMap,2014-03-05T21:01:12.000Z,,new-york,False
a776367f-766d-4308-980f-b6b244036e4f,Clare Fisher Photography LLC,professional_services,"['event_photography', 'advertising_agency']",NY,New York,10011.0,20 W 20th St,40.7398577,-73.9925938,meta,2025-06-02T07:00:00.000Z,0.9204819277108434,ce7e361d-61f6-4c6c-940e-07b2328deed8,,,,OpenStreetMap,2014-03-05T21:01:21.000Z,,new-york,False
c8bad246-6811-478f-bd76-12d378d27897,Eileen Fisher,clothing_store,['shopping'],NY,New York,10003.0,111 5th Ave,40.738709,-73.991446,meta,2025-06-02T07:00:00.000Z,0.4929396662387676,5a65ee6e-55b5-40fe-b1b8-9cfbabc3ab50,,,,OpenStreetMap,2013-11-28T04:00:33.000Z,,new-york,False
820ac9b5-fc93-479c-9803-dfafcbd443d8,Eileen Fisher,clothing_store,"['womens_clothing_store', 'shopping']",NY,New York,10010.0,166 5th Ave,40.7406669,-73.9904516,meta,2025-06-02T07:00:00.000Z,0.9784508333782836,0230c379-a913-47f2-9b9c-99f9f660235d,,,,OpenStreetMap,2022-02-27T19:53:51.000Z,,new-york,False
820ac9b5-fc93-479c-9803-dfafcbd443d8,Eileen Fisher,clothing_store,"['womens_clothing_store', 'shopping']",NY,New York,10010.0,166 5th Ave,40.7406669,-73.9904516,meta,2025-06-02T07:00:00.000Z,0.9784508333782836,8e23c577-dbc4-4fa3-a8a1-1860713d6f77,,,,OpenStreetMap,2019-06-30T18:08:28.000Z,,new-york,False
488c6bbb-98d7-4362-b029-120bea8be8eb,Nicolette M Emerson,massage_therapy,"['massage', 'hospital']",NY,New York,10001.0,150 W 28th St,40.7468422,-73.9927857,meta,2025-06-02T07:00:00.000Z,0.9204819277108434,529518af-d736-42f5-99c2-8bc92e795a3c,,,,OpenStreetMap,2020-07-28T19:15:35.000Z,,new-york,False
476cd9e9-fb61-4be0-adfb-ba5b35ab5875,Fisher Center,college_university,"['campus_building', 'education']",NY,New York,10016.0,136 Madison Ave,40.7461562,-73.9846373,meta,2025-06-02T07:00:00.000Z,0.9784508333782836,921e7f01-de89-4f1c-a525-ac1c0a7f5597,,,,OpenStreetMap,2014-03-08T13:13:56.000Z,,new-york,False
a1c5da10-9cec-448d-bbcf-38090dffe1eb,The Emerson,landmark_and_historical_building,"['real_estate', 'social_service_organizations']",NY,New York,10001.0,500 W 25th St,40.7490788,-74.003749,meta,2025-06-02T07:00:00.000Z,0.9459263554653524,dc3a852e-ddb6-4626-99f3-7741cfd4f4a5,,,,OpenStreetMap,2014-03-05T21:59:11.000Z,,new-york,False
50917738-4bcd-4a48-b1ea-79992668d922,Mark Fisher Fitness,gym,"['sports_and_recreation_venue', 'health_and_medical']",NY,New York,10018.0,411 W 39th St,40.7570029,-73.9945474,meta,2025-06-02T07:00:00.000Z,0.9784508333782836,866e8739-64ec-4cb7-b16c-499f69ca0cd0,,,,OpenStreetMap,2014-03-09T19:46:19.000Z,,new-york,False
50917738-4bcd-4a48-b1ea-79992668d922,Mark Fisher Fitness,gym,"['sports_and_recreation_venue', 'health_and_medical']",NY,New York,10018.0,411 W 39th St,40.7570029,-73.9945474,meta,2025-06-02T07:00:00.000Z,0.9784508333782836,95ab28f1-7d55-46b5-8c3e-bbbbac5661bd,,,,OpenStreetMap,2014-03-09T19:46:19.000Z,,new-york,False
50917738-4bcd-4a48-b1ea-79992668d922,Mark Fisher Fitness,gym,"['sports_and_recreation_venue', 'health_and_medical']",NY,New York,10018.0,411 W 39th St,40.7570029,-73.9945474,meta,2025-06-02T07:00:00.000Z,0.9784508333782836,853c106f-4f42-4b50-bcd6-25838cc4e76b,,,,OpenStreetMap,2014-03-09T19:46:25.000Z,,new-york,False
e0fa7644-87bd-4750-bfcc-f01835a9f771,Carolyn Rossi Copeland Productions,theatre,"['music_venue', 'cinema']",NY,New York,10036.0,1501 Broadway,40.7571,-73.9864,meta,2025-06-02T07:00:00.000Z,0.909823677581864,cf40efcc-1ba0-4270-9b04-87798688af06,1501 Broadway,commercial,commercial,OpenStreetMap,2022-11-28T17:36:13.000Z,,new-york,False
7db711e5-ca64-466c-84c1-6711ca9a40bc,"Law Offices of Fisher & Frommer, PLLC",immigration_law,,NY,New York,10016.0,275 Madison Ave Ste 614,40.7513252645731,-73.98029610514641,Microsoft,2016-02-17T22:31:34.893Z,0.77,,,,,,,,new-york,False
14e52adc-1ec2-4c33-a62e-cd66e216e6c6,Emerson Educational Consulting,college_university,"['educational_services', 'education']",NY,New York,10165.0,60 E 42nd St,40.7519686,-73.9788712,meta,2025-06-02T07:00:00.000Z,0.9300613496932516,f137f7a9-b0b3-40b6-bbb0-d451ceee85e7,One Grand Central Place,commercial,commercial,OpenStreetMap,2024-05-26T05:08:41.000Z,,new-york,False
a1441418-2048-4f81-918b-d4b5fc4be645,Fisher Brothers Management,property_management,"['real_estate', 'insurance_agency']",NY,New York,10158.0,605 3rd Ave,40.7491303,-73.9753591,meta,2025-06-02T07:00:00.000Z,0.9415384615384615,28599333-3f1a-4e3f-9bfd-dc934153433c,,commercial,office,OpenStreetMap,2023-11-15T17:23:24.000Z,,new-york,False
0cdedc64-a608-4aa3-ab9e-a70a13a61822,Gerstein Fisher,corporate_office,['private_establishments_and_corporates'],NY,New York,10017.0,565 5th Ave Fl 27,40.756225660443306,-73.97881954908371,Microsoft,2016-07-18T15:54:47.803Z,0.77,,,,,,,,new-york,True
95fa63d3-02a6-4370-8f4c-44f7653482bd,Fisher Brothers,property_management,['real_estate'],NY,New York,10171.0,299 Park Ave,40.7559855,-73.9743912,meta,2025-06-02T07:00:00.000Z,0.9415384615384615,8f543471-12a0-4d32-a077-f23eb8da3bc3,Grand Central Terminal,transportation,train_station,OpenStreetMap,2023-11-09T20:30:25.000Z,,new-york,False
95fa63d3-02a6-4370-8f4c-44f7653482bd,Fisher Brothers,property_management,['real_estate'],NY,New York,10171.0,299 Park Ave,40.7559855,-73.9743912,meta,2025-06-02T07:00:00.000Z,0.9415384615384615,09e17f05-789b-45ac-9aa1-40808b28d5e6,299 Park Avenue,commercial,commercial,OpenStreetMap,2016-11-17T08:34:50.000Z,,new-york,False
2752d297-4cae-45f1-9767-0fbf8f7bdbdc,Eileen Fisher,womens_clothing_store,"['clothing_store', 'fashion_accessories_store']",NY,New York,10019.0,10 Columbus Cir,40.7683269,-73.9831747,meta,2025-06-02T07:00:00.000Z,0.9784508333782836,f4eadad2-3804-45d3-b748-af81b5fcfd39,Deutsche Bank Center,,,OpenStreetMap,2024-05-30T16:27:10.000Z,,new-york,False
ca6903e4-f4b4-4f80-82eb-ca10e927ccd6,Eileen Fisher,clothing_store,"['womens_clothing_store', 'shopping']",NY,New York,10022.0,521 Madison Ave,40.7599102,-73.9738344,meta,2025-06-02T07:00:00.000Z,0.9784508333782836,e4ce26ef-e0bd-41a4-92e7-207baa6c3cdd,,,,OpenStreetMap,2016-12-11T12:19:55.000Z,,new-york,False
ca6903e4-f4b4-4f80-82eb-ca10e927ccd6,Eileen Fisher,clothing_store,"['womens_clothing_store', 'shopping']",NY,New York,10022.0,521 Madison Ave,40.7599102,-73.9738344,meta,2025-06-02T07:00:00.000Z,0.9784508333782836,5369098e-1a85-487f-9103-514df80bd1bd,,,,OpenStreetMap,2016-12-11T12:19:54.000Z,,new-york,False
f7d21edb-f0ef-4ef0-a444-023a4dbccadb,"Juliya Fisher, MD FAAD",dermatologist,"['doctor', 'professional_services']",NY,New York,10022.0,60 E 56th St,40.7612727,-73.9722681,meta,2025-06-02T07:00:00.000Z,0.9415384615384615,20fdff8a-3cfd-4eca-bae0-7ff8f534fb3c,,residential,apartments,OpenStreetMap,2022-08-26T12:29:30.000Z,,new-york,False
948a4f5e-076c-4007-a18f-1acf982b2a9f,Marc Fisher Showroom,restaurant,"['real_estate', 'business']",NY,New York,10022.0,725 5th Ave,40.762319,-73.973876,meta,2025-06-02T07:00:00.000Z,0.296943231441048,68307cfe-1459-42a7-977c-6bc32977634b,Trump Tower,,,OpenStreetMap,2024-11-28T20:13:08.000Z,,new-york,False
8022b4da-eda9-4000-92d4-9cbb20ed9ef8,Fisher Enterprises LLC,financial_service,"['professional_services', 'medical_service_organizations']",NY,New York,10019.0,200 W 57th St,40.765448,-73.980351,meta,2025-06-02T07:00:00.000Z,0.2456896551724137,3bde6fc9-0d90-413d-a496-9b7f1764ef9b,Rodin Studios,commercial,office,OpenStreetMap,2019-02-05T22:57:08.000Z,,new-york,False
e814054b-6919-4351-aa14-179e3a0363a5,Fisher Investments,real_estate_agent,,NY,New York,10019.0,152 W 57th St Fl 21,40.7653505,-73.9796179,Microsoft,2025-05-02T22:35:26.327Z,0.77,,,,,,,,new-york,False
36ff3593-2e7d-4a12-903f-6bcbd837abc7,Fisher & Paykel New York Experience Center,appliance_store,['cosmetic_and_beauty_supplies'],NY,New York,10155.0,150 E 58th St,40.7611377,-73.9679545,meta,2025-06-02T07:00:00.000Z,0.9784508333782836,f93199f9-87ee-41b7-86a8-28a79128db3f,Architects & Designers Building,,,OpenStreetMap,2023-05-23T00:01:44.000Z,,new-york,False
b1fa3c71-3b17-4761-bc6e-4aba1ad27a7c,Fisher Center for Alzheimer's Research Foundation,community_services_non_profits,"['health_and_medical', 'medical_research_and_development']",NY,New York,10022.0,750 Lexington Ave,40.76267,-73.96827,meta,2025-06-02T07:00:00.000Z,0.93,4146c026-08c4-4ae0-896b-b8308fc536df,International Plaza,,,OpenStreetMap,2014-06-05T12:17:36.000Z,,new-york,False
d0621619-a3b8-4312-97a0-ba689f0eb138,Fisher Heritage,antique_store,"['arts_and_entertainment', 'museum']",NY,New York,10065.0,305 E 61st St,40.761821,-73.962733,meta,2025-06-02T07:00:00.000Z,0.3961437335670464,067bf324-ec60-4fd7-8808-0c88c66368c5,,,,OpenStreetMap,2014-03-14T20:16:50.000Z,,new-york,False
5116761c-7acd-4673-8bde-198ad00073a7,Avery Fisher Hall,arts_and_entertainment,['topic_concert_venue'],NY,New York,10065.0,20 E 63rd St,40.76619,-73.97008,meta,2025-06-02T07:00:00.000Z,0.3961437335670464,66d9b822-e624-485f-b4a4-fb2c755187f6,,,,OpenStreetMap,2014-03-10T00:02:49.000Z,,new-york,False
5116761c-7acd-4673-8bde-198ad00073a7,Avery Fisher Hall,arts_and_entertainment,['topic_concert_venue'],NY,New York,10065.0,20 E 63rd St,40.76619,-73.97008,meta,2025-06-02T07:00:00.000Z,0.3961437335670464,96b25ccc-3f1b-4240-847e-6e315653e439,,,,OpenStreetMap,2014-03-10T00:02:48.000Z,,new-york,False
fb47fb21-11aa-412b-ac9b-d918c09e4338,Eileen Fisher,womens_clothing_store,"['clothing_store', 'shopping']",NY,New York,10024.0,341 Columbus Ave,40.7801448,-73.9766883,meta,2025-06-02T07:00:00.000Z,0.9784508333782836,,,,,,,,new-york,False
451ff78d-9491-4d0b-912d-0c51b808bc9b,Eileen Fisher,clothing_store,"['womens_clothing_store', 'shopping']",NY,New York,10075.0,1039 Madison Ave,40.776527,-73.961729,meta,2025-06-02T07:00:00.000Z,0.4929396662387676,074d076e-0425-40ab-ab1a-0c3f2e0acb89,,,,OpenStreetMap,2014-03-17T21:32:20.000Z,,new-york,False
451ff78d-9491-4d0b-912d-0c51b808bc9b,Eileen Fisher,clothing_store,"['womens_clothing_store', 'shopping']",NY,New York,10075.0,1039 Madison Ave,40.776527,-73.961729,meta,2025-06-02T07:00:00.000Z,0.4929396662387676,86e44403-ae2a-48cb-843a-983c55406706,,,,OpenStreetMap,2014-03-17T21:32:20.000Z,,new-york,False
0b008af8-3053-4abe-9b7d-cd27403250f6,Dr. Michelle Copeland DMD MD,plastic_surgeon,"['doctor', 'beauty_salon']",NY,New York,10028.0,1001 5th Ave,40.7786144,-73.9622117,meta,2025-06-02T07:00:00.000Z,0.9784508333782836,7e8315ff-e423-4639-add3-48f53d98c7f4,,,,OpenStreetMap,2014-03-17T21:32:20.000Z,,new-york,False
5edc2cbf-d5b6-4e0e-9582-db1851cca139,Dr Libby Copeland-Halperin,plastic_surgeon,"['doctor', 'professional_services']",NY,New York,10028.0,1001 5th Ave,40.7786468,-73.9622713,meta,2025-06-02T07:00:00.000Z,0.909823677581864,7e8315ff-e423-4639-add3-48f53d98c7f4,,,,OpenStreetMap,2014-03-17T21:32:20.000Z,,new-york,False
18df67d9-6a6a-4652-912c-ef7925057f18,"Jessica S. Fisher, M.D.",radiologist,"['doctor', 'health_and_medical']",NY,New York,10065.0,525 E 68th St,40.7641472,-73.9543293,Microsoft,2017-09-06T20:52:16.253Z,0.77,,,,,,,,new-york,False
b4f90cda-87b1-4c08-b618-c67ff22433a6,Emerson Amusements,arcade,"['amusement_park', 'vending_machine_supplier']",NY,Woodside,11377.0,72-10 51st Rd,40.7358564,-73.8908269,meta,2025-06-02T07:00:00.000Z,0.9784508333782836,08f86fbe-a938-4ee1-9667-c8e7c5ee38cb,,,,OpenStreetMap,2022-12-27T13:13:33.000Z,,new-york,False
29fc7446-45ea-43b0-8ac7-2c018a207a82,Fisher Pool,swimming_pool,"['park', 'active_life']",NY,East Elmhurst,11369.0,32-23 99th St,40.759026,-73.8694375,meta,2025-06-02T07:00:00.000Z,0.9297091412742382,,,,,,,,new-york,False
cf251340-ed74-4e77-b3f3-718b386221ee,Arthur Copeland Cleansers,dry_cleaning,"['sewing_and_alterations', 'professional_services']",NY,Cedarhurst,11516.0,140 Grove Ave,40.6257367,-73.7205164,meta,2025-06-02T07:00:00.000Z,0.9784508333782836,7ca17a51-daef-454a-b080-8fd7bc185ef1,,,,OpenStreetMap,2021-05-30T19:32:55.000Z,,new-york,False
cf251340-ed74-4e77-b3f3-718b386221ee,Arthur Copeland Cleansers,dry_cleaning,"['sewing_and_alterations', 'professional_services']",NY,Cedarhurst,11516.0,140 Grove Ave,40.6257367,-73.7205164,meta,2025-06-02T07:00:00.000Z,0.9784508333782836,17cef825-b9ad-4a41-b8f5-06f5a17f524e,,,,OpenStreetMap,2018-10-02T15:25:32.000Z,,new-york,False
fdec1a81-21a9-4a54-b235-4911d2a034f8,The Emerson School,middle_school,"['elementary_school', 'public_school']",NY,New York,11433.0,108-35 167th St,40.6970601,-73.7870112,meta,2025-06-02T07:00:00.000Z,0.9784508333782836,,,,,,,,new-york,False
81bd85a0-afd3-4824-9fb3-6dc4636632bc,Emerson construction,contractor,"['home_improvement_store', 'roofing']",NY,New York,11423.0,91-27 183rd St,40.7092363,-73.7771498,meta,2025-06-02T07:00:00.000Z,0.8540983606557377,d8a52ff8-6476-41f1-b9b3-c2694c05c772,,,,OpenStreetMap,2014-02-05T05:18:27.000Z,,new-york,False
5af9a815-debb-4f34-8f36-99f92a1cf101,Martin M Fisher,insurance_agency,['professional_services'],NY,North Hempstead,11042.0,1983 Marcus Ave,40.7569007,-73.6950824,meta,2025-06-02T07:00:00.000Z,0.909823677581864,a54a6091-169d-428c-a2b0-40f9db468a6d,,commercial,commercial,OpenStreetMap,2024-08-16T13:05:13.000Z,,new-york,False
d910bc4e-b6b6-43b2-b74e-c17075a7a2c4,Fisher & Son Consulting,professional_services,['event_photography'],NY,New Hyde Park,11042.0,3000 Marcus Ave,40.7588023,-73.6959356,meta,2025-06-02T07:00:00.000Z,0.8540983606557377,a5b76d83-63f6-47d4-967d-e7d31e742a8e,,commercial,commercial,OpenStreetMap,2024-07-17T00:23:57.000Z,,new-york,False
5d3e4130-4dc7-4fbc-a0f8-c94dc171fbf1,Emerson Souza Brazilian Jiu Jitsu,martial_arts_club,"['active_life', 'fitness_trainer']",NY,Baldwin,11510.0,2420 Grand Ave,40.6515744,-73.6121143,meta,2025-06-02T07:00:00.000Z,0.9784508333782836,c6e6e166-dc00-4045-97a8-1b767c237802,,,,OpenStreetMap,2021-05-30T19:36:29.000Z,,new-york,False
5d3e4130-4dc7-4fbc-a0f8-c94dc171fbf1,Emerson Souza Brazilian Jiu Jitsu,martial_arts_club,"['active_life', 'fitness_trainer']",NY,Baldwin,11510.0,2420 Grand Ave,40.6515744,-73.6121143,meta,2025-06-02T07:00:00.000Z,0.9784508333782836,43b1b0f3-0cc8-44f5-a061-86ce4e90d4aa,,,,OpenStreetMap,2018-05-06T06:05:41.000Z,,new-york,False
be7f8070-2268-445e-b464-8cd7ee6ee4f9,Dr. David A. Fisher,professional_services,['radiologist'],,,11530.0,224 7th St,40.7252727,-73.6331531,meta,2025-06-02T07:00:00.000Z,0.8540983606557377,d6673cf6-bc3b-4e3b-b175-b06d07789518,,commercial,retail,OpenStreetMap,2021-05-30T19:32:35.000Z,,new-york,False
888cb61b-78dc-454d-afcb-4e7cf5ced971,Susan Fisher OD,ophthalmologist,"['doctor', 'optometrist', 'health_and_medical', 'retail']",NY,Westbury,11590.0,1600 Stewart Ave #108,40.736873,-73.583129,Microsoft,2013-01-29T07:05:52.890Z,0.77,,,,,,,,new-york,False
ff1662b4-c926-4bcb-9e13-fc241b61d9a4,"Law Offices of Barry J. Fisher, P.C.",divorce_and_family_law,,NY,Garden City,11530.0,600 Old Country Rd Ste 328,40.7423931,-73.6157172,Microsoft,2025-04-29T10:49:33.520Z,0.77,6454c320-f838-4dc3-a1db-6294172b1f46,600 Old Country Road,,,OpenStreetMap,2024-07-29T11:56:38.000Z,,new-york,False
1fd87229-8cef-4ee0-b830-b1e480d361ab,Eric B. Fisher,dentist,"['cosmetic_dentist', 'medical_service_organizations']",NY,Plainview,11803.0,545 Old Country Rd,40.7702657,-73.4973595,meta,2025-06-02T07:00:00.000Z,0.9459263554653524,fa41e4b8-d1d8-4217-ae61-1d3a0b8240f1,,,,OpenStreetMap,2021-05-30T19:31:35.000Z,,new-york,False
fecf5057-c4d0-4de1-9a7d-86a64084ad7b,Nicole & Rich Fisher-Cruise Planners - “Your Land and Cruise Specialists”,travel_services,['travel_company'],NY,East Islip,11730.0,17 Woodland St,40.7373,-73.1831799,meta,2025-06-02T07:00:00.000Z,0.8384615384615385,50c5558f-9b88-445c-9388-2edb277eda43,,residential,house,OpenStreetMap,2021-06-02T15:41:24.000Z,,new-york,False
3cf8245c-7af2-4e8a-813a-e2feb5f0b045,Archie Fisher III- NMLS #1213778,installment_loans,,NJ,Parsippany,7054.0,1719 State Route 10,40.84005,-74.45968,meta,2025-06-02T07:00:00.000Z,0.3376623376623376,b504da3d-819f-4b0c-95e4-0f510f5ec01c,Octagon 10 Office Building,commercial,commercial,OpenStreetMap,2025-02-06T16:56:43.000Z,,new-york,False
abe2f98b-ba80-44b9-badb-dd7944fba297,The Fisher Group,real_estate_agent,['real_estate'],NJ,Mountain Lakes,7046.0,91 Crane Rd,40.88124,-74.45141,meta,2025-06-02T07:00:00.000Z,0.8148148148148148,d2da1439-d7b2-4081-ade3-20594a787788,,,,OpenStreetMap,2021-12-23T03:39:40.000Z,,new-york,False
12d08f4f-ef72-41f8-9538-646bb3334e41,Copeland Middle School,middle_school,"['education', 'school']",NJ,Rockaway,7866.0,100 Lake Shore Dr,40.9178788,-74.5226475,meta,2025-06-02T07:00:00.000Z,0.9784508333782836,2651b758-9e66-4d89-bb28-76f3fd34d02e,Copeland Middle School,education,school,OpenStreetMap,2024-12-04T00:12:10.000Z,,new-york,False
c4f2aea1-824b-46a2-9dce-6e987e70b361,Thermo Fisher Scientific,biotechnology_company,"['b2b_medical_support_services', 'business_to_business']",NJ,Parsippany,7054.0,119 Cherry Hill Rd,40.8720963,-74.4366305,Microsoft,2018-07-31T18:45:20.543Z,0.77,,,,,,,,new-york,False
b76854f2-e90c-4967-b250-eedeebbcbb3b,Lowenstein Sandler Kohl Fisher,lawyer,"['legal_services', 'professional_services']",NJ,Roseland,7068.0,65 Livingston Ave,40.8178752,-74.3006446,meta,2025-06-02T07:00:00.000Z,0.4929396662387676,036578d3-7a8b-425a-a324-a354f4e3ab6e,,commercial,office,OpenStreetMap,2024-01-21T23:42:44.000Z,,new-york,False
da7c850b-3b75-4a0e-bc03-bd0e4cf6830b,Fisher Auto Transmission,automotive_repair,"['automotive_parts_and_accessories', 'automotive']",NJ,Fairfield,7004.0,81 US Highway 46,40.8688145,-74.3122712,meta,2025-06-02T07:00:00.000Z,0.9784508333782836,,,,,,,,new-york,False
1d5e9ad0-20ca-4f55-a3bd-bf5270d99613,"Emerson Construction, LLC",painting,['commissioned_artist'],NJ,West Orange,7052.0,450 Main St,40.793307,-74.2331498,Microsoft,2023-11-06T02:36:16.347Z,0.77,,,,,,,,new-york,False
836d4d62-dc88-4310-9e69-ee2b5a251b9d,Fisher and Son Company,wholesale_store,['nursery_and_gardening'],NJ,Fairfield,7004.0,277 US Highway 46,40.8780231,-74.2984693,meta,2025-06-02T07:00:00.000Z,0.8980891719745223,,,,,,,,new-york,True
9f01108c-8b14-4bca-8ed5-4fe5f7960f15,Fisher Field,park,"['attractions_and_activities', 'active_life']",NJ,North Arlington,7031.0,97 6th St,40.796815,-74.1314604,meta,2025-06-02T07:00:00.000Z,0.9784508333782836,,,,,,,,new-york,False
9b8a24f5-7c88-4e8d-9ef6-2f43d2ea9942,Fisher's Cafe,american_restaurant,"['cafe', 'diner']",NJ,North Arlington,7031.0,18 Ridge Park Dr,40.7954011,-74.129337,meta,2025-06-02T07:00:00.000Z,0.9784508333782836,,,,,,,,new-york,False
36ef039b-8836-466e-aa81-3bae6974efc0,Fisher's Cafe,cafe,"['restaurant', 'breakfast_and_brunch_restaurant']",NJ,Hasbrouck Heights,7604.0,245 Boulevard,40.8630055,-74.0773753,meta,2025-06-02T07:00:00.000Z,0.9784508333782836,beb21455-2411-4700-b146-44aa53ce1a99,Fisher's Diner,commercial,,OpenStreetMap,2022-04-24T18:06:50.000Z,,new-york,False
36ef039b-8836-466e-aa81-3bae6974efc0,Fisher's Cafe,cafe,"['restaurant', 'breakfast_and_brunch_restaurant']",NJ,Hasbrouck Heights,7604.0,245 Boulevard,40.8630055,-74.0773753,meta,2025-06-02T07:00:00.000Z,0.9784508333782836,6f099ab2-7c3a-4c9c-848c-335f3bf7d051,Spindler's Bakery,,,OpenStreetMap,2022-04-24T18:06:50.000Z,,new-york,False
3153af37-9025-4cf7-bf39-69229e21f243,Emerson Reid LLC,insurance_agency,['professional_services'],NJ,Elmwood Park,7407.0,669 River Dr,40.898,-74.12455,meta,2025-06-02T07:00:00.000Z,0.909823677581864,2fcd3855-9050-4425-a37f-c73708608a7c,,commercial,commercial,OpenStreetMap,2019-01-31T12:46:57.000Z,,new-york,False
7d41188b-a3b0-4f7a-aef5-fc58c94677cc,CoinFlip Bitcoin ATM - Fisher's Cafe (Fair Lawn),atms,,NJ,Fair Lawn,7410.0,7-07 Fair Lawn Ave,40.9224577,-74.1030825,Microsoft,2025-04-10T17:36:39.623Z,0.77,,,,,,,,new-york,False
167eb9e6-7ad6-4100-a7c5-3700d8dbd9fc,Fisher's Cafe,cafe,"['breakfast_and_brunch_restaurant', 'american_restaurant']",NJ,Fair Lawn,7410.0,7-07 Fair Lawn Ave,40.9356914,-74.133482,meta,2025-06-02T07:00:00.000Z,0.9784508333782836,77c61103-1839-47f4-83b4-dc7a5f2826f4,,,,OpenStreetMap,2020-07-11T20:10:12.000Z,,new-york,False
887652c7-46a2-42ef-aa67-ea4f16a4be2c,Thermo Fisher Scientific,event_planning,"['commercial_industrial', 'industrial_equipment']",NJ,Fair Lawn,7410.0,1 Reagent Ln,40.9484578,-74.1269,meta,2025-06-02T07:00:00.000Z,0.9415384615384615,,,,,,,,new-york,True
f34bf441-76bf-492c-a9ee-176a7513b193,"Jason Fisher, M.D.",pediatrician,"['surgeon', 'doctor', 'health_and_medical']",NJ,Hackensack,7601.0,30 Prospect Ave 367,40.8840335,-74.0565417,Microsoft,2025-05-04T14:20:14.213Z,0.77,7df7a5a5-3d7c-489f-ab46-a57518aaabda,George Link Jr. Pavilion,medical,hospital,OpenStreetMap,2017-12-02T16:48:04.000Z,,new-york,False
6acfa3ef-7585-4665-b457-0bbf93b90dfd,Howard J Fisher MD,pediatrician,"['doctor', 'family_practice']",NJ,Teaneck,7666.0,960 Teaneck Rd,40.8882134,-74.0054355,meta,2025-06-02T07:00:00.000Z,0.9297091412742382,957b0c54-dc3e-4dd6-bede-90d292b32d37,,,,OpenStreetMap,2019-10-21T17:47:57.000Z,,new-york,False
dc113b40-b8df-4dc0-a739-313e2e652844,Emerson Dental Studio Inc,dentist,"['hospital', 'medical_service_organizations']",NJ,Paramus,7652.0,15 Farview Ter,40.9227888,-74.0699027,meta,2025-06-02T07:00:00.000Z,0.9300613496932516,6ff4ed70-0b23-41b6-b958-c3db349bb2f3,,,,OpenStreetMap,2014-10-16T15:09:38.000Z,,new-york,False
dc2f9a58-d659-4456-b39a-41dc549c2893,Fisher-McKinney Language Services,translating_and_interpreting_services,"['financial_service', 'professional_services']",NY,New York,10029.0,228 E 116th St,40.7974082,-73.9389135,meta,2025-06-02T07:00:00.000Z,0.8540983606557377,,,,,,,,new-york,False
4a9a9868-1075-40f2-aa9b-50b1ef332d8c,AHRC NYC Fisher Day Services,community_services_non_profits,"['social_service_organizations', 'charity_organization']",NY,New York,10035.0,2080 Lexington Ave,40.8047308,-73.9372611,meta,2025-06-02T07:00:00.000Z,0.9784508333782836,76739cd9-5bf4-4349-a60c-fb73ae2faa82,,,,OpenStreetMap,2014-04-03T21:11:31.000Z,,new-york,False
f254369d-1192-45c0-88a0-0adf332e4e1d,Fisher Price Toys,toy_store,"['childrens_clothing_store', 'professional_services']",NY,New York,10451.0,636 Gerard Ave,40.8215794,-73.9280493,meta,2025-06-02T07:00:00.000Z,0.296943231441048,1bf2fa2d-3bec-4d2f-bf61-cc1fe2d62b3c,,,,OpenStreetMap,2022-09-18T12:47:54.000Z,,new-york,False
4629820f-7101-4761-a398-111be2e7d0bb,Ronald G Fisher Esq,lawyer,['professional_services'],NY,New York,10451.0,930 Grand Concourse,40.8283483,-73.9215361,meta,2025-06-02T07:00:00.000Z,0.8540983606557377,e4748282-0aa1-4887-8e36-ba461593b0da,,,,OpenStreetMap,2014-04-18T20:07:01.000Z,,new-york,False
179e093b-5720-4471-969a-a3fefc4cafd3,The Fisher Mortgage Group,mortgage_broker,"['installment_loans', 'financial_service']",NY,New York,10461.0,2105 Williamsbridge Rd,40.8556378,-73.8556243,meta,2025-06-02T07:00:00.000Z,0.8253968253968254,1dfe30c8-1ebd-4122-b363-39984a97300d,,,,OpenStreetMap,2014-05-13T22:24:39.000Z,,new-york,False
9d4a7507-1f75-4185-ae01-ab25fbc63a03,"Queller, Fisher, Washor, Fuchs & Kool And The Law Office Of William A. Gallina, LLP",personal_injury_law,,NY,Bronx,10461.0,1250 Waters Pl Ste 708,40.852695,-73.839388,Microsoft,2025-05-06T21:02:34.580Z,0.77,031adf4a-ad61-4fd0-a84d-79a8db76910c,,,,OpenStreetMap,2022-08-07T19:42:37.000Z,,new-york,True
ae1a6c1f-76c2-40e1-9a39-7ea118c459af,"Queller, Fisher, Washor, Fuchs & Kool And The Law Office Of William A. Gallina, LLP",personal_injury_law,,NY,Bronx,10461.0,"1250 Waters Place, Suite 708",40.85339502345231,-73.83860735568089,Microsoft,2025-05-09T12:30:44.863Z,0.77,679eaa38-01f0-4988-82f0-90585eb5a4a7,,,,OpenStreetMap,2022-08-07T19:42:37.000Z,,new-york,True
600b71f3-8781-4d92-9965-304cab4450ce,Emerson Playground,family_service_center,,NY,New York,10034.0,"Hill Park, 1906, 151 Seaman Ave",40.8694083,-73.9220167,Microsoft,2025-04-16T15:17:25.653Z,0.77,,,,,,,,new-york,False
f2f41c41-ffa5-4bcf-913f-9c6fe5f43861,Luther Lee Emerson Elementary,elementary_school,"['education', 'middle_school']",NJ,Demarest,7627.0,15 Columbus Rd,40.9560356,-73.9712474,meta,2025-06-02T07:00:00.000Z,0.9784508333782836,,,,,,,,new-york,False
0088b048-8867-4345-9782-f90a2733468d,The Fisher Group Tax Service,trusts,"['accountant', 'professional_services']",NY,New York,10469.0,1322 E Gun Hill Rd,40.8711066,-73.84765,meta,2025-06-02T07:00:00.000Z,0.9415384615384615,,,,,,,,new-york,False
0a9688d9-ff5b-4dc4-ae73-7f266177fc77,Cko Kickboxing Emerson,community_services_non_profits,,NJ,Waldwick,7463.0,141 E Prospect St,41.01109,-74.10738,meta,2025-06-02T07:00:00.000Z,0.3376623376623376,2bbac72c-7681-4191-8f47-c586e893a6da,,residential,house,OpenStreetMap,2019-03-07T17:34:17.000Z,,new-york,False
3284a111-07e5-4839-8f64-991abd202da1,Emerson Health and Rehabilitation Center,retirement_home,"['physical_therapy', 'abuse_and_addiction_treatment']",NJ,Emerson,7630.0,100 Kinderkamack Rd,40.9730969,-74.028897,meta,2025-06-02T07:00:00.000Z,0.9784508333782836,cab9d4de-88dc-4bf7-bc1b-2ec10a9f9d0b,,,,OpenStreetMap,2023-06-29T04:21:07.000Z,,new-york,False
9dbbf070-44f7-4a6e-b154-1aa62d02aa2b,"Liberty Subaru, Inc., Emerson, NJ",car_dealer,"['automotive_repair', 'automotive_parts_and_accessories']",NJ,Emerson,7630.0,55 Kinderkamack Rd,40.9718524,-74.0285944,meta,2025-06-02T07:00:00.000Z,0.9879256218304756,c139ef13-20dd-42aa-885b-667dd1d37c58,Liberty Subaru,,,OpenStreetMap,2021-02-22T02:24:22.000Z,,new-york,False
89b7f52a-a327-4453-a7da-cf221c07d1cd,Emerson DPW,event_planning,['business'],NJ,Emerson,7630.0,1 Palisade Ave,40.9724962,-74.0273489,meta,2025-06-02T07:00:00.000Z,0.9300613496932516,4a18cb70-d375-4be2-8b8f-3c5573f45968,,,,OpenStreetMap,2019-03-04T23:12:57.000Z,,new-york,True
304be27b-7b0a-4409-a46a-93a69676c04e,Emerson Public Library,library,"['public_and_government_association', 'public_service_and_government']",NJ,Emerson,7630.0,20 Palisade Ave,40.973116,-74.0264779,meta,2025-06-02T07:00:00.000Z,0.9784508333782836,76f7e4d2-2233-4e09-b8d3-0bf157ca1879,,,,OpenStreetMap,2019-03-04T23:12:56.000Z,,new-york,False
fb00bd4d-bb47-4a3d-911a-d593f05fabc1,Emerson Dental Associates,dentist,"['oral_surgeon', 'health_and_medical']",NJ,Emerson,7630.0,110 Kinderkamack Rd,40.973609,-74.028673,meta,2025-06-02T07:00:00.000Z,0.9784508333782836,e66f67cc-2638-49c0-9b41-cafa5dd9b3ba,,,,OpenStreetMap,2019-03-27T23:47:46.000Z,,new-york,False
f57cbaec-3930-480b-9698-0cd66e6733e8,Emerson Dry Cleaners,dry_cleaning,"['laundromat', 'home_cleaning']",NJ,Emerson,7630.0,120 Kinderkamack Rd,40.9739835,-74.0282152,meta,2025-06-02T07:00:00.000Z,0.9784508333782836,8961c230-d50d-4597-b4e7-fc55f51d0332,,,,OpenStreetMap,2019-03-27T23:47:46.000Z,,new-york,False
7ccc1f54-91df-4fef-b750-9f50c81456b2,The Fruit Factory of Emerson,gift_shop,['retail'],NJ,Emerson,7630.0,9 Ackerman Ave,40.97434,-74.028579,Microsoft,2025-05-22T13:20:48.060Z,0.77,1511eba0-8c11-49b9-a276-5a58b21c6069,,,,OpenStreetMap,2019-03-27T23:47:46.000Z,,new-york,False
9997bd20-ea7d-4970-82fb-34b12d058bb0,Emerson Hotel Restaurant & Bar,american_restaurant,"['pizza_restaurant', 'hotel']",NJ,Emerson,7630.0,31 Emerson Plz E,40.9741107,-74.0270974,meta,2025-06-02T07:00:00.000Z,0.9879256218304756,4a2b9fb4-8bb5-4bc8-8def-d0d5c411ecc1,,,,OpenStreetMap,2019-03-04T23:12:57.000Z,,new-york,False
6cd5be6e-f3e0-4511-a52b-076607a666f1,Town Physical Therapy - Emerson,physical_therapy,['health_and_medical'],NJ,Emerson,7630.0,45 Emerson Plaza E Ste 102,40.9744137,-74.0269662,Microsoft,2024-02-01T09:27:33.007Z,0.77,2cca9f8a-9490-4492-963f-e703dbc67eb7,,,,OpenStreetMap,2019-03-04T23:12:59.000Z,,new-york,False
74018cd3-9d50-4ce3-9096-d670c927d480,Mint Dental - Family Dentistry of Emerson,dentist,"['pediatric_dentist', 'medical_service_organizations']",NJ,Emerson,7630.0,45 Emerson Plz E,40.9744824,-74.0270603,meta,2025-06-02T07:00:00.000Z,0.9784508333782836,2cca9f8a-9490-4492-963f-e703dbc67eb7,,,,OpenStreetMap,2019-03-04T23:12:59.000Z,,new-york,False
0b30b2cb-78f3-4f73-853f-7b410d467555,Emerson,train_station,"['travel', 'candy_store']",,,7630.0,,40.9750832,-74.0272952,meta,2025-06-02T07:00:00.000Z,0.9459263554653524,66ff85c7-5aed-4148-b137-26d25d5a6f6b,,,,Microsoft ML Buildings,2022-10-16T00:00:00.000Z,,new-york,False
4afeeaa5-3dc5-49b0-bcd6-0ed4c6572bb6,Goldbergs’s Bagels Emerson,business_advertising,['marketing_agency'],NJ,Emerson,7630.0,185 Kinderkamack Rd,40.97562,-74.02615,meta,2025-06-02T07:00:00.000Z,0.7548172757475083,,,,,,,,new-york,False
c4a03090-5b4d-4041-a9c4-89d938ca4e20,Emerson Volunteer Ambulance Corps,ambulance_and_ems_services,"['community_services_non_profits', 'health_and_medical']",NJ,Emerson,7630.0,1 Kenneth Ave,40.9764107,-74.0270069,meta,2025-06-02T07:00:00.000Z,0.9784508333782836,323f68e1-a35c-4566-a12f-030794e131aa,,,,OpenStreetMap,2019-03-04T23:12:57.000Z,,new-york,False
cc85d921-f730-48bf-ab04-ae8f41cae09a,Emerson Fence Inc,fence_and_gate_sales_service,"['contractor', 'construction_services']",NJ,Emerson,7630.0,10 Lincoln Blvd,40.9769493,-74.0265651,meta,2025-06-02T07:00:00.000Z,0.9297091412742382,,,,,,,,new-york,False
fe67b196-5663-4a17-aed2-d876ba42387b,Emerson Junior-Senior High School,high_school,"['school', 'education']",NJ,Emerson,7630.0,131 Main St,40.9730836,-74.0172949,meta,2025-06-02T07:00:00.000Z,0.9784508333782836,2342cb60-67b1-4026-a759-5ea1502ec5c3,,education,school,OpenStreetMap,2018-09-27T14:47:38.000Z,,new-york,False
772930f6-9130-4099-8d07-92d51a607104,Emerson Fire Department,fire_department,"['fire_protection_service', 'public_service_and_government']",NJ,Emerson,7630.0,120 Thomas Ave,40.9741913,-74.0251787,meta,2025-06-02T07:00:00.000Z,0.9784508333782836,f0f3c0b8-a423-4fbb-b10a-4e215441ce7a,,,,OpenStreetMap,2019-03-21T21:52:06.000Z,,new-york,False
32e080bd-0256-46d8-8832-3854f67625bf,Emerson Bible Church,church_cathedral,['religious_organization'],NJ,Emerson,7630.0,162 Linwood Ave,40.9747294,-74.023503,meta,2025-06-02T07:00:00.000Z,0.9784508333782836,ad2605ed-6d5d-43a6-9d2b-1fdec490dffc,,,,OpenStreetMap,2019-03-25T18:08:36.000Z,,new-york,False
ee954c88-8339-4e82-88c0-235a8a7cd5b0,Emerson Borough Office,town_hall,"['public_and_government_association', 'public_service_and_government']",NJ,Emerson,7630.0,146 Linwood Ave,40.9749085,-74.0242678,meta,2025-06-02T07:00:00.000Z,0.9784508333782836,,,,,,,,new-york,False
2c26c9f7-c412-4087-98ee-fb37b9a3cb04,Borough of Emerson,public_and_government_association,,NJ,Emerson,7630.0,146 Linwood Ave,40.975115,-74.024209,meta,2025-06-02T07:00:00.000Z,0.3961437335670464,e1c649ff-016f-4821-8f10-e07395e4c1e2,,,,OpenStreetMap,2019-03-25T18:08:36.000Z,,new-york,False
15200608-b93f-4fab-9aff-467c22526389,Emerson Police Department,police_department,"['law_enforcement', 'public_and_government_association']",NJ,Emerson,7630.0,146 Linwood Ave,40.975204,-74.0242944,meta,2025-06-02T07:00:00.000Z,0.9784508333782836,e1c649ff-016f-4821-8f10-e07395e4c1e2,,,,OpenStreetMap,2019-03-25T18:08:36.000Z,,new-york,False
4f2063fe-cffe-4112-8aea-e95c2e678329,Emerson Woods,park,"['hiking_trail', 'active_life']",,,7630.0,Main St,40.9747055,-74.0203724,meta,2025-06-02T07:00:00.000Z,0.296943231441048,,,,,,,,new-york,False
ad380706-e048-4490-9fba-3ed207f049d2,Emerson Dental Arts,dentist,"['cosmetic_dentist', 'health_and_medical']",NJ,Emerson,7630.0,310 Main St,40.97726,-74.01089,meta,2025-06-02T07:00:00.000Z,0.4929396662387676,f981da3e-d9bb-49ac-ba19-563869088d45,,,,OpenStreetMap,2019-04-26T23:00:22.000Z,,new-york,False
38754738-0468-4052-a39f-23ac5d63d9e9,Smiles by Bergen Dental Emerson,dentist,['health_and_medical'],NJ,Emerson,7630.0,310 Main St,40.977128,-74.010684,Microsoft,2025-05-03T03:14:23.747Z,0.77,,,,,,,,new-york,False
569fd3a1-69bc-4791-b92b-0641f8a07ef0,CKO Kickboxing Emerson,kickboxing_club,"['boxing_club', 'gym', 'martial_arts_club', 'active_life']",NJ,Emerson,7630.0,500 Kinderkamack Rd,40.9815703,-74.0260168,Microsoft,2021-01-31T21:12:15.903Z,0.77,6dd051cc-54e0-49d6-917b-d37796151c2e,,,,OpenStreetMap,2019-04-28T07:57:22.000Z,,new-york,False
da0290c9-b7a5-4731-8e20-5a7cfa7d2430,"Trinity Rehab - Emerson, New Jersey",physical_therapy,['health_and_medical'],NJ,Emerson,7630.0,444 Kinderkamack Rd,40.9808141,-74.0250127,Microsoft,2025-02-18T17:05:57.607Z,0.77,60634179-42c0-4c63-8eac-ae653ada24e2,,,,OpenStreetMap,2019-04-28T07:57:22.000Z,,new-york,False
6b69d721-73af-4738-9685-012eb450f1a4,CKO Kickboxing Emerson,active_life,"['gym', 'sports_and_recreation_venue']",NJ,Emerson,7630.0,500 Kinderkamack Rd,40.9811422,-74.0257408,meta,2025-06-02T07:00:00.000Z,0.9784508333782836,6dd051cc-54e0-49d6-917b-d37796151c2e,,,,OpenStreetMap,2019-04-28T07:57:22.000Z,,new-york,False
fc4ea62c-b2b4-44d5-9377-37d37e475ae9,Emerson Chamber of Commerce,community_services_non_profits,['social_service_organizations'],NJ,Emerson,7630.0,330 Kinderkamack Rd,40.98061,-74.02448,meta,2025-06-02T07:00:00.000Z,0.8384615384615385,d7de8b3a-936b-41ef-bace-c1e277195baf,,,,OpenStreetMap,2019-04-30T22:37:07.000Z,,new-york,False
f37644b1-8b95-4bb0-93e9-15f22f40efa0,Emerson Animal Hospital,veterinarian,"['professional_services', 'pet_services']",NJ,Emerson,7630.0,371 Kinderkamack Rd,40.9817935,-74.024093,meta,2025-06-02T07:00:00.000Z,0.9784508333782836,7740c476-3029-4243-ae9b-df3127471402,,,,OpenStreetMap,2019-04-30T12:31:35.000Z,,new-york,False
ec7294d2-260e-4381-bd1d-5585e097fa8c,Emerson Auto Body,automotive_repair,"['auto_detailing', 'automotive']",NJ,Westwood,7675.0,15 Bergenline Ave,40.98276,-74.01575,meta,2025-06-02T07:00:00.000Z,0.5662921348314607,bedd51db-24de-4500-9eb0-dbf045caa42b,,,,OpenStreetMap,2018-06-18T13:22:06.000Z,,new-york,False
c3712a59-cf98-4b1d-8c58-2368ec201ef3,Emerson J Nail Spa,nail_salon,"['beauty_salon', 'spas']",NJ,Emerson,7630.0,459 Old Hook Rd,40.981216,-74.005893,meta,2025-06-02T07:00:00.000Z,0.7548172757475083,a807a511-38f0-4c28-b1c1-9a64ca58339e,,,,OpenStreetMap,2018-06-19T02:00:11.000Z,,new-york,False
a152f1c8-e745-4bd2-9d64-5b5d9745355c,Emerson Plaza,shopping_center,"['cinema', 'grocery_store']",NJ,Emerson,7630.0,411 Old Hook Rd,40.9817889,-74.0069296,meta,2025-06-02T07:00:00.000Z,0.9784508333782836,063588cd-bbab-45c7-a857-07869c5991bb,,,,OpenStreetMap,2018-06-19T02:00:11.000Z,,new-york,False
7aee088c-f6a3-45ce-81cc-49985493d495,Emerson Family Dental,dentist,"['professional_services', 'endodontist']",NJ,Emerson,7630.0,466 Old Hook Rd,40.9829881,-74.0054026,meta,2025-06-02T07:00:00.000Z,0.9879256218304756,23c25a04-0022-4ed8-8a9e-77be97d3b550,,,,OpenStreetMap,2018-06-18T01:26:49.000Z,,new-york,False
b1725472-7064-4232-9fd2-3c1e8e798265,Emeritus at Emerson,skilled_nursing,['health_and_medical'],NJ,Emerson,7630.0,590 Old Hook Rd,40.9790187,-73.9994002,Microsoft,2012-08-28T09:06:47.733Z,0.77,,,,,,,,new-york,False
6e08d969-3c82-4332-b215-e320a4119440,Brookdale Emerson,retirement_home,['health_and_medical'],NJ,Emerson,7630.0,590 Old Hook Rd,40.9792623,-73.999349,meta,2025-06-02T07:00:00.000Z,0.9784508333782836,,,,,,,,new-york,False
68e54c10-390f-43af-af14-442759dee873,Emerson Canon Real Estate,real_estate_agent,['professional_services'],NJ,Closter,7624.0,1 Ruckman Rd,40.9737202,-73.9594347,meta,2025-06-02T07:00:00.000Z,0.3376623376623376,d4c7a618-0fba-4391-ad2a-782c7050462b,,,,OpenStreetMap,2018-09-12T14:12:57.000Z,,new-york,False
cee1b4b2-19d2-4197-8dad-d09a9a5dae41,Fisher Roofing,roofing,['ceiling_and_roofing_repair_and_service'],NY,Yonkers,10710.0,1280 Saw Mill River Rd,40.9795,-73.865335,Microsoft,2013-01-29T04:40:26.517Z,0.77,,,,,,,,new-york,False
30001626-30ac-43ee-8c68-0588e38e4383,Fisher Development Associates,real_estate,['home_developer'],NY,Purchase,10577.0,2 Manhattanville Rd,41.0233737,-73.7180366,meta,2025-06-02T07:00:00.000Z,0.9300613496932516,,,,,,,,new-york,False
65ac7860-c8a1-45d5-b168-369ef8a8fd8a,"Drs. Copeland, Fertig & Kramer Optometric Eye Associates",optometrist,"['eyewear_and_optician', 'hospital']",NY,Port Chester,10573.0,204 S Ridge St,41.001315,-73.680992,meta,2025-06-02T07:00:00.000Z,0.3376623376623376,42242596-d30f-44ec-be34-fb58c0cb5736,,,,Microsoft ML Buildings,2023-05-11T00:00:00.000Z,0.9929999709129332,new-york,False
cb15af5f-da31-4bec-80d7-34732515f1ac,Marc Fisher,shoe_store,"['shopping', 'retail']",CT,Greenwich,6830.0,777 W Putnam Ave,41.0140007,-73.6556553,meta,2025-06-02T07:00:00.000Z,0.8980891719745223,3476f3b4-ac5f-4dcd-a8bd-b1a3d91b1921,,,,OpenStreetMap,2020-09-29T23:43:32.000Z,,new-york,False
6e76b068-a4a8-47a5-ba4f-8a2e4b7f1c1b,Fisher Wealth Management Group,financial_advising,['investing'],NY,Melville,11747.0,200 Broadhollow Rd,40.78688,-73.4170871,meta,2025-06-02T07:00:00.000Z,0.9415384615384615,6f3cf685-8f22-4be9-be94-205ea40b4937,,commercial,commercial,OpenStreetMap,2024-05-29T19:15:04.000Z,,new-york,False
ca18fd62-7b99-4c6d-93ed-42a93c0a90a0,Thermo Fisher Scientific,biotechnology_company,"['b2b_medical_support_services', 'business_to_business']",NY,Bohemia,11716.0,2800 Veterans Memorial Hwy,40.7882878,-73.1472229,Microsoft,2018-07-31T18:45:20.543Z,0.77,228207f1-f0b7-476d-befb-5c3c4ad63ebe,,commercial,commercial,OpenStreetMap,2021-06-02T12:57:56.000Z,,new-york,False
39b5a069-730f-4767-830e-e6d0477b216f,"Keith S. Fisher, DDS",dentist,"['oral_surgeon', 'health_and_medical']",NY,Smithtown,11787.0,363 Route 111,40.834854,-73.19461,meta,2025-06-02T07:00:00.000Z,0.7548172757475083,284cf714-27c7-4b40-bff4-8117e400251c,Osteo Relief Institute Long Island,commercial,commercial,OpenStreetMap,2021-06-02T13:26:25.000Z,,new-york,False
92f6b6c7-c0fc-4bd0-9598-bf5e57427521,Jeffrey K. Fisher Drawing Studio,arts_and_entertainment,"['art_school', 'art_gallery']",NY,Smithtown,11787.0,10 Lawrence Ave,40.8545746,-73.1936591,meta,2025-06-02T07:00:00.000Z,0.3961437335670464,5a68f438-ecb3-43fa-b063-d593cf552642,,commercial,retail,OpenStreetMap,2021-06-02T12:54:28.000Z,,new-york,False
012b697d-cb4e-43e4-be41-7837ea1b04fc,"Martin M. Fisher, MD",pediatrician,"['doctor', 'health_and_medical']",NY,Smithtown,11787.0,222 Middle Country Rd Ste 106,40.855683,-73.1841856,Microsoft,2025-05-11T03:50:53.027Z,0.77,d40fb79f-7a79-4753-b08a-e43ada3f21ed,,commercial,retail,OpenStreetMap,2023-10-18T23:25:11.000Z,,new-york,False
85a6027d-fc29-49f0-ae6a-044e8edceeff,Thermo Fisher Scientific,biotechnology_company,"['b2b_medical_support_services', 'corporate_office', 'business_to_business', 'private_establishments_and_corporates']",NY,Holtsville,11742.0,4000 Point St,40.807841,-73.036129,Microsoft,2018-07-31T18:45:20.543Z,0.77,,,,,,,,new-york,True
c00ba946-3f5c-4286-991e-264ad13dc922,Fisher Of Men,church_cathedral,"['religious_organization', 'pentecostal_church']",NY,Brookhaven,11980.0,445 Patchogue Yaphank Rd,40.8174301,-72.9487794,meta,2025-06-02T07:00:00.000Z,0.9297091412742382,,,,,,,,new-york,False
e35a68d8-b058-4898-96c7-e5835b25d9ff,Adams Homes Palm Bay | Emerson Model Center,architectural_designer,"['construction_services', 'contractor']",FL,Palm Bay,32909.0,2871 Emerson Dr SE,27.9607054,-80.6483394,meta,2025-06-02T07:00:00.000Z,0.9459263554653524,4150a3be-9f77-433a-a2ad-a6a3e22fef23,,,,Microsoft ML Buildings,2022-01-30T00:00:00.000Z,,palm-bay-melbourne,False
67f666e9-5e43-481a-b063-593e5cca6a74,"Maureen Copeland, Realtor",real_estate,['real_estate_agent'],FL,Melbourne,32935.0,1372 Highland Ave,28.129325,-80.626734,meta,2025-06-02T07:00:00.000Z,0.2456896551724137,4bf7443b-163a-418e-aea8-f3f271b0e4e5,Island Root Kava Bar Egad,commercial,,OpenStreetMap,2025-02-16T06:02:17.000Z,,palm-bay-melbourne,False
738d9f5c-b0b8-41ab-9d4d-120ffee57e6f,Fisher's of Men Ministries,religious_organization,"['charity_organization', 'mens_clothing_store']",FL,Melbourne,32940.0,3270 Suntree Blvd,28.229255,-80.677098,meta,2025-06-02T07:00:00.000Z,0.3376623376623376,ea09c872-69d1-458b-8e46-13648fa54a58,Suntree Business Center,commercial,commercial,OpenStreetMap,2018-06-26T23:17:33.000Z,,palm-bay-melbourne,False
738d9f5c-b0b8-41ab-9d4d-120ffee57e6f,Fisher's of Men Ministries,religious_organization,"['charity_organization', 'mens_clothing_store']",FL,Melbourne,32940.0,3270 Suntree Blvd,28.229255,-80.677098,meta,2025-06-02T07:00:00.000Z,0.3376623376623376,b0a91beb-ea1b-48d7-8582-41a8665f82dd,Suntree Business Center,commercial,commercial,OpenStreetMap,2018-06-26T23:17:33.000Z,,palm-bay-melbourne,False
708b5e98-ffa5-478e-8662-63b541ffe1cb,Copeland Accounting & Tax Services Inc,tax_services,,MO,Springfield,65810.0,5335 S Campbell Ave,37.117488,-93.296803,Microsoft,2025-05-15T23:33:41.757Z,0.77,,,,,,,,springfield-missouri,False
7fa67144-143d-4b1d-a0dc-c62b2ba15032,"Debbie Fisher, Realtor",real_estate_agent,['professional_services'],MO,Springfield,65804.0,1619 E Independence St,37.1433601,-93.2659048,meta,2025-06-02T07:00:00.000Z,0.8831168831168831,eeaff2b0-a107-47cf-9847-5b073b98bc2d,,,,OpenStreetMap,2017-07-17T19:53:39.000Z,,springfield-missouri,False
688c51a8-c81b-4806-8dee-1729892208b4,"Dana Fisher, Keller Williams",real_estate_agent,"['real_estate_service', 'real_estate']",MO,Springfield,65804.0,1619 E Independence St,37.1467404,-93.2722727,meta,2025-06-02T07:00:00.000Z,0.93,377012af-fb7c-4900-b3ed-0a8d3fbaf489,,,,OpenStreetMap,2017-07-17T19:53:41.000Z,,springfield-missouri,False
645f59b6-f644-4b1e-a54e-8648a45a6510,"Tonya Fisher, Realtor",real_estate_agent,"['real_estate', 'professional_services']",MO,Springfield,65804.0,1625 E Primrose St,37.1476019,-93.2681005,meta,2025-06-02T07:00:00.000Z,0.909823677581864,,,,,,,,springfield-missouri,False
1ea4c918-1dff-458b-b500-112771fd24ab,Russ Copeland,real_estate_agent,['professional_services'],MO,Springfield,65804.0,1615 E Primrose St,37.1475624,-93.267215,meta,2025-06-02T07:00:00.000Z,0.9297091412742382,422f7841-0861-401a-bff3-db2b16c4d92d,Murney Associates Realtor,,,OpenStreetMap,2017-07-17T19:53:44.000Z,,springfield-missouri,False
52f2dd85-d89c-4858-8bcf-6f32ae6acb20,Brandon Fisher,installment_loans,"['mortgage_broker', 'financial_service']",MO,Springfield,65804.0,3211 E Battlefield Rd,37.1586852,-93.2305861,meta,2025-06-02T07:00:00.000Z,0.9300613496932516,4072d812-b348-4a57-8420-93c99be2b8f5,Bancorp South Branch,,,OpenStreetMap,2022-09-20T15:03:28.000Z,,springfield-missouri,False
27bf6801-67ed-4e46-b5b7-c176b2c1b28b,Michael Fisher Painting,event_photography,,MO,Springfield,65807.0,637 W Stanford St,37.1852617,-93.2988807,meta,2025-06-02T07:00:00.000Z,0.8540983606557377,8e6b8b62-933c-4985-9867-78f0992250e3,,,,Microsoft ML Buildings,2019-08-12T00:00:00.000Z,,springfield-missouri,False
907322f9-d336-4ca2-8808-80b192eb4dfe,Bob Fisher,counseling_and_mental_health,"['professional_services', 'medical_service_organizations']",MO,Springfield,65804.0,1736 E Sunshine St,37.1805377,-93.2630969,meta,2025-06-02T07:00:00.000Z,0.8860580325548478,45ad7269-7cd6-48f3-9fc0-cb37ebc1dc23,Plaza Towers,,,OpenStreetMap,2022-09-22T20:55:47.000Z,,springfield-missouri,False
2e0f047a-e658-4538-8b62-ec87cce6009c,Roots Salon by Kali Fisher,hair_salon,['beauty_salon'],AZ,Phoenix,85048.0,15815 S 46th St,33.3033577,-111.9841176,meta,2025-06-02T07:00:00.000Z,0.242152466367713,c98742bf-a51f-46a5-ae5c-c686863ff771,,,,OpenStreetMap,2024-05-21T22:45:20.000Z,,phoenix,False
8366e88c-c0db-4321-bde0-478961fdaaca,Fisher A.M.E. Zion Church,church_cathedral,['religious_organization'],AZ,Phoenix,85042.0,1607 E South Mountain Ave,33.3703148,-112.0483629,meta,2025-06-02T07:00:00.000Z,0.9784508333782836,f4122151-9b75-4f29-a3a8-06f6c9ed03c2,,,,OpenStreetMap,2023-10-30T22:21:29.000Z,,phoenix,False
b65f74f7-1651-439f-aaff-ace40efb8867,Fisher Sand & Gravel Co,professional_services,"['industrial_equipment', 'shopping']",AZ,Tempe,85284.0,1302 W Drivers Way,33.3445846,-111.9574172,meta,2025-06-02T07:00:00.000Z,0.7548172757475083,d9c42870-782a-4762-babe-610b5dc62a54,,,,OpenStreetMap,2013-06-04T05:14:03.000Z,,phoenix,False
1ff756dc-341b-4997-aba4-3b7e686a8a07,Thermo Fisher Scientific,biotechnology_company,"['b2b_medical_support_services', 'business_to_business']",AZ,Tempe,85284.0,2155 E Conference Dr,33.342381,-111.8951672,Microsoft,2018-07-31T18:45:20.543Z,0.77,7a952a90-f29a-4f72-8870-5c94022dfc59,Reproductive Medical Institute,medical,,OpenStreetMap,2024-05-30T22:46:18.000Z,,phoenix,False
6cb44a58-583b-4568-a03c-981312ee223f,Fisher Print Company,sign_making,['screen_printing_t_shirt_printing'],AZ,Tempe,85283.0,5245 S Kyrene Rd,33.37686,-111.94514,meta,2025-06-02T07:00:00.000Z,0.9204819277108434,e05208d6-c95a-4e0d-ab87-eacfcff2b2fe,,,,OpenStreetMap,2022-12-31T05:12:19.000Z,,phoenix,True
8443fad9-88c5-4690-ae04-440be1f48c69,Pat Fisher - COUNTRY Financial representative,auto_insurance,['home_and_rental_insurance'],AZ,Chandler,85224.0,2470 W Ray Rd Ste 3,33.32049,-111.884751,Microsoft,2020-05-07T17:04:20.893Z,0.77,,,,,,,,phoenix,False
299ba846-86ff-43e4-a474-07831b375a72,Emerson Boiler Inc,machine_shop,"['contractor', 'professional_services']",AZ,Peoria,85345.0,8721 N 79th Ave,33.5626168,-112.228812,meta,2025-06-02T07:00:00.000Z,0.9204819277108434,350e5b0e-bc76-45ab-bf37-82d2cd1caad6,,,,OpenStreetMap,2021-11-25T22:55:42.000Z,,phoenix,False
82fead9a-7e82-4458-83ec-d6ecf56a6b4f,Copeland Law Offices,lawyer,"['wills_trusts_and_probate', 'hospital']",AZ,Glendale,85302.0,9017 N 57th Dr,33.5686588,-112.1827279,meta,2025-06-02T07:00:00.000Z,0.9784508333782836,9852ff67-079d-43eb-9ffb-f622791d3e55,,commercial,retail,OpenStreetMap,2023-04-07T00:24:58.000Z,,phoenix,False
363f2d36-3500-46f1-ad39-afc1332cf380,Fisher Financial Agency,life_insurance,,AZ,Surprise,85374.0,14537 W Grand Ave Ste 140#527,33.6541902,-112.3739236,Microsoft,2018-11-01T09:12:07.407Z,0.77,,,,,,,,phoenix,False
9ce008f3-03eb-47d1-b551-4ff40cae497c,Fisher Financial Agency,life_insurance,,AZ,Surprise,85374.0,14537 W Grand Ave,33.65489390644551,-112.37191799513296,Microsoft,2018-06-24T21:15:40.143Z,0.77,c202c5fa-9535-4859-bb94-35764ea08d9e,Burger King,commercial,,OpenStreetMap,2024-06-29T18:31:31.000Z,,phoenix,False
8ef2045c-529b-4c5d-b5b3-df944ab63b0a,Fisher Medical & Aesthetics Center,laser_hair_removal,"['cosmetic_surgeon', 'dermatologist', 'hair_removal', 'doctor', 'beauty_and_spa', 'health_and_medical']",AZ,Peoria,85381.0,9139 W Thunderbird Rd Ste 200,33.60813,-112.25574,Microsoft,2025-05-24T07:56:44.150Z,0.77,eac9c54a-750b-42d4-aff8-3cee491464d0,,,,OpenStreetMap,2023-09-25T23:12:44.000Z,,phoenix,False
c7aca693-e4ac-4d4a-a738-83517f2cfe86,Fisher Insurance Group,auto_insurance,,AZ,Peoria,85382.0,16165 N 83rd Ave Ste 200,33.6332419,-112.2335514,Microsoft,2021-10-02T16:43:27.060Z,0.77,,,,,,,,phoenix,False
57a0822b-0d6a-4133-86bc-afef05545fdb,Emerson Espresso Lounge,cafe,"['coffee_shop', 'smoothie_juice_bar']",AZ,Phoenix,85004.0,623 N 4th St,33.4553467,-112.0682935,meta,2025-06-02T07:00:00.000Z,0.9415384615384615,0c47f0aa-e9a8-4a14-a2ba-ae397f7f571e,,,,OpenStreetMap,2022-07-13T05:52:12.000Z,,phoenix,False
70becf58-5403-4ca1-b14e-339e3eaf359c,Emerson Elementary School,elementary_school,"['education', 'public_school']",AZ,Phoenix,85006.0,915 E Palm Ln,33.4690464,-112.0618122,meta,2025-06-02T07:00:00.000Z,0.9784508333782836,,,,,,,,phoenix,False
583bec91-186b-44d1-801c-6a6412f20008,Emerson Fry Bread,fast_food_restaurant,"['food_truck', 'caterer']",AZ,Phoenix,85014.0,"Emerson Fry Bread, 1500 E Glenrosa Ave",33.4980363,-112.048927,meta,2025-06-02T07:00:00.000Z,0.4929396662387676,,,,,,,,phoenix,False
f12beac0-0c88-44da-9449-a2d8580b23c6,Fisher Commercial Real Estate,commercial_real_estate,['real_estate'],AZ,Phoenix,85016.0,2415 E Camelback Rd,33.508199,-112.0288936,meta,2025-06-02T07:00:00.000Z,0.9300613496932516,2416e5f0-b53f-4713-a0f6-87a9e2f17511,,,,OpenStreetMap,2023-09-07T19:21:27.000Z,,phoenix,False
a1dfa405-b36e-4272-b898-aa15a24f7d25,Emerson Mill Avenue,landmark_and_historical_building,['accommodation'],AZ,Tempe,85281.0,101 W 5th St,33.425011,-111.9416622,meta,2025-06-02T07:00:00.000Z,0.9459263554653524,60fd72b0-7f7f-4e68-894f-c8ba04f0c384,Emerson Mill Avenue,residential,apartments,OpenStreetMap,2022-08-02T21:59:21.000Z,,phoenix,False
d60e3bc5-0fb3-4a06-89e9-fd3685529952,Emerson Park Apartment Homes,landmark_and_historical_building,"['real_estate', 'social_service_organizations']",AZ,Tempe,85281.0,1701 E Don Carlos Ave,33.4172545,-111.9100089,meta,2025-06-02T07:00:00.000Z,0.9784508333782836,40c37676-2fe7-4290-b2bc-ed0348b177b7,,,,OpenStreetMap,2021-06-28T19:18:05.000Z,,phoenix,False
f764c404-341d-4b11-b8c3-f61777a61a02,Emerson Park Apartment Homes,apartments,,AZ,Tempe,85281.0,1701 E Don Carlos Ave,33.418403,-111.910224,Microsoft,2023-05-11T14:43:52.463Z,0.77,276d9a03-d4c1-42f6-9170-c1d71e23528b,,outbuilding,carport,OpenStreetMap,2022-01-08T02:15:51.000Z,,phoenix,False
d85dcba4-5ff2-4306-83e5-07a441c366da,Emerson Square Apartments,landmark_and_historical_building,"['real_estate', 'social_service_organizations']",AZ,Tempe,85281.0,1701 E 8th St,33.4188683,-111.9105574,meta,2025-06-02T07:00:00.000Z,0.9784508333782836,,,,,,,,phoenix,False
e03d2a4a-ae2c-411a-a238-d7758a172e24,Fisher's Tools and Handles,hardware_store,"['shopping', 'industrial_equipment']",AZ,Tempe,85288.0,1990 E 3rd St,33.4277392,-111.9008514,meta,2025-06-02T07:00:00.000Z,0.9879256218304756,5caa0426-7574-423e-84e8-0bb4dc5e6fc4,,,,OpenStreetMap,2021-01-14T22:04:35.000Z,,phoenix,False
fe476122-259e-4595-ad81-0eb047742704,Ralph Waldo Emerson Elementary School,elementary_school,"['education', 'school']",AZ,Mesa,85201.0,415 N Westwood,33.4229025,-111.8521407,meta,2025-06-02T07:00:00.000Z,0.9784508333782836,ad2ed6ed-26e2-4a07-92f9-62bfe368c98d,,education,school,OpenStreetMap,2024-10-26T22:33:11.000Z,,phoenix,False
2e9f75b0-9a5e-4a31-941d-1cda6db0e53b,Andrew Fisher,mortgage_broker,"['installment_loans', 'professional_services']",AZ,Scottsdale,85251.0,4250 N Drinkwater Blvd,33.4965393,-111.9223229,meta,2025-06-02T07:00:00.000Z,0.9204819277108434,6e75ea2c-180c-42b0-9165-846e970bd42c,,,,OpenStreetMap,2023-06-19T21:50:43.000Z,,phoenix,False
3eadcde6-f3d4-42d9-8419-7643663110ca,L.A. Fisher Real Estate Investment Company,real_estate_agent,['real_estate'],AZ,Scottsdale,85250.0,7925 E Solano Dr,33.5207288,-111.9111603,meta,2025-06-02T07:00:00.000Z,0.9204819277108434,c35174a9-5126-4a94-a641-08217b7cf09a,,,,OpenStreetMap,2023-08-15T22:58:17.000Z,,phoenix,True
2ea462ed-b4df-482e-8d46-83a97b96d43a,Copeland Care,urologist,['hospital'],AZ,Scottsdale,85258.0,9700 N 91st St,33.5738006,-111.8833422,meta,2025-06-02T07:00:00.000Z,0.9300613496932516,18089365-8c1f-417c-a96c-757fac87ab39,,,,OpenStreetMap,2024-02-26T03:44:38.000Z,,phoenix,False
ea383412-7ee4-455e-95aa-bf7474dbe848,Eileen Fisher,womens_clothing_store,"['clothing_store', 'fashion_accessories_store']",AZ,Phoenix,85254.0,15215 N Kierland Blvd,33.6244549,-111.9284429,meta,2025-06-02T07:00:00.000Z,0.9784508333782836,f22f8a3b-38d4-42f4-99cf-075789e1f5b3,,,,OpenStreetMap,2023-10-31T04:06:05.000Z,,phoenix,False
afd5a90a-13cf-41bf-9059-36a3be43d464,Fisher Travel,travel_services,['transportation'],AZ,Scottsdale,85255.0,8297 E Wingshadow Rd,33.6783484,-111.9043831,meta,2025-06-02T07:00:00.000Z,0.8980891719745223,8317324a-aae5-4c21-a736-f179cc1ddef7,,,,OpenStreetMap,2023-08-31T23:31:18.000Z,,phoenix,False
0dd2d968-3a54-4b51-91c4-ba90bba1fd67,Fisher Travel,travel_agents,['travel'],AZ,Scottsdale,85255.0,8297 E Wing Shadow Rd,33.67874458103287,-111.9022154490738,Microsoft,2025-05-03T20:40:36.850Z,0.77,67d47558-cce4-416d-b73d-c88eac4f645d,,,,OpenStreetMap,2023-08-31T23:31:18.000Z,,phoenix,False
0dd2d968-3a54-4b51-91c4-ba90bba1fd67,Fisher Travel,travel_agents,['travel'],AZ,Scottsdale,85255.0,8297 E Wing Shadow Rd,33.67874458103287,-111.9022154490738,Microsoft,2025-05-03T20:40:36.850Z,0.77,e76c7e8d-1711-4854-a036-b0cba1b3cea0,,residential,house,OpenStreetMap,2024-05-06T01:43:33.000Z,,phoenix,False
7aff48fd-40b6-4bf0-9af6-d898dcdfd291,Jeff Fisher Homes in Bozeman,real_estate_agent,,AZ,Scottsdale,85255.0,21020 N Pima Rd Ste 100,33.6774435,-111.8927763,Microsoft,2022-09-07T18:13:44.880Z,0.77,,,,,,,,phoenix,False
d2806a90-0434-4efb-b0e1-90913b3259e7,Jeff Fisher,real_estate_agent,"['real_estate_service', 'real_estate']",AZ,Scottsdale,85255.0,21000 N Pima Rd,33.6774687,-111.8918876,meta,2025-06-02T07:00:00.000Z,0.9415384615384615,192e0e7e-82e1-4130-8b70-7fcc5c311f6c,,,,OpenStreetMap,2023-04-06T22:52:02.000Z,,phoenix,False
2759962c-abc1-424a-8630-527700365aa4,Fisher Custom Homes,contractor,"['construction_services', 'architectural_designer']",AZ,Scottsdale,85255.0,7410 E Pinnacle Peak Rd,33.6995144,-111.920571,meta,2025-06-02T07:00:00.000Z,0.9459263554653524,,,,,,,,phoenix,False
2f0687dc-3edc-4ef5-9a66-b002b93bae3f,Professional Body Piercings By Adam Clyde Fisher,tattoo_and_piercing,,AZ,San Tan Valley,85140.0,85 W Combs Rd,33.21824,-111.56565,meta,2025-06-02T07:00:00.000Z,0.4929396662387676,c4f76427-7844-4143-b210-c98120d442f2,Fry's Marketplace,commercial,retail,OpenStreetMap,2025-01-31T20:57:36.000Z,,phoenix,False
10d34bff-0fc3-4823-8e9c-f1891800763d,Fisher Consulting Services,trusts,"['professional_services', 'financial_service']",AZ,Gilbert,85296.0,613 E Appaloosa Rd,33.3374608,-111.7773104,meta,2025-06-02T07:00:00.000Z,0.9204819277108434,,,,,,,,phoenix,False
02116127-979d-4c9a-8136-e38d8317ad2a,Christopher Fisher at CrossCountry Mortgage,real_estate_agent,,AZ,Mesa,85209.0,2509 Power Rd Ste 114,33.37011,-111.68764,Microsoft,2025-05-20T21:25:54.997Z,0.77,,,,,,,,phoenix,False
31b0f8b9-d4ad-4f01-af13-da2749d30aca,Emerson Garage Doors,garage_door_service,"['contractor', 'professional_services']",AZ,Mesa,85206.0,5322 E Delta Ave,33.401669,-111.716466,meta,2025-06-02T07:00:00.000Z,0.909823677581864,33a9a981-d946-41f5-a690-8447fd2722a3,,,,OpenStreetMap,2023-08-03T22:22:37.000Z,,phoenix,False
d622a4fb-4edc-4c64-9ce2-70b2eb955ad9,Emerson Art Gallery,art_gallery,"['art_museum', 'arts_and_entertainment']",AZ,Fountain Hills,85268.0,16930 E Palisades Blvd,33.6071031,-111.7146434,meta,2025-06-02T07:00:00.000Z,0.9784508333782836,14229608-4ff3-4b95-9fd2-546b9adc46c8,,,,Microsoft ML Buildings,2020-05-29T00:00:00.000Z,,phoenix,False
d2f3fe37-4af6-4f3f-9d67-55ff5ebbffb3,Fisher Auto Parts,auto_parts_and_supply_store,['retail'],MD,Odenton,21113.0,1370 Blair Dr,39.0903488,-76.7031832,Microsoft,2025-05-18T20:26:07.630Z,0.77,,,,,,,,baltimore,False
896415cf-7fbf-49c5-ae36-11162e350292,Thermo Fisher Scientific,biotechnology_company,"['b2b_medical_support_services', 'business_to_business']",MD,Jessup,20794.0,8220 Patuxent Range Rd,39.145926,-76.7876684,Microsoft,2018-07-31T18:45:20.543Z,0.77,,,,,,,,baltimore,False
dd9d436b-32a4-4228-9437-482349ec5eab,Thermo Fisher Scientific,biotechnology_company,"['b2b_medical_support_services', 'business_to_business']",MD,Baltimore,21227.0,1772 Sulphur Spring Rd Ste 114,39.247809,-76.67995,Microsoft,2018-07-31T18:45:20.543Z,0.77,,,,,,,,baltimore,False
b6a2ab4e-c257-4f27-9815-804453739ab5,Fisher Auto Parts,auto_parts_and_supply_store,['retail'],MD,Baltimore,21227.0,1500 Joh Ave,39.2604579,-76.6700003,Microsoft,2025-05-18T20:27:57.823Z,0.77,,,,,,,,baltimore,False
566e6960-0e06-41f0-8f2c-654917cd6fae,Emerson Locksmith,key_and_locksmith,,MD,Catonsville,21228.0,5774 Baltimore National Pike,39.287787,-76.733019,Microsoft,2013-01-29T04:46:07.170Z,0.77,,,,,,,,baltimore,False
9e387cce-4d02-43eb-9000-3ce2ed48881b,Lytia L Fisher M.D. | Kaiser Permanente,obstetrician_and_gynecologist,"['doctor', 'health_and_medical']",MD,Windsor Mill,21244.0,7141 Security Blvd,39.3118001,-76.7577714,Microsoft,2025-05-06T14:18:40.323Z,0.77,087940d0-d66a-4f65-a769-de02ab786023,Kaiser Permanente,medical,,OpenStreetMap,2024-11-12T20:56:00.000Z,,baltimore,False
35f21570-2bf3-4d50-9e81-81845b4a210d,Fisher Auto Parts,auto_parts_and_supply_store,['retail'],MD,Baltimore,21244.0,2020 Lord Baltimore Dr,39.314479,-76.752473,Microsoft,2025-05-18T20:28:08.390Z,0.77,,,,,,,,baltimore,False
