id_left,primary_name_left,primary_category,alternate_category,region,locality,zipcode,address,latitude,longitude,plc_source_dataset,plc_source_update_time,plc_source_confidence,id_right,primary_name_right,subtype,class,bldg_dataset,bldg_update_time,bldg_confidence,source_city,is_office_by_pipeline
571c2339-5599-40ac-b807-8254f483bc63,Fastenal Company,industrial_equipment,"['professional_services', 'commercial_industrial']",OH,Akron,44314.0,940 W Wilbeth Rd,41.0391578,-81.5614119,meta,2025-06-02T07:00:00.000Z,0.3961437335670464,,,,,,,,akron,True
3e90f8e8-bb08-45a5-aaaf-52d6b14eaf81,Fastenal Fulfillment Center,building_supply_store,"['business_to_business', 'retail']",NY,Albany,12205.0,21 Railroad Ave,42.6921655,-73.8122329,Microsoft,2024-03-25T19:46:20.090Z,0.77,,,,,,,,albany,False
dae8acd0-d78d-4a1f-8ee0-0d4e1fa519d7,Fastenal Company,commercial_industrial,"['industrial_company', 'hardware_store']",NY,Albany,12205.0,21 Railroad Ave,42.6924733,-73.8127373,meta,2025-06-02T07:00:00.000Z,0.4929396662387676,675308c4-cff2-4c9e-9cfc-db0c1abaeccd,,,,OpenStreetMap,2020-12-16T01:08:47.000Z,,albany,True
dae8acd0-d78d-4a1f-8ee0-0d4e1fa519d7,Fastenal Company,commercial_industrial,"['industrial_company', 'hardware_store']",NY,Albany,12205.0,21 Railroad Ave,42.6924733,-73.8127373,meta,2025-06-02T07:00:00.000Z,0.4929396662387676,f5b4f98d-81c5-4c91-8dfb-c1fb201c9aa7,,,,OpenStreetMap,2020-12-16T01:08:47.000Z,,albany,True
18f3f401-aa75-4820-90ab-9f78e969aa07,Fastenal Fulfillment Center,building_supply_store,"['business_to_business', 'retail']",NM,Albuquerque,87107.0,3285A Candelaria Rd NE,35.1165231,-106.6088335,Microsoft,2024-03-25T19:46:20.090Z,0.77,,,,,,,,albuquerque,False
b37d833e-96b5-44a6-a113-14c9a16785c1,Fastenal Company,industrial_equipment,"['commercial_industrial', 'industrial_company']",PA,Allentown,18106.0,431 S PA-100,40.5661316,-75.6134919,meta,2025-06-02T07:00:00.000Z,0.3961437335670464,,,,,,,,allentown-bethlehem,True
13a2d45f-8bf5-48a0-885f-a16ff48efc58,Fastenal,industrial_equipment,"['hardware_store', 'industrial_company']",MI,Ann Arbor,48108.0,4080 Varsity Dr,42.2276968,-83.7261327,meta,2025-06-02T07:00:00.000Z,0.4929396662387676,,,,,,,,ann-arbor,False
f3249658-0494-4639-aa44-2294890c6111,Fastenal Fulfillment Center,industrial_equipment,"['building_supply_store', 'b2b_machinery_and_tools', 'business_to_business', 'retail']",MI,Ann Arbor,48108.0,4080 Varsity Dr,42.2277574,-83.7258614,Microsoft,2024-03-25T19:46:20.090Z,0.77,,,,,,,,ann-arbor,False
5a2c2394-493b-4828-9a25-80d49c520591,Fastenal Company,industrial_equipment,"['industrial_company', 'business']",GA,Fairburn,30213.0,308 Fairburn Industrial Blvd,33.5558777,-84.5887073,meta,2025-06-02T07:00:00.000Z,0.296943231441048,d385b622-f986-446c-929c-f887299fabbc,,industrial,industrial,OpenStreetMap,2025-01-13T17:18:05.000Z,,atlanta,True
c059523c-46a4-4ad7-9e15-c7f6238f4f22,Fastenal Fulfillment Center,building_supply_store,"['business_to_business', 'retail']",GA,Atlanta,30336.0,6445 Fulton Industrial Blvd Ste 100,33.7033829,-84.6005525,Microsoft,2024-03-25T19:46:20.090Z,0.77,,,,,,,,atlanta,False
c3011f61-41ea-496c-820f-cf5f07fc9c67,Fastenal,industrial_equipment,"['industrial_company', 'home_improvement_store']",GA,Atlanta,30336.0,6215 Fulton Industrial Blvd SW,33.71179,-84.59107,meta,2025-06-02T07:00:00.000Z,0.2456896551724137,d48e1b7f-1e33-4820-8b98-c6d3aef41f93,,,,OpenStreetMap,2023-01-07T19:39:59.000Z,,atlanta,False
72a8bd0e-f017-47fc-bb4b-04913d1589c5,Fastenal,hardware_store,"['professional_services', 'contractor']",GA,Atlanta,30349.0,604 Cordell Dr,33.625285,-84.409562,meta,2025-06-02T07:00:00.000Z,0.5662921348314607,9d14b5f1-a67d-44e8-a451-b769f872766e,,,,OpenStreetMap,2021-06-04T00:40:25.000Z,,atlanta,False
97ace35a-7bd0-4664-b193-bf9a12a04933,Fastenal Company,industrial_equipment,"['industrial_company', 'fast_food_restaurant']",GA,Decatur,30035.0,5365 Dividend Dr,33.716073,-84.170163,meta,2025-06-02T07:00:00.000Z,0.2456896551724137,01d7f5d0-35eb-4ef7-a997-533eb0606f3d,,,,OpenStreetMap,2011-03-28T15:48:49.000Z,,atlanta,True
1ac732ec-c773-4a11-85ba-aa79293c3759,Fastenal Fulfillment Center,industrial_equipment,"['building_supply_store', 'b2b_machinery_and_tools', 'business_to_business', 'retail']",GA,Atlanta,30339.0,2961 Olympic Industrial Dr SE Ste 111,33.8340127,-84.4703457,Microsoft,2024-03-25T19:46:20.090Z,0.77,,,,,,,,atlanta,False
dcd810d0-959a-4011-b6a5-365c1a2991c4,Fastenal Fulfillment Center,industrial_equipment,"['building_supply_store', 'b2b_machinery_and_tools', 'business_to_business', 'retail']",GA,Kennesaw,30144.0,2255 McCollum Pkwy NW Ste 400,34.0184907,-84.6034478,Microsoft,2024-03-25T19:46:20.090Z,0.77,,,,,,,,atlanta,False
e1dac233-e142-4a7b-a283-52b06ae1a190,Fastenal Fulfillment Center,hardware_store,"['industrial_equipment', 'commercial_industrial']",GA,Suwanee,30024.0,305 Shawnee North Dr,34.0442134,-84.0567346,meta,2025-06-02T07:00:00.000Z,0.9459263554653524,5413eb79-df3f-4363-a6e9-00e8c6d88660,,commercial,retail,OpenStreetMap,2018-09-03T21:47:32.000Z,,atlanta,False
77693bb0-2d02-4db5-964d-1ec058bbacdf,Fastenal Fulfillment Center,building_supply_store,['business'],GA,Alpharetta,30004.0,1110 Ridgeland Pkwy,34.1216645,-84.2257701,meta,2025-06-02T07:00:00.000Z,0.9297091412742382,7153d1fb-3c73-4da6-8488-3443706d0159,,commercial,warehouse,OpenStreetMap,2024-05-13T03:46:09.000Z,,atlanta,False
922a8c0b-9fa0-4eb9-9cd1-d5849d0af427,Fastenal Fulfillment Center,industrial_equipment,"['building_supply_store', 'b2b_machinery_and_tools', 'business_to_business', 'retail']",TX,Austin,78741.0,6006 E Ben White Blvd 100,30.2131587,-97.7153237,Microsoft,2024-03-25T19:46:20.090Z,0.77,,,,,,,,austin,False
187d2656-2640-4b36-b54d-76e7d567f5b2,Fastenal Fulfillment Center,industrial_equipment,"['building_supply_store', 'b2b_machinery_and_tools', 'business_to_business', 'retail']",TX,Austin,78758.0,1000 Kramer Ln Ste 100,30.3811952,-97.6910699,Microsoft,2024-03-25T19:46:20.090Z,0.77,,,,,,,,austin,False
bd8a97e7-8adc-4a7b-9d86-9060ba4e4705,Fastenal Fulfillment Center,hardware_store,"['industrial_equipment', 'home_and_garden']",TX,Pflugerville,78660.0,16074 Central Commerce Dr,30.4539366,-97.6606646,meta,2025-06-02T07:00:00.000Z,0.9784508333782836,8914839f-9405-4e1c-9149-bb36440d905e,,,,OpenStreetMap,2015-11-27T23:05:06.000Z,,austin,False
3a9066d0-f75d-4e19-aced-eb1d0a1686f8,Fastenal Company,commercial_industrial,"['industrial_company', 'industrial_equipment']",CA,Bakersfield,93308.0,3452 Alken St,35.3913956,-119.0794792,meta,2025-06-02T07:00:00.000Z,0.3961437335670464,a6c2c19a-27bd-46d8-bc2c-5928128d79b0,,,,OpenStreetMap,2012-08-21T18:19:20.000Z,,bakersfield,True
486f6237-762a-4017-acc5-f663c57b5b04,Fastenal Fulfillment Center - Appointment Only,industrial_equipment,"['building_supply_store', 'b2b_machinery_and_tools', 'business_to_business', 'retail']",CA,Bakersfield,93308.0,2331 Cepheus Ct,35.435843,-119.071408,Microsoft,2024-03-25T19:46:20.090Z,0.77,,,,,,,,bakersfield,False
aebee245-d540-4e8e-a405-ba4215c8006b,Fastenal Fulfillment Center - Appointment Only,building_supply_store,"['business_to_business', 'retail']",CA,Bakersfield,93307.0,"4425 E Brundage Ln, Suite 101-103",35.3541556,-118.9546098,Microsoft,2024-03-25T19:46:20.090Z,0.77,,,,,,,,bakersfield,False
c3863491-d5b4-46e6-b0ae-332e61047958,Fastenal Company,industrial_equipment,"['industrial_company', 'commercial_industrial']",MD,Annapolis Junction,20701.0,9090 Junction Dr,39.122818,-76.801329,meta,2025-06-02T07:00:00.000Z,0.242152466367713,259257bd-11e7-4276-b8b1-92a9e7acbcd1,,,,OpenStreetMap,2021-11-09T05:11:48.000Z,,baltimore,True
e1ae6657-adf3-48ac-995c-e7c4d14e50ca,Fastenal Company,industrial_equipment,"['commercial_industrial', 'industrial_company']",MD,Elkridge,21075.0,7377 Washington Blvd,39.1814789,-76.7648346,meta,2025-06-02T07:00:00.000Z,0.3961437335670464,45402e2e-622a-4874-b0a7-b015ba9d48e0,,,,OpenStreetMap,2021-11-09T07:36:56.000Z,,baltimore,True
34694f19-b8ea-4389-9646-ead3b675737f,Fastenal Fulfillment Center,hardware_store,"['industrial_equipment', 'commercial_industrial']",MD,Linthicum Heights,21090.0,5189 Raynor Ave,39.2223826,-76.6590583,meta,2025-06-02T07:00:00.000Z,0.9459263554653524,dfb01ed9-3882-4e24-b4fb-57304a2ae0bd,,,,OpenStreetMap,2021-11-09T00:38:54.000Z,,baltimore,False
c48d0fb1-ca3c-4d72-8eca-7e064b723b0f,Fastenal Fulfillment Center,business_manufacturing_and_supply,"['industrial_equipment', 'industrial_company']",MD,Middle River,21220.0,10004 Pulaski Hwy,39.3628467,-76.4441025,meta,2025-06-02T07:00:00.000Z,0.909823677581864,143e9b3d-623f-422a-97a6-daacef169601,,commercial,commercial,OpenStreetMap,2014-08-19T22:55:23.000Z,,baltimore,False
752701f7-38ab-425c-a53b-cc8be28c5d86,Fastenal Fulfillment Center,industrial_equipment,"['building_supply_store', 'b2b_machinery_and_tools', 'business_to_business', 'retail']",MD,Owings Mills,21117.0,11201 Dolfield Blvd Ste 109,39.4191856,-76.806481,Microsoft,2024-03-25T19:46:20.090Z,0.77,,,,,,,,baltimore,False
52de671e-4388-4da8-b9a4-9e20b41a3758,Fastenal Company,industrial_equipment,"['industrial_company', 'financial_service']",MD,Owings Mills,21117.0,11221 Dolfield Blvd,39.420495,-76.807678,meta,2025-06-02T07:00:00.000Z,0.242152466367713,,,,,,,,baltimore,True
2cd67599-8906-48e6-acc2-740167d5991b,Fastenal Fulfillment Center,hardware_store,"['industrial_equipment', 'commercial_industrial']",ID,Boise,83705.0,2506 S Orchard St,43.5797854,-116.2429846,meta,2025-06-02T07:00:00.000Z,0.9297091412742382,4239c381-ef9d-45f4-bd9e-8f254700de19,,,,OpenStreetMap,2022-02-14T21:27:20.000Z,,boise-city,False
1a563c0a-8d94-42b1-8769-5e8bc9ba8e2f,Fastenal Fulfillment Center,building_supply_store,"['business_to_business', 'retail']",MA,Canton,2021.0,65 Shawmut Rd Ste 3,42.1876381,-71.1535858,Microsoft,2024-03-25T19:46:20.090Z,0.77,3720d957-4682-4f94-8d72-4375b44a5041,,,,OpenStreetMap,2019-05-08T18:13:02.000Z,,boston,False
ec85e3b6-bcc8-4283-aeca-35ced9cc6596,Fastenal Fulfillment Center,industrial_equipment,"['building_supply_store', 'b2b_machinery_and_tools', 'business_to_business', 'retail']",MA,Chelsea,2150.0,150 Eastern Ave,42.3945846,-71.0238366,Microsoft,2024-03-25T19:46:20.090Z,0.77,,,,,,,,boston,False
fd2d987f-8158-4cfd-b701-74184ee5f73a,Fastenal Fulfillment Center,industrial_equipment,"['building_supply_store', 'b2b_machinery_and_tools', 'hydraulic_equipment_supplier', 'business_equipment_and_supply', 'business_to_business', 'retail']",MA,Woburn,1801.0,134A New Boston Rd,42.5069175,-71.1449196,Microsoft,2024-03-25T19:46:20.090Z,0.77,,,,,,,,boston,False
7f2ff090-1e8a-442c-bdcf-5ecbf4b3e4b9,Fastenal Fulfillment Center,building_supply_store,"['business_to_business', 'retail']",MA,Middleton,1949.0,25 Rundlett Way Unit 9,42.5786783,-71.0026939,Microsoft,2024-03-25T19:46:20.090Z,0.77,,,,,,,,boston,False
09e82396-3777-41d0-9f9d-94951d12fde6,Fastenal Peabody,hardware_store,"['medical_service_organizations', 'industrial_equipment']",MA,Middleton,1949.0,25 Rundlett Way,42.579276,-71.001531,meta,2025-06-02T07:00:00.000Z,0.296943231441048,c1c4742d-720f-4470-b188-05cef5e91225,,,,OpenStreetMap,2019-05-23T20:17:05.000Z,,boston,False
17e1d267-5d72-4516-8e8e-1643734d75da,Fastenal Fulfillment Center,industrial_equipment,"['building_supply_store', 'b2b_machinery_and_tools', 'hydraulic_equipment_supplier', 'business_equipment_and_supply', 'business_to_business', 'retail']",NY,Kenmore,14217.0,1500 Military Rd,42.9780464,-78.8858859,Microsoft,2024-03-25T19:49:57.280Z,0.77,,,,,,,,buffalo,False
86e0398e-145c-458e-934b-f104cbe153a3,Fastenal Fulfillment Center,building_supply_store,"['business_to_business', 'retail']",NY,Cheektowaga,14227.0,3244 Union Rd,42.9023958,-78.7553918,Microsoft,2024-03-25T19:46:20.090Z,0.77,,,,,,,,buffalo,False
91b68fcc-036d-439a-9af1-6d13af11411c,Fastenal Fulfillment Center,industrial_equipment,"['building_supply_store', 'b2b_machinery_and_tools', 'business_to_business', 'retail']",SC,North Charleston,29405.0,3870 Leeds Ave Ste 102,32.8448096,-80.015242,Microsoft,2024-03-25T19:46:20.090Z,0.77,,,,,,,,charleston,False
82c6e141-b869-4cc6-bcef-2c411f1cb491,Fastenal Fulfillment Center,hardware_store,"['industrial_company', 'commercial_industrial']",SC,North Charleston,29418.0,7178 Cross County Rd,32.9140461,-80.0677908,meta,2025-06-02T07:00:00.000Z,0.9415384615384615,7d688317-19da-463b-910a-8d31464ad9b0,,,,OpenStreetMap,2022-12-16T03:22:17.000Z,,charleston,False
f59d0101-b718-4e61-86c4-120f239b7766,Fastenal Fulfillment Center,shopping,"['construction_services', 'building_supply_store']",NC,Charlotte,28217.0,1022 Pressley Rd,35.1920548,-80.8942366,meta,2025-06-02T07:00:00.000Z,0.9415384615384615,,,,,,,,charlotte,False
58f3cdd0-7eab-4c78-bf2f-3c161547745b,Fastenal Fulfillment Center,hardware_store,"['industrial_equipment', 'commercial_industrial']",TN,Chattanooga,37416.0,3740 Powers Ct,35.0717382,-85.195913,meta,2025-06-02T07:00:00.000Z,0.9300613496932516,,,,,,,,chattanooga,False
47afc7b4-bf35-4849-a3a6-dc33aae7b477,Fastenal Fulfillment Center,building_supply_store,"['business_to_business', 'retail']",IL,Steger,60475.0,3333 Holeman Ave,41.47041,-87.6256814,Microsoft,2024-03-25T19:46:20.090Z,0.77,,,,,,,,chicago,False
8fd4c25a-d99b-4582-ae8d-fa67eaf2e52b,Fastenal Fulfillment Center,industrial_equipment,"['building_supply_store', 'b2b_machinery_and_tools', 'business_to_business', 'retail']",IL,Aurora,60506.0,770 Morton Ave,41.7721538,-88.335697,Microsoft,2024-03-25T19:46:20.090Z,0.77,,,,,,,,chicago,False
8549c4fc-f0dd-41f7-80aa-d7f4f7cb6f58,Fastenal,industrial_equipment,"['hardware_store', 'industrial_company']",IL,Joliet,60436.0,2020 McDonough St,41.5149322,-88.1325125,meta,2025-06-02T07:00:00.000Z,0.5662921348314607,275c277f-2a79-44e8-be01-79a6d1ef85b0,,industrial,industrial,OpenStreetMap,2024-07-01T03:24:32.000Z,,chicago,False
2aae7364-6e47-4eff-b272-a784132a301b,Fastenal Fulfillment Center,building_supply_store,"['business_to_business', 'retail']",IL,Woodridge,60517.0,10204 Werch Dr Unit 306,41.7013878,-88.0242092,Microsoft,2024-03-25T19:46:20.090Z,0.77,,,,,,,,chicago,False
fd7716c1-0e51-4c8d-b2c6-d101c54adc00,Fastenal Fulfillment Center,building_supply_store,"['business_to_business', 'retail']",IL,South Elgin,60177.0,250 Sundown Rd,42.0040325,-88.2976107,Microsoft,2024-03-25T19:46:20.090Z,0.77,,,,,,,,chicago,False
2c68e744-0c12-4ad7-aeb6-b9e68399d8eb,Fastenal Fulfillment Center,building_supply_store,"['business_to_business', 'retail']",IL,Lombard,60148.0,204 W North Ave,41.9047429,-88.0226677,Microsoft,2024-03-25T19:46:20.090Z,0.77,,,,,,,,chicago,False
cb85f011-cab7-44eb-8fe5-0bf51eaa194c,Fastenal Fulfillment Center,building_supply_store,"['business_to_business', 'retail']",IL,Elk Grove Village,60007.0,1371 Brummel Ave,42.016986,-87.96577,Microsoft,2024-06-20T15:30:22.940Z,0.77,11d2f321-412a-4620-99ae-0774c5c03b12,,industrial,industrial,OpenStreetMap,2016-03-15T03:19:37.000Z,,chicago,False
7e8b9fc3-9fbf-4f80-8705-dfd7975ee2c9,Fastenal Fulfillment Center,building_supply_store,"['business_to_business', 'retail']",IL,Buffalo Grove,60089.0,1094 Johnson Dr,42.1578306,-87.9345951,Microsoft,2024-03-25T19:46:20.090Z,0.77,,,,,,,,chicago,False
ec761d9c-e35f-4865-bf57-7eec651cf839,Fastenal Fulfillment Center,industrial_equipment,"['commercial_industrial', 'fast_food_restaurant']",IL,Tinley Park,60477.0,18450 W Creek Dr,41.5566687,-87.8022222,meta,2025-06-02T07:00:00.000Z,0.909823677581864,,,,,,,,chicago,False
8e23aac0-aa02-4220-9473-2ba573a949eb,Fastenal Company,industrial_equipment,"['hardware_store', 'industrial_company']",IL,Posen,60469.0,2555 W Veterans Dr,41.6254778,-87.6833753,meta,2025-06-02T07:00:00.000Z,0.3961437335670464,abcd19ef-0e41-49c5-9898-4996d3f19f54,,,,OpenStreetMap,2023-10-24T11:00:16.000Z,,chicago,True
4c637b3c-b28d-4f93-82f0-b10136bd5df8,Fastenal,industrial_equipment,"['hardware_store', 'shopping']",IN,East Chicago,46312.0,1301 W Chicago Ave,41.6290417,-87.4879642,meta,2025-06-02T07:00:00.000Z,0.9784508333782836,,,,,,,,chicago,False
bec679ab-cff1-4b96-9e19-c3950ff5d10c,Fastenal Fulfillment Center,building_supply_store,"['business_to_business', 'retail']",IN,Hobart,46342.0,1601 W 37th Ave,41.5510927,-87.2806055,Microsoft,2024-03-25T19:46:20.090Z,0.77,,,,,,,,chicago,False
9805593c-cc3c-4399-9881-a1394648e58f,Fastenal Fulfillment Center,building_supply_store,"['business_to_business', 'retail']",IL,Broadview,60155.0,2427 Braga Dr,41.8583139,-87.8610198,Microsoft,2024-03-25T19:46:20.090Z,0.77,,,,,,,,chicago,False
bd678128-335d-4639-b818-24a067810182,Fastenal Fulfillment Center,business_manufacturing_and_supply,,IL,Chicago,60608.0,1200 W Cermak Rd,41.8529165,-87.6564564,meta,2025-06-02T07:00:00.000Z,0.8860580325548478,c81a972d-e539-48c3-921e-2ba4e445117e,,industrial,industrial,OpenStreetMap,2021-01-21T06:15:17.000Z,,chicago,False
309cee85-252f-4f47-88ed-76f335345a50,Fastenal Fulfillment Center,building_supply_store,"['business_to_business', 'retail']",IL,Chicago,60608.0,1200 W Cermak Rd,41.8535587,-87.6562958,Microsoft,2024-03-25T19:46:20.090Z,0.77,,,,,,,,chicago,False
8d6fc82a-db99-4118-ac8d-c1e4015e8365,Fastenal Company,industrial_equipment,"['industrial_company', 'commercial_industrial']",IL,Niles,60714.0,6291 W Howard St,42.018248,-87.7852427,meta,2025-06-02T07:00:00.000Z,0.3961437335670464,d61a3aa5-4a76-47fc-b8ce-26c6f9e1cb47,Howard Commmons,commercial,office,OpenStreetMap,2021-03-06T11:44:08.000Z,,chicago,True
c34c08b3-3758-4c86-ada6-7fdaa97088ad,Fastenal Fulfillment Center,industrial_equipment,"['building_supply_store', 'b2b_machinery_and_tools', 'business_to_business', 'retail']",IL,Lake Zurich,60047.0,1162 Flex Ct,42.2110436,-88.0670356,Microsoft,2024-03-25T19:46:20.090Z,0.77,,,,,,,,chicago,False
7af15f3e-d37b-401d-a6f4-af8b5bd86c17,Fastenal Fulfillment Center,industrial_equipment,"['hardware_store', 'commercial_industrial']",IL,Waukegan,60085.0,1187 Northpoint Blvd,42.3376625,-87.8872633,meta,2025-06-02T07:00:00.000Z,0.909823677581864,,,,,,,,chicago,False
fcabe7f9-64cb-41a6-b1ff-d3b0cbd896ff,Fastenal Fulfillment Center,building_supply_store,"['business_to_business', 'retail']",KY,Erlanger,41018.0,1390 Donaldson Rd Ste L,39.0394856,-84.6345977,Microsoft,2024-03-25T19:46:20.090Z,0.77,,,,,,,,cincinnati,False
a59126a3-67e0-4ebd-8f00-95dd86d03258,Fastenal Fulfillment Center,industrial_equipment,"['building_supply_store', 'b2b_machinery_and_tools', 'business_to_business', 'retail']",OH,Cincinnati,45203.0,1212 Gest St,39.1068666,-84.5361433,Microsoft,2024-03-25T19:46:20.090Z,0.77,,,,,,,,cincinnati,False
0798afda-024b-4153-a100-1cfcc70eb38a,Fastenal Company,industrial_equipment,"['commercial_industrial', 'industrial_company']",OH,Mason,45040.0,1065 Reading Rd,39.340173,-84.341153,meta,2025-06-02T07:00:00.000Z,0.242152466367713,ff2b23ef-562d-4bdd-bb9f-669eca94a783,,,,OpenStreetMap,2009-05-27T07:45:39.000Z,,cincinnati,True
a389cf69-a2f2-489e-ae26-b9b2b8a9b88c,Fastenal Company,industrial_equipment,"['industrial_company', 'commercial_industrial']",OH,Middleburg Heights,44130.0,6925 Engle Rd,41.378745,-81.823587,meta,2025-06-02T07:00:00.000Z,0.242152466367713,e331bedb-7957-4cc4-85aa-4381b5190d84,,,,OpenStreetMap,2025-05-28T20:22:21.000Z,,cleveland,True
4a2eac42-de1e-4a4f-9379-8b1aba0de83c,Fastenal Fulfillment Center,building_supply_store,"['business_to_business', 'retail']",OH,Macedonia,44056.0,9100 Valley View Rd Unit C D,41.2993735,-81.4912383,Microsoft,2024-03-25T19:46:20.090Z,0.77,,,,,,,,cleveland,False
28eb6453-e800-4471-912d-584197b765f8,Fastenal Company,industrial_equipment,['industrial_company'],OH,Bedford Heights,44128.0,23196 Miles Rd,41.423872,-81.515999,meta,2025-06-02T07:00:00.000Z,0.3376623376623376,806fcc34-5afe-4f66-8710-b30ae078b5c4,,,,OpenStreetMap,2022-06-06T18:58:11.000Z,,cleveland,True
72ab8876-c7d5-40d4-b87a-f3f5139e5738,Fastenal Company,industrial_equipment,"['hardware_store', 'industrial_company']",OH,Wickliffe,44092.0,29231 Euclid Ave,41.605757,-81.475248,meta,2025-06-02T07:00:00.000Z,0.242152466367713,718c99a7-2f69-4665-bc6a-1c35a4e05d9b,,commercial,retail,OpenStreetMap,2024-07-02T16:19:01.000Z,,cleveland,True
eaf96f23-0599-472d-b3ab-bd23ea363620,Fastenal Fulfillment Center,industrial_equipment,"['commercial_industrial', 'fast_food_restaurant']",CO,Colorado Springs,80907.0,4127 Sinton Rd,38.8904481,-104.8323195,meta,2025-06-02T07:00:00.000Z,0.9204819277108434,,,,,,,,colorado-springs,False
db82f3ff-e8cc-428f-a316-c5b2dbf3511c,Fastenal Company,commercial_industrial,"['industrial_equipment', 'industrial_company']",CO,Colorado Springs,80915.0,1491 Tuskegee Pl,38.854706,-104.714066,meta,2025-06-02T07:00:00.000Z,0.2456896551724137,,,,,,,,colorado-springs,True
d0d75cc0-0808-4cee-b4d2-3f52f316e262,Fastenal Company,industrial_equipment,"['commercial_industrial', 'industrial_company']",SC,Columbia,29201.0,1601 Shop Rd,33.969141,-81.005451,meta,2025-06-02T07:00:00.000Z,0.4929396662387676,3fdd8824-b5f3-4925-a483-fd8f07e1ad36,,,,OpenStreetMap,2017-12-10T14:39:32.000Z,,columbia-south-carolina,True
ba7f7fca-a04b-4d10-8a9e-66f21357e1c0,Fastenal Fulfillment Center,industrial_equipment,"['building_supply_store', 'b2b_machinery_and_tools', 'corporate_office', 'business_to_business', 'private_establishments_and_corporates', 'retail']",SC,Columbia,29201.0,1601 Shop Rd Ste J,33.9694596,-81.0047006,Microsoft,2024-03-25T19:46:20.090Z,0.77,,,,,,,,columbia-south-carolina,True
caec1887-8c5f-4dd7-93f4-0177264b73bc,Fastenal Fulfillment Center - Appointment Only,industrial_equipment,"['building_supply_store', 'b2b_machinery_and_tools', 'business_to_business', 'retail']",CA,Concord,94520.0,2441 Sprig Ct Ste F,38.013231,-122.030767,Microsoft,2024-03-25T19:46:20.090Z,0.77,977a0a9e-0a1a-43ee-9742-85f2682b0adb,,,,OpenStreetMap,2018-06-28T19:34:33.000Z,,concord,False
314cd3d0-1cc3-4846-b900-24fa3b3eb4bf,Fastenal Fulfillment Center,building_supply_store,"['business_to_business', 'retail']",TX,Corpus Christi,78408.0,5729 Leopard St,27.797648,-97.4718361,Microsoft,2024-03-25T19:46:20.090Z,0.77,,,,,,,,corpus-christi,False
a3935f84-2327-448f-9e37-6e5eff3e8aaf,Fastenal Fulfillment Center,building_supply_store,"['business_to_business', 'retail']",TX,Grand Prairie,75050.0,2214 Paddock Way #200,32.7895735,-97.0553281,Microsoft,2024-03-25T19:46:20.090Z,0.77,,,,,,,,dallas,False
eaabefc4-3996-4d07-ba12-7efbfac64e46,Fastenal Company,industrial_equipment,"['commercial_industrial', 'industrial_company']",TX,Grapevine,76051.0,1240 Texan Trl,32.929741,-97.062411,meta,2025-06-02T07:00:00.000Z,0.296943231441048,11d1fdfe-0c84-4c53-8111-8934c9449310,,,,OpenStreetMap,2018-12-06T18:39:02.000Z,,dallas,True
ad4305ab-50cf-4272-b60a-fc57fa276953,Fastenal Fulfillment Center,building_supply_store,"['business_to_business', 'retail']",TX,Dallas,75237.0,5565 Red Bird Center Dr Ste 140,32.6788636,-96.8802283,Microsoft,2024-03-25T19:46:20.090Z,0.77,,,,,,,,dallas,False
1b737e13-4820-4d0f-8907-0347099fa13b,Fastenal Fulfillment Center,industrial_equipment,"['building_supply_store', 'b2b_machinery_and_tools', 'business_to_business', 'retail']",TX,Carrollton,75006.0,1605 Crescent Cir Ste 180,32.9603913,-96.9180691,Microsoft,2024-03-25T19:46:20.090Z,0.77,,,,,,,,dallas,False
4240eb38-74d9-4210-9241-bec619716415,Fastenal Fulfillment Center,industrial_equipment,"['building_supply_store', 'b2b_machinery_and_tools', 'business_to_business', 'retail']",TX,Dallas,75238.0,10362 Miller Rd,32.8944295,-96.7068575,Microsoft,2024-03-25T19:46:20.090Z,0.77,,,,,,,,dallas,False
a20e8565-0ad4-48e9-8acb-4b232a336bad,Fastenal Fulfillment Center,building_supply_store,"['business_to_business', 'retail']",TX,Dallas,75227.0,8311 Eastpoint Dr Ste 300,32.7842316,-96.6772633,Microsoft,2024-03-25T19:46:20.090Z,0.77,,,,,,,,dallas,False
c48dac20-2a17-40d5-aafd-802170563e72,Fastenal Fulfillment Center,building_supply_store,"['coworking_space', 'business_to_business_services', 'business_to_business', 'retail']",OH,Dayton,45404.0,2314 Stanley Ave,39.788036,-84.172713,Microsoft,2024-04-02T16:04:06.240Z,0.77,caf62f35-6d72-4043-be4f-cf81c853dd34,,,,OpenStreetMap,2020-06-30T18:37:32.000Z,,dayton,True
eaabefc4-3996-4d07-ba12-7efbfac64e46,Fastenal Company,industrial_equipment,"['commercial_industrial', 'industrial_company']",TX,Grapevine,76051.0,1240 Texan Trl,32.929741,-97.062411,meta,2025-06-02T07:00:00.000Z,0.296943231441048,11d1fdfe-0c84-4c53-8111-8934c9449310,,,,OpenStreetMap,2018-12-06T18:39:02.000Z,,denton-lewisville,True
e413e3db-b065-4582-b147-f2c829e3dc36,Fastenal Fulfillment Center,industrial_equipment,"['building_supply_store', 'b2b_machinery_and_tools', 'business_to_business', 'retail']",TX,Denton,76205.0,1026 Shady Oaks Dr,33.1996468,-97.1187705,Microsoft,2024-03-25T19:46:20.090Z,0.77,5f8eb64c-c3bb-4b21-8d52-c293055e2586,Fastenal Fulfillment Center,commercial,warehouse,OpenStreetMap,2022-06-14T10:22:05.000Z,,denton-lewisville,False
1b737e13-4820-4d0f-8907-0347099fa13b,Fastenal Fulfillment Center,industrial_equipment,"['building_supply_store', 'b2b_machinery_and_tools', 'business_to_business', 'retail']",TX,Carrollton,75006.0,1605 Crescent Cir Ste 180,32.9603913,-96.9180691,Microsoft,2024-03-25T19:46:20.090Z,0.77,,,,,,,,denton-lewisville,False
0ea8412f-5e83-4722-8092-de25e6789b33,Fastenal,industrial_equipment,"['building_supply_store', 'b2b_machinery_and_tools', 'business_to_business', 'retail']",CO,Denver,80223.0,2300 W 2nd Ave Unit B,39.7202566,-105.0141251,Microsoft,2024-03-25T19:49:57.280Z,0.77,,,,,,,,denver,False
ffa07727-1fc8-4e5e-a510-ea40d47d907e,Fastenal,industrial_equipment,"['building_supply_store', 'b2b_machinery_and_tools', 'business_to_business', 'retail']",CO,Denver,80216.0,5641 Washington St,39.7990792,-104.9782249,Microsoft,2024-03-25T19:49:57.280Z,0.77,,,,,,,,denver,False
0ab0987a-2886-41cb-b148-cee39ec984db,Fastenal Fulfillment Center,industrial_equipment,"['building_supply_store', 'b2b_machinery_and_tools', 'business_to_business', 'retail']",CO,Westminster,80021.0,"10855 Dover St, Suite 1100-1200",39.8941854,-105.0945958,Microsoft,2024-03-25T19:46:20.090Z,0.77,,,,,,,,denver,False
d630e027-8bbe-441f-8fec-ad7d6b1c8f45,Fastenal Fulfillment Center,industrial_equipment,"['building_supply_store', 'b2b_machinery_and_tools', 'business_to_business', 'retail']",CO,Denver,80239.0,12330 E 46th Ave Ste 800,39.7779919,-104.8447213,Microsoft,2024-03-25T19:46:20.090Z,0.77,,,,,,,,denver,False
047e74aa-844f-4737-9ad8-54ce852b9ad3,Fastenal Company,hardware_store,"['industrial_equipment', 'commercial_industrial']",IA,Urbandale,50322.0,10892 Douglas Ave,41.628107,-93.766673,meta,2025-06-02T07:00:00.000Z,0.3961437335670464,169347a2-5ade-4263-8657-85000fc7520b,,,,OpenStreetMap,2017-10-09T16:15:29.000Z,,des-moines,True
b0a1b40c-f8e1-45ee-bd91-b3b0b1450f75,Fastenal Fulfillment Center,industrial_equipment,"['building_supply_store', 'b2b_machinery_and_tools', 'business_to_business', 'retail']",MI,Westland,48185.0,37820 Ford Rd,42.3238931,-83.412736,Microsoft,2024-03-25T19:46:20.090Z,0.77,,,,,,,,detroit,False
99ced65e-752c-4f3d-bbd7-20ce345ae89f,Fastenal Fulfillment Center,hardware_store,"['industrial_equipment', 'commercial_industrial']",MI,Taylor,48180.0,13097 Huron Ave,42.2121139,-83.2346182,meta,2025-06-02T07:00:00.000Z,0.9784508333782836,da6c4ae6-7e6b-455f-bab7-887defb80c28,Fastenal,,,OpenStreetMap,2022-05-10T20:30:03.000Z,,detroit,False
e4488f12-6694-4eff-9231-ade2e2322941,Fastenal Canada,industrial_equipment,"['b2b_machinery_and_tools', 'business_to_business']",ON,Windsor,904.0,100-5815 Outer Dr,42.2316626,-82.9863877,Microsoft,2023-08-28T15:44:55.777Z,0.77,,,,,,,,detroit,False
79653e50-9bef-4b3a-a540-40b5424f4fb8,Fastenal Fulfillment Center,industrial_equipment,"['building_supply_store', 'b2b_machinery_and_tools', 'business_to_business', 'retail']",MI,Auburn Hills,48326.0,1139 Centre Rd,42.6558748,-83.2490478,Microsoft,2024-03-25T19:46:20.090Z,0.77,,,,,,,,detroit,False
899b55bc-6d2f-4e19-be31-d58c08ce71a6,Fastenal Company,industrial_equipment,"['real_estate', 'industrial_company']",MI,Rochester Hills,48309.0,1855 Northfield Dr,42.638401,-83.16666,meta,2025-06-02T07:00:00.000Z,0.242152466367713,3948c36a-e022-45dc-beba-093147c18077,,,,OpenStreetMap,2024-05-10T14:30:21.000Z,,detroit,True
e3bcd8c5-5c0d-4822-80b4-5b8004e8f263,Fastenal Company,industrial_equipment,"['commercial_industrial', 'real_estate']",MI,Sterling Heights,48312.0,37070 Van Dyke Ave,42.5691256,-83.027928,meta,2025-06-02T07:00:00.000Z,0.3961437335670464,b0180b6e-60f5-4b82-9a3d-cab2e35ad4a0,Fastenal,,,OpenStreetMap,2024-12-01T17:19:05.000Z,,detroit,True
fc452b8f-f732-40ba-8b55-d4e3d01a63a9,Fastenal Canada,industrial_equipment,"['commercial_industrial', 'industrial_company']",ON,Windsor,821.0,5850 Rhodes Dr,42.2887155,-82.9429126,meta,2025-06-02T07:00:00.000Z,0.9297091412742382,,,,,,,,detroit,False
dc295fa4-7ef5-4f13-b6af-84241a6e1d6a,Fastenal Fulfillment Center,industrial_equipment,"['building_supply_store', 'b2b_machinery_and_tools', 'business_to_business', 'retail']",MI,Fraser,48026.0,34500 Bennett Dr,42.5514412,-82.9383474,Microsoft,2024-03-25T19:46:20.090Z,0.77,,,,,,,,detroit,False
9f3df44c-cd45-4428-95a3-eb11f1626b51,Fastenal Fulfillment Center,building_supply_store,"['business_to_business', 'retail']",TX,El Paso,79915.0,927 Tony Lama / Suite A-B,31.7635998,-106.376069,Microsoft,2024-03-25T19:46:20.090Z,0.77,,,,,,,,el-paso,False
ca1d4d40-c274-4a6e-95d6-67f0e28c7e43,Fastenal Fulfillment Center,industrial_equipment,"['building_supply_store', 'b2b_machinery_and_tools', 'business_to_business', 'retail']",NC,Fayetteville,28301.0,502 S Eastern Blvd.,35.0412717,-78.8665512,Microsoft,2024-03-25T19:46:20.090Z,0.77,,,,,,,,fayetteville,False
7ad1f2b8-6762-4293-b3cd-86b09b3dccf3,Fastenal,industrial_equipment,"['building_supply_store', 'b2b_machinery_and_tools', 'business_to_business', 'retail']",IN,Fort Wayne,46804.0,4105 Engleton Dr,41.0463617,-85.194381,Microsoft,2024-03-25T19:49:57.280Z,0.77,,,,,,,,fort-wayne,False
ceb29de1-eafb-419f-b5f5-52ab5ea440fa,Fastenal,industrial_equipment,"['building_supply_store', 'b2b_machinery_and_tools', 'business_to_business', 'retail']",IN,Fort Wayne,46808.0,1928 W Coliseum Blvd,41.1177911,-85.167707,Microsoft,2024-03-25T19:49:57.280Z,0.77,,,,,,,,fort-wayne,False
8e097527-ce96-417c-ab3c-ab89f34fa8fc,Fastenal Fulfillment Center,industrial_equipment,"['building_supply_store', 'b2b_machinery_and_tools', 'business_to_business', 'retail']",TX,Fort Worth,76140.0,1400 Everman Pkwy Ste 180,32.6274036,-97.3079405,Microsoft,2024-03-25T19:46:20.090Z,0.77,,,,,,,,fort-worth,False
c5d506c2-d377-45aa-a47a-16d096708255,Fastenal Fulfillment Center,hardware_store,"['commercial_industrial', 'industrial_equipment']",TX,Fort Worth,76106.0,500 Railhead Rd,32.8357546,-97.3481747,meta,2025-06-02T07:00:00.000Z,0.9415384615384615,,,,,,,,fort-worth,False
f9727982-ecf5-4e23-ac69-cee3f6fe59f0,Fastenal Company,commercial_industrial,"['industrial_company', 'industrial_equipment']",CA,Fresno,93706.0,3204 E Garrett Ave,36.707363,-119.77085,meta,2025-06-02T07:00:00.000Z,0.3376623376623376,,,,,,,,fresno,True
599c653c-5c7f-4251-ad55-fdc75529abd4,Fastenal Fulfillment Center,industrial_equipment,"['building_supply_store', 'b2b_machinery_and_tools', 'hydraulic_equipment_supplier', 'business_equipment_and_supply', 'business_to_business', 'retail']",MI,Wyoming,49548.0,403 44th St SW,42.8842079,-85.6749971,Microsoft,2024-03-25T19:46:20.090Z,0.77,,,,,,,,grand-rapids,False
4f2005d3-9ff6-4478-a060-e175e3561236,Fastenal Fulfillment Center,industrial_equipment,"['building_supply_store', 'b2b_machinery_and_tools', 'business_to_business', 'retail']",MI,Caledonia,49316.0,"6155 E Paris, Ste 250",42.852165,-85.567939,Microsoft,2023-11-28T16:45:02.580Z,0.77,c58abd6a-a5ec-419b-b5ef-430405103fb6,,,,Microsoft ML Buildings,2022-11-07T00:00:00.000Z,,grand-rapids,False
f7fb0f37-c9d4-4c91-8241-7ea9b386feb3,Fastenal Company,industrial_equipment,"['professional_services', 'shopping']",MI,Kentwood,49512.0,4425 44th St SE,42.884042,-85.556152,meta,2025-06-02T07:00:00.000Z,0.3961437335670464,5bb4cc26-5621-4877-9fb3-d9c629dce091,,,,OpenStreetMap,2015-06-12T22:39:54.000Z,,grand-rapids,True
db757f38-8ad8-45f8-8c34-34c180d5fa29,Fastenal Fulfillment Center,building_supply_store,"['business_to_business', 'retail']",MI,Walker,49544.0,2204 Turner Ave Ste C,43.0031691,-85.6786518,Microsoft,2024-03-25T19:46:20.090Z,0.77,,,,,,,,grand-rapids,False
1d923910-950c-44de-b2a3-ed56e8251dde,Fastenal,industrial_equipment,"['freight_and_cargo_service', 'commercial_industrial']",NC,High Point,27265.0,4110 Premier Dr,36.0373587,-79.9552204,meta,2025-06-02T07:00:00.000Z,0.3961437335670464,4f294119-e600-418a-bac5-8804dd4f27a2,,,,OpenStreetMap,2016-06-18T20:01:06.000Z,,greensboro,False
1394d765-bbce-442d-b781-bdd4ed1457c0,Fastenal Fulfillment Center,building_supply_store,"['business_to_business', 'retail']",NC,Greensboro,27409.0,1140 Tarrant Rd,36.0509289,-79.9415203,Microsoft,2024-03-25T19:46:20.090Z,0.77,,,,,,,,greensboro,False
b91ca363-a511-49dd-85c0-9e09e16d975e,Fastenal Company,industrial_equipment,"['commercial_industrial', 'industrial_company']",NC,Greensboro,27409.0,12 Wendy Ct,36.075172,-79.89549,meta,2025-06-02T07:00:00.000Z,0.242152466367713,,,,,,,,greensboro,True
5d0eda10-8507-4711-9fd8-39da9138b1e0,Fastenal Company,industrial_equipment,"['building_supply_store', 'wholesale_store']",NC,Greensboro,27405.0,1007 Arnold St,36.085873,-79.768564,meta,2025-06-02T07:00:00.000Z,0.2456896551724137,726510c5-81be-4b9f-80a0-fecbacc763fb,,,,OpenStreetMap,2020-11-24T22:36:28.000Z,,greensboro,True
113681b5-6cd4-4256-8074-c30eeaa02582,Fastenal Fulfillment Center,building_supply_store,"['business_to_business', 'retail']",PA,Mechanicsburg,17055.0,4700 Westport Dr Ste 1700,40.2069365,-76.9554331,Microsoft,2024-03-25T19:46:20.090Z,0.77,,,,,,,,harrisburg,False
38d485fd-c124-4cfd-a45b-86f9d5f07b05,Fastenal Company,industrial_equipment,"['building_supply_store', 'commercial_industrial']",PA,Harrisburg,17111.0,1015 Eisenhower Blvd,40.236567,-76.804687,meta,2025-06-02T07:00:00.000Z,0.2456896551724137,4a8d8914-ecfe-424e-88e9-618f3c124655,,,,Microsoft ML Buildings,2020-11-07T00:00:00.000Z,,harrisburg,True
ba9954c6-bf8c-4b5b-afb6-14595758eb55,Fastenal Fulfillment Center,building_supply_store,"['business_to_business', 'retail']",PA,Harrisburg,17111.0,7561 Derry St Ste A,40.2662473,-76.7578383,Microsoft,2024-03-25T19:46:20.090Z,0.77,,,,,,,,harrisburg,False
fa150341-21bc-493c-921e-480923fcc54c,Fastenal Fulfillment Center,building_supply_store,"['business_to_business', 'retail']",CT,Bristol,6010.0,44 Dell Manor Dr,41.650364,-72.9079895,Microsoft,2024-03-25T19:46:20.090Z,0.77,,,,,,,,hartford,False
0f9e2c30-6187-4a9d-8d0f-ab85ca6deaf1,Fastenal Fulfillment Center,industrial_equipment,"['industrial_company', 'commercial_industrial']",CT,Cromwell,6416.0,199 Shunpike Rd,41.627011,-72.6769434,meta,2025-06-02T07:00:00.000Z,0.909823677581864,f7782321-9ddb-47a8-a553-fbe131fdf99e,,,,OpenStreetMap,2021-07-06T02:11:52.000Z,,hartford,False
d464ab3d-c8c3-432b-ad59-6bc3b1becf20,Fastenal Fulfillment Center,building_supply_store,"['business_to_business', 'retail']",CT,Hartford,6114.0,230 Murphy Rd,41.7368482,-72.6542285,Microsoft,2024-03-25T19:46:20.090Z,0.77,,,,,,,,hartford,False
0a9f0f58-acc6-418c-9f0b-39f89485e31d,Fastenal Company,industrial_equipment,['industrial_company'],CT,East Hartford,6108.0,210 Roberts St,41.771277,-72.615051,meta,2025-06-02T07:00:00.000Z,0.242152466367713,830421d8-d56c-4542-aac1-30759896e466,,,,OpenStreetMap,2021-08-28T19:40:58.000Z,,hartford,True
76202cc2-6c8c-49fa-af31-763fc82d8e7f,Fastenal Fulfillment Center,industrial_equipment,"['building_supply_store', 'b2b_machinery_and_tools', 'business_to_business', 'retail']",CT,Bloomfield,6002.0,81 Old Windsor Rd Ste A,41.861104,-72.6938252,Microsoft,2024-03-25T19:46:20.090Z,0.77,,,,,,,,hartford,False
955a2d59-bc9c-40d3-a67c-17324cb972b3,Fastenal Fulfillment Center,building_supply_store,"['business_to_business', 'retail']",TX,Katy,77494.0,27021 Highway Blvd,29.7858671,-95.8406095,Microsoft,2024-03-25T19:46:20.090Z,0.77,,,,,,,,houston,False
9197f659-2608-41f5-90fc-6fbceff6c979,Fastenal Company,industrial_equipment,"['commercial_industrial', 'industrial_company']",TX,Katy,77493.0,818 Avenue B,29.786667,-95.822044,meta,2025-06-02T07:00:00.000Z,0.242152466367713,d35c4101-1210-4f45-b419-406d55319d2e,,,,OpenStreetMap,2020-04-02T06:14:35.000Z,,houston,True
41542888-5fef-4d98-9cc4-0f07e2f4dce2,Fastenal Fulfillment Center,building_supply_store,"['business_to_business', 'retail']",TX,Alvin,77511.0,250 Victory Lane Ste A,29.4519106,-95.243873,Microsoft,2024-03-25T19:46:20.090Z,0.77,,,,,,,,houston,False
99bee763-ac8f-4803-baac-cc40372779ec,Fastenal Fulfillment Center,building_supply_store,"['business_to_business', 'retail']",TX,Stafford,77477.0,3723 Greenbriar Dr,29.6328576,-95.5665007,Microsoft,2024-03-25T19:46:20.090Z,0.77,,,,,,,,houston,False
00529efc-0b18-40f0-8635-c1caf7f674f7,Fastenal Fulfillment Center,industrial_equipment,"['building_supply_store', 'b2b_machinery_and_tools', 'business_to_business', 'retail']",TX,Houston,77087.0,6276 Brookhill Dr,29.6981578,-95.3188742,Microsoft,2024-01-25T16:29:06.917Z,0.77,7ba5d5d0-026c-4925-bfd2-38cdc8137672,,,,OpenStreetMap,2018-07-15T11:19:38.000Z,,houston,False
7d20b2d0-925b-4821-af2e-694453549c00,Fastenal Company,industrial_equipment,"['commercial_industrial', 'industrial_company']",TX,Houston,77092.0,4808 Dacoma St,29.80718,-95.461578,meta,2025-06-02T07:00:00.000Z,0.242152466367713,560abb00-7402-4b99-96af-42f44b16e69f,,,,OpenStreetMap,2025-02-03T21:41:02.000Z,,houston,True
c7155cd4-ea0a-4f66-88d1-114472219aa5,Fastenal Fulfillment Center,industrial_equipment,"['building_supply_store', 'b2b_machinery_and_tools', 'business_to_business', 'retail']",TX,Houston,77040.0,7720 Pinemont Dr,29.8413183,-95.5076647,Microsoft,2024-03-25T19:46:20.090Z,0.77,,,,,,,,houston,False
1d2d5465-57b7-4dc1-b88b-8d19a7c8dfc0,Fastenal Company,industrial_equipment,"['commercial_industrial', 'hardware_store']",TX,Houston,77040.0,7720 Pinemont Dr,29.8418698,-95.5076846,meta,2025-06-02T07:00:00.000Z,0.3961437335670464,c79a83e0-6cc1-40f1-be28-c35087c3b757,,,,OpenStreetMap,2020-09-17T21:48:31.000Z,,houston,True
decf3b5b-25a1-4832-bbaf-c2e01958b873,Fastenal Company,industrial_equipment,"['commercial_industrial', 'industrial_company']",TX,Houston,77017.0,9197 Winkler Dr,29.671808,-95.252796,meta,2025-06-02T07:00:00.000Z,0.4929396662387676,6df0080f-2503-44a6-979f-f43217e60f18,,,,OpenStreetMap,2025-03-28T01:58:00.000Z,,houston,True
9bf0ecf3-5fe5-412d-825a-54491c524e0d,Fastenal Company,industrial_equipment,"['commercial_industrial', 'industrial_company']",TX,La Porte,77571.0,2102 S Battleground Rd,29.6935509,-95.0924007,meta,2025-06-02T07:00:00.000Z,0.3961437335670464,,,,,,,,houston,True
1ff49731-299b-4c96-be77-b9dcd2f15593,Fastenal Fulfillment Center,building_supply_store,"['business_to_business', 'retail']",TX,La Porte,77571.0,2102 S Battleground Rd,29.6938116,-95.0921748,Microsoft,2024-03-25T19:46:20.090Z,0.77,,,,,,,,houston,False
c7e05aa2-3292-4c8b-b965-eebd3f371ef0,Fastenal Company,industrial_equipment,"['commercial_industrial', 'industrial_company']",TX,Houston,77015.0,12636 Market St Rd,29.7670233,-95.2112216,meta,2025-06-02T07:00:00.000Z,0.3961437335670464,,,,,,,,houston,True
d321f34c-3b26-4498-8093-ff60d9f3ed15,Fastenal Fulfillment Center,industrial_equipment,"['building_supply_store', 'b2b_machinery_and_tools', 'business_to_business', 'retail']",TX,Houston,77015.0,12636 Market St.,29.7672274,-95.2112142,Microsoft,2024-03-25T19:46:20.090Z,0.77,,,,,,,,houston,False
d72c0275-0541-4edc-89cd-10b268974268,Fastenal Company,industrial_equipment,"['building_supply_store', 'commercial_industrial']",TX,Houston,77095.0,8615 Jackrabbit Rd,29.903576,-95.621465,meta,2025-06-02T07:00:00.000Z,0.242152466367713,6ee0eccb-4e10-4ac1-a996-74eafe164613,,commercial,commercial,OpenStreetMap,2018-03-18T08:08:55.000Z,,houston,True
3048fe76-416b-43bb-931d-3154ebebfb5b,Fastenal Fulfillment Center,industrial_equipment,"['building_supply_store', 'b2b_machinery_and_tools', 'business_to_business', 'retail']",TX,Houston,77066.0,11221 Cutten Road Building 6,29.9452915,-95.5170265,Microsoft,2024-03-25T19:46:20.090Z,0.77,,,,,,,,houston,False
ca3edbb0-0535-47e6-9745-52fa13f5f38e,Fastenal Company,industrial_equipment,"['commercial_industrial', 'industrial_company']",TX,Houston,77066.0,6836 Bourgeois Rd,29.951641,-95.52005,meta,2025-06-02T07:00:00.000Z,0.242152466367713,fed262f1-654e-43fc-9e79-bf4d6346216c,,,,Microsoft ML Buildings,2022-03-25T00:00:00.000Z,,houston,True
ba08fed1-2ec5-4da2-a7c3-6175c3a3c5f0,Fastenal Fulfillment Center,shopping,"['industrial_company', 'commercial_industrial']",TX,Houston,77060.0,425 Aldine Bender Rd,29.932255,-95.392316,meta,2025-06-02T07:00:00.000Z,0.9300613496932516,acbd01c3-e6d7-4ea9-9934-67be67a65e88,,,,OpenStreetMap,2020-08-26T18:50:08.000Z,,houston,False
bfa46b46-6d7a-4307-a12a-96643d7e4da4,Fastenal,business_manufacturing_and_supply,['hardware_store'],TX,Houston,77032.0,15009 Lee Rd,29.9362113,-95.3036449,meta,2025-06-02T07:00:00.000Z,0.9784508333782836,,,,,,,,houston,False
012a1e72-cd24-42b8-a74a-c9082a321f01,Fastenal Company,business,"['industrial_equipment', 'commercial_industrial']",AL,Huntsville,35806.0,111 Spacegate Dr NW,34.78427,-86.667051,meta,2025-06-02T07:00:00.000Z,0.2456896551724137,f5450327-de56-4301-a01a-c417524fac9e,,,,Microsoft ML Buildings,2021-12-02T00:00:00.000Z,,huntsville,True
15ba5738-b32b-4552-a326-9603328bbe64,Fastenal Fulfillment Center,industrial_equipment,"['building_supply_store', 'b2b_machinery_and_tools', 'business_to_business', 'retail']",IN,Greenwood,46143.0,11 Declaration Dr Ste Q,39.5830551,-86.1027781,Microsoft,2024-03-25T19:46:20.090Z,0.77,,,,,,,,indianapolis,False
1ab48326-ed13-409d-ba73-a11407ac0610,Fastenal Fulfillment Center,building_supply_store,"['business_to_business', 'retail']",IN,Indianapolis,46241.0,2330 Profit Dr,39.7339974,-86.2560573,Microsoft,2024-03-25T19:46:20.090Z,0.77,,,,,,,,indianapolis,False
91c9be02-3038-47dd-933b-7c371914075c,Fastenal Fulfillment Center,industrial_equipment,"['building_supply_store', 'b2b_machinery_and_tools', 'business_to_business', 'retail']",IN,Indianapolis,46202.0,930 W 16th St,39.7887124,-86.1761971,Microsoft,2024-03-25T19:46:20.090Z,0.77,,,,,,,,indianapolis,False
9daaa76a-5860-4d22-8ced-21bb48268e0f,Fastenal Company,industrial_equipment,"['industrial_company', 'real_estate']",IN,Indianapolis,46254.0,3939 W 56th St,39.8520501,-86.2281182,meta,2025-06-02T07:00:00.000Z,0.5662921348314607,ad4ae603-3813-4ae7-ac7f-d2d55d56f9ee,,,,OpenStreetMap,2023-01-01T04:58:16.000Z,,indianapolis,True
4b9791b9-74d3-4f8d-814d-1bb727234f19,Fastenal Indianapolis Distribution Center IHUB,professional_services,"['industrial_equipment', 'transportation']",IN,Indianapolis,46254.0,5851 Guion Rd,39.8590585,-86.2308631,meta,2025-06-02T07:00:00.000Z,0.7548172757475083,2dde1b36-472d-4bb3-aec0-6589404db324,,industrial,industrial,OpenStreetMap,2022-12-31T22:22:33.000Z,,indianapolis,False
c93a3a9b-3f00-4a17-86e7-ca298449671a,Fastenal Fulfillment Center,industrial_equipment,"['industrial_company', 'commercial_industrial']",IN,Indianapolis,46254.0,6003 Guion Rd,39.8626092,-86.2310383,meta,2025-06-02T07:00:00.000Z,0.9459263554653524,2717f3de-4cf1-4d8a-a7bf-6428380bdf67,,industrial,industrial,OpenStreetMap,2022-12-31T22:22:33.000Z,,indianapolis,False
20e8bcf2-0491-4f32-aca8-ce75d7d81b2a,Fastenal Fulfillment Center,industrial_equipment,"['building_supply_store', 'b2b_machinery_and_tools', 'business_to_business', 'retail']",IN,Noblesville,46060.0,14775 Herriman Blvd,40.0035788,-86.005648,Microsoft,2024-03-25T19:46:20.090Z,0.77,,,,,,,,indianapolis,False
5d9123a0-0f82-4114-814d-61139fc71696,Fastenal Fulfillment Center,industrial_equipment,"['industrial_company', 'commercial_industrial']",CA,Indio,92203.0,78078 Country Club Dr,33.7584714,-116.3006298,meta,2025-06-02T07:00:00.000Z,0.8860580325548478,1e53e51e-e0f3-456d-a42d-dbdaddc22438,,,,OpenStreetMap,2012-02-26T04:20:13.000Z,,indio,False
979ca452-3784-4f75-9dc2-962faa669572,Fastenal Fulfillment Center,building_supply_store,"['business_to_business', 'retail']",FL,Jacksonville,32257.0,9556 Historic Kings Rd S Unit 104,30.2040043,-81.5789128,Microsoft,2024-03-25T19:46:20.090Z,0.77,,,,,,,,jacksonville-florida,False
dd083210-034d-48b7-9bc1-f93ab08d5156,Fastenal Company,industrial_equipment,"['industrial_company', 'commercial_industrial']",FL,Jacksonville,32257.0,9556 S Historic Kings Rd,30.2048736,-81.5785052,meta,2025-06-02T07:00:00.000Z,0.4929396662387676,b2e3921c-9e17-465e-a90b-b89ee8f3b3ff,,,,OpenStreetMap,2021-03-19T23:36:58.000Z,,jacksonville-florida,True
07736da2-4f49-47e0-9e05-060b4a873264,Fastenal Fulfillment Center,building_supply_store,"['business_to_business', 'retail']",FL,Jacksonville,32220.0,201 Pickettville Rd,30.325903,-81.7706889,Microsoft,2024-03-25T19:46:20.090Z,0.77,,,,,,,,jacksonville-florida,False
56de3cb2-7de9-48c8-a5a5-b157c3dee34e,Fastenal Fulfillment Center,building_supply_store,"['business_to_business', 'retail']",FL,Jacksonville,32206.0,1408 Haines St,30.3406518,-81.6369918,Microsoft,2024-03-25T19:46:20.090Z,0.77,,,,,,,,jacksonville-florida,False
30e22a21-9df8-49e9-b9fe-b3622bd765e8,Fastenal Fulfillment Center,building_supply_store,"['business_to_business', 'retail']",KS,Lenexa,66215.0,14400 W 105th St Ste A,38.9399768,-94.7543099,Microsoft,2024-03-25T19:46:20.090Z,0.77,,,,,,,,kansas-city,False
66a96294-e89c-4fb9-ae37-d9f2e10ebc17,Fastenal Company,industrial_equipment,['industrial_company'],MO,Lee's Summit,64081.0,1224 SE Century Dr,38.896929,-94.358878,meta,2025-06-02T07:00:00.000Z,0.3961437335670464,2c97307f-f6ce-4e55-be9b-53f60479d031,,,,OpenStreetMap,2021-11-06T13:40:21.000Z,,kansas-city,True
d6f1e1b2-cd0c-4e62-95d3-4736d07ff598,Fastenal Fulfillment Center,industrial_equipment,"['building_supply_store', 'b2b_machinery_and_tools', 'business_to_business', 'retail']",MO,Lees Summit,64081.0,1201 SE Century Dr,38.897632,-94.358714,Microsoft,2024-07-29T12:56:46.750Z,0.77,,,,,,,,kansas-city,False
09cba85d-055c-4e69-b0eb-34614a7b22c1,Fastenal Fulfillment Center,building_supply_store,"['professional_sports_team', 'active_life', 'business_to_business', 'retail']",KS,Edwardsville,66111.0,9154 Woodend Rd Ste B,39.0509438,-94.796898,Microsoft,2024-03-25T19:46:20.090Z,0.77,,,,,,,,kansas-city,False
a95bcf73-c52e-41bd-896a-ac7a887b84d3,Fastenal Fulfillment Center,building_supply_store,['hardware_store'],KS,Kansas City,66103.0,1306 Adams St,39.0736778,-94.6138209,meta,2025-06-02T07:00:00.000Z,0.9300613496932516,d73818af-b377-45de-b0d3-882a109281d5,,,,OpenStreetMap,2017-08-05T07:17:28.000Z,,kansas-city,False
e0481b7d-b8a6-4f6b-ba7a-3fdd33c60038,Fastenal Fulfillment Center,industrial_equipment,"['commercial_industrial', 'industrial_company']",MO,Liberty,64068.0,2105 Kara Ct,39.251269,-94.4534943,meta,2025-06-02T07:00:00.000Z,0.9297091412742382,,,,,,,,kansas-city,False
7975a23c-5af4-4621-9017-f9ef206e7845,Fastenal Company,industrial_equipment,"['commercial_industrial', 'industrial_company']",FL,Kissimmee,34744.0,2520 Michigan Ave,28.320295,-81.39267,meta,2025-06-02T07:00:00.000Z,0.242152466367713,af48a5b4-ad7c-4b70-9368-6bb4b35f197b,,,,OpenStreetMap,2021-04-16T19:07:47.000Z,,kissimmee,True
764ea4e5-03ec-4c8b-adb9-0b5d2baa78ed,Fastenal Company,industrial_equipment,"['commercial_industrial', 'industrial_company']",TN,Knoxville,37909.0,3545 Papermill Dr NW,35.9603205,-83.967181,meta,2025-06-02T07:00:00.000Z,0.3961437335670464,,,,,,,,knoxville,True
e93f5e83-711c-4de8-94f1-19c39e51fb53,Fastenal Fulfillment Center,industrial_equipment,"['building_supply_store', 'b2b_machinery_and_tools', 'business_to_business', 'retail']",TN,Knoxville,37909.0,3545 Papermill Dr,35.9601586,-83.9670967,Microsoft,2024-03-25T19:46:20.090Z,0.77,,,,,,,,knoxville,False
581c9bca-70de-4f6b-a05b-4a98126bc224,Fastenal Fulfillment Center,building_supply_store,"['business_to_business', 'retail']",FL,Lakeland,33811.0,3711 Century Blvd Unit 1,27.9973268,-82.0112656,Microsoft,2024-03-25T19:46:20.090Z,0.77,,,,,,,,lakeland,False
f1b19b6f-d65b-40c5-9f4e-385ae4136a87,Fastenal Fulfillment Center - Appointment Only,building_supply_store,"['business_to_business', 'retail']",CA,Lancaster,93535.0,43145 Business Center Pkwy Ste 108,34.6674697,-118.1299026,Microsoft,2024-03-25T19:46:20.090Z,0.77,,,,,,,,lancaster-palmdale,False
0c8ac845-a1fc-4eaf-986a-e7d3b120a278,Fastenal Fulfillment Center,industrial_equipment,"['building_supply_store', 'b2b_machinery_and_tools', 'business_to_business', 'retail']",PA,Lancaster,17603.0,1771 Columbia Ave,40.038583,-76.352903,Microsoft,2025-02-17T14:45:54.810Z,0.77,5af56170-cac3-47cf-9d46-b733b4e15e29,,,,OpenStreetMap,2023-09-03T16:32:45.000Z,,lancaster,False
3002be35-65e1-4bdd-a726-9843daea0c8e,Fastenal,hardware_store,"['industrial_company', 'shopping']",PA,Lancaster,17601.0,135 Independence Ct,40.047873,-76.253041,meta,2025-06-02T07:00:00.000Z,0.3376623376623376,206fb9a6-e6af-4fe8-99b5-0b74aee756a2,,industrial,industrial,OpenStreetMap,2015-02-08T18:55:34.000Z,,lancaster,False
2c742b1c-d6d3-45a5-b576-f2f316c694a5,Fastenal Fulfillment Center,hardware_store,"['commercial_industrial', 'industrial_company']",MI,Lansing,48917.0,4212 S Creyts Rd,42.6895702,-84.6433672,meta,2025-06-02T07:00:00.000Z,0.9297091412742382,,,,,,,,lansing,False
70b38abc-dd3c-4f74-8f33-480156cace20,Fastenal Fulfillment Center,building_supply_store,"['business_to_business', 'retail']",TX,Laredo,78041.0,612 Amistad Dr,27.5532316,-99.4816949,Microsoft,2024-03-25T19:46:20.090Z,0.77,,,,,,,,laredo,False
a6d2e665-cee8-486f-9c03-0a3a7d86c8a8,Fastenal Company,industrial_equipment,"['hardware_store', 'industrial_company']",NV,Las Vegas,89118.0,6633 W Post Rd,36.0738,-115.236433,meta,2025-06-02T07:00:00.000Z,0.296943231441048,989b0a3d-c5f8-45e4-ae69-ca1a23931e02,,,,OpenStreetMap,2023-04-13T16:27:54.000Z,,las-vegas,True
4d2e0e8e-6b24-484e-9d87-37d10e9a8804,Fastenal Fulfillment Center,industrial_equipment,"['building_supply_store', 'b2b_machinery_and_tools', 'business_to_business', 'retail']",NV,Las Vegas,89118.0,4305 W Reno Ave,36.0972632,-115.1974107,Microsoft,2024-03-25T19:46:20.090Z,0.77,,,,,,,,las-vegas,False
9a00edf2-b9a4-4950-b538-f72f0bf23501,Fastenal Fulfillment Center,industrial_equipment,"['building_supply_store', 'b2b_machinery_and_tools', 'business_to_business', 'retail']",NV,North Las Vegas,89030.0,4310 Losee Rd Ste A3,36.2383441,-115.1167461,Microsoft,2024-03-25T19:46:20.090Z,0.77,,,,,,,,las-vegas,False
7e7f83e7-16f1-49b6-aab0-d2198fdc38ab,Fastenal Fulfillment Center,building_supply_store,"['business_to_business', 'retail']",AR,North Little Rock,72113.0,10300 Riverview Corporate Dr,34.8206428,-92.3745013,Microsoft,2024-03-25T19:46:20.090Z,0.77,,,,,,,,little-rock,False
3f220dab-4e11-4d3e-b36e-02a410697b05,Fastenal Fulfillment Center - Appointment Only,business_to_business,,CA,Irvine,92618.0,15801 Rockfield Blvd Ste /,33.6325773,-117.7186753,Microsoft,2024-03-25T19:46:20.090Z,0.77,65699092-cf3d-4922-8d1a-fbe569bf9902,,commercial,commercial,OpenStreetMap,2020-09-15T18:33:12.000Z,,los-angeles,False
5e7bafea-e92e-4a5c-93e9-076fa8b660fb,Fastenal Fulfillment Center - Appointment Only,building_supply_store,"['business_to_business', 'retail']",CA,Paramount,90723.0,14518 S Garfield Ave,33.90877658,-118.1691626,Microsoft,2024-03-25T19:46:20.090Z,0.77,,,,,,,,los-angeles,False
835965d4-5ade-40d5-b250-ae0e9bc5abc5,Fastenal Company,industrial_equipment,"['industrial_company', 'construction_services']",CA,Chatsworth,91311.0,9555 Owensmouth Ave,34.243908,-118.603328,meta,2025-06-02T07:00:00.000Z,0.3376623376623376,10f7f7ea-b455-4c6a-9aaf-5106264dc848,,commercial,warehouse,OpenStreetMap,2016-07-07T12:33:19.000Z,,los-angeles,True
4ee27198-d7a8-4176-9cec-577680a1953d,Fastenal,shopping,"['professional_services', 'hardware_store']",CA,Garden Grove,0.0,,33.7665984,-117.9498193,meta,2025-06-02T07:00:00.000Z,0.1666666666666666,6ad9b847-11fb-45a2-9277-21168b61d7cb,,,,OpenStreetMap,2017-04-09T23:37:23.000Z,,los-angeles,False
b70afea7-f4d0-4b0a-80b5-d578a7823e8a,Fastenal Fulfillment Center,industrial_equipment,"['construction_services', 'industrial_company']",CA,Garden Grove,92841.0,7052 Orangewood Ave,33.7953194,-118.0106497,meta,2025-06-02T07:00:00.000Z,0.9300613496932516,172326b8-7c20-4f84-9db8-d0e5aadeb9d1,,,,OpenStreetMap,2024-02-05T21:07:32.000Z,,los-angeles,False
930c89db-392b-4462-8fb7-b6690a43618a,Fastenal Fulfillment Center - Appointment Only,industrial_equipment,"['building_supply_store', 'b2b_machinery_and_tools', 'hydraulic_equipment_supplier', 'business_equipment_and_supply', 'business_to_business', 'retail']",CA,Whittier,90605.0,9905 Painter Ave Ste L M,33.9476586,-118.0485529,Microsoft,2024-03-25T19:46:20.090Z,0.77,,,,,,,,los-angeles,False
4053383d-d127-4650-acff-6ae111582475,Fastenal Company,industrial_equipment,"['commercial_industrial', 'industrial_company']",CA,City of Industry,91744.0,136 N California Ave,34.031815,-117.96883,meta,2025-06-02T07:00:00.000Z,0.296943231441048,d16aeedd-0bd1-4483-9929-bdf17d9e94de,,commercial,warehouse,OpenStreetMap,2017-01-31T13:19:41.000Z,,los-angeles,True
4053383d-d127-4650-acff-6ae111582475,Fastenal Company,industrial_equipment,"['commercial_industrial', 'industrial_company']",CA,City of Industry,91744.0,136 N California Ave,34.031815,-117.96883,meta,2025-06-02T07:00:00.000Z,0.296943231441048,21c4f8fa-cac2-498f-b340-2dc5723fbf92,,commercial,warehouse,OpenStreetMap,2017-01-31T13:19:36.000Z,,los-angeles,True
20f38102-75fa-4c3d-9c28-fe2563243904,Fastenal Fulfillment Center - Appointment Only,building_supply_store,"['business_to_business', 'retail']",CA,City Of Industry,91745.0,16725 E Johnson Dr,34.0018148,-117.9436817,Microsoft,2024-03-25T19:46:20.090Z,0.77,,,,,,,,los-angeles,False
707478c4-f816-460e-945e-922813d290ae,Fastenal Fulfillment Center - Appointment Only,building_supply_store,"['business_to_business', 'retail']",CA,Chino,91710.0,5171 Edison Ave Ste B,33.9972745,-117.6917059,Microsoft,2024-03-25T19:46:20.090Z,0.77,,,,,,,,los-angeles,False
3968867f-9747-4c9b-a993-d3283b949521,Fastenal Fulfillment Center,industrial_equipment,"['building_supply_store', 'b2b_machinery_and_tools', 'business_to_business', 'retail']",IN,Jeffersonville,47130.0,3319 Industrial Pkwy,38.3150322,-85.7499049,Microsoft,2024-03-25T19:46:20.090Z,0.77,,,,,,,,louisville,False
39f61ab5-fb5a-48cd-afab-7d1c89292149,Fastenal Fulfillment Center,building_supply_store,"['business_to_business', 'retail']",WI,Middleton,53562.0,2101 Eagle Dr,43.0973841,-89.5277535,Microsoft,2024-03-25T19:46:21.790Z,0.77,,,,,,,,madison,False
50819490-5d56-417a-a87d-22757ca1ee4e,Fastenal Fulfillment Center,building_supply_store,"['business_to_business', 'retail']",TN,Memphis,38118.0,4227 E Raines Rd,35.0370062,-89.9225402,Microsoft,2024-03-25T19:46:20.090Z,0.77,,,,,,,,memphis,False
734183d5-36d4-4fef-bf77-e19849dd46a2,Fastenal,building_supply_store,"['business_to_business', 'retail']",MS,Olive Branch,38654.0,8393 Industrial Dr,34.9856778,-89.8701783,Microsoft,2024-03-25T19:49:57.280Z,0.77,,,,,,,,memphis,False
be074b1a-5704-403e-9dfc-db5aa190d93f,Fastenal Fulfillment Center,industrial_equipment,"['building_supply_store', 'b2b_machinery_and_tools', 'business_to_business', 'retail']",TN,Memphis,38134.0,1801 Shelby Oaks Dr N Ste 22,35.1742668,-89.8568841,Microsoft,2024-03-25T19:46:20.090Z,0.77,,,,,,,,memphis,False
59ac6015-ad6c-4c32-ac1f-6a14d38e76d4,Fastenal Fulfillment Center,building_supply_store,"['business_to_business', 'retail']",FL,Florida City,33034.0,335 S Krome Ave,25.4437658,-80.4771239,Microsoft,2024-03-25T19:46:20.090Z,0.77,,,,,,,,miami,False
2e6f01d7-cac5-4f1e-a7fc-0b5376f06f5c,Fastenal Company,industrial_equipment,"['commercial_industrial', 'industrial_company']",FL,Miami,33142.0,3977 NW 25th St,25.79871,-80.26111,meta,2025-06-02T07:00:00.000Z,0.242152466367713,,,,,,,,miami,True
b603d49b-aabe-445a-8fab-6d486c220948,Fastenal Fulfillment Center,building_supply_store,"['business_to_business', 'retail']",FL,Miami,33142.0,1860 NW 21st Ter,25.7965071,-80.2264221,Microsoft,2024-03-25T19:46:20.090Z,0.77,,,,,,,,miami,False
320ac66d-7ef7-4190-aad6-51f1e68e56de,Fastenal Fulfillment Center,industrial_equipment,"['building_supply_store', 'b2b_machinery_and_tools', 'business_to_business', 'retail']",FL,Medley,33166.0,8200 NW 93rd St Ste 3,25.85797,-80.331145,Microsoft,2024-03-25T19:46:20.090Z,0.77,,,,,,,,miami,False
4cdf1b23-266c-415b-9e75-40dc26d71272,Fastenal Company,industrial_equipment,"['commercial_industrial', 'industrial_company']",FL,Miami Lakes,33014.0,16200 NW 59th Ave,25.92091,-80.297752,meta,2025-06-02T07:00:00.000Z,0.242152466367713,3b41c2e5-f12a-4505-ab77-5ffba621bbc8,,,,OpenStreetMap,2016-08-02T22:09:21.000Z,,miami,True
a23770a3-bd8f-403c-8f4c-5064ad750cbf,Fastenal Fulfillment Center,building_supply_store,"['business_to_business', 'retail']",FL,Miramar,33025.0,3830 Executive Way,25.9757922,-80.2861481,Microsoft,2024-03-25T19:46:20.090Z,0.77,,,,,,,,miami,False
1cf2060a-5aa3-458e-a98c-805ce9467d69,Fastenal,hardware_store,"['industrial_equipment', 'professional_services']",FL,Davie,33314.0,4350 Oakes Rd,26.076154,-80.20664,meta,2025-06-02T07:00:00.000Z,0.5662921348314607,c91b40f9-bec9-419e-94d6-faffdd7b0218,,,,OpenStreetMap,2017-03-10T18:23:38.000Z,,miami,False
bf0ed139-d007-45d5-abf5-8e1db9ca72a3,Fastenal Fulfillment Center,commercial_industrial,"['industrial_equipment', 'industrial_company']",FL,West Palm Beach,33411.0,8120 Belvedere Rd,26.691526,-80.1763417,meta,2025-06-02T07:00:00.000Z,0.909823677581864,,,,,,,,miami,False
da62e367-81ac-4842-b41f-100eb6283c10,Fastenal Fulfillment Center,building_supply_store,"['business_to_business', 'retail']",FL,West Palm Beach,33411.0,8120 Belvedere Rd Unit 1,26.6917156,-80.176574,Microsoft,2024-03-25T19:46:20.090Z,0.77,,,,,,,,miami,False
1ca264f2-6252-41ca-9e1f-1163f85d3fe4,Fastenal Fulfillment Center,building_supply_store,"['business_to_business', 'retail']",FL,Riviera Beach,33404.0,7656 Byron Dr Ste B1,26.7889859,-80.0984079,Microsoft,2024-03-25T19:46:20.090Z,0.77,,,,,,,,miami,False
1e1337d3-f846-41c8-ae5f-e660465a6084,Fastenal Company,industrial_equipment,"['industrial_company', 'building_supply_store']",FL,Jupiter,33458.0,1562 Park Ln S,26.91934,-80.14378,meta,2025-06-02T07:00:00.000Z,0.242152466367713,325275c8-47fc-459e-ac0f-e2ea202191dc,,,,OpenStreetMap,2016-08-03T01:16:03.000Z,,miami,True
ecd1ac75-d254-426b-b60d-39ceab7a128d,Fastenal Fulfillment Center,building_supply_store,"['business_to_business', 'retail']",WI,Oak Creek,53154.0,430 W Rawson Ave,42.9158974,-87.917451,Microsoft,2024-03-25T19:46:21.790Z,0.77,,,,,,,,milwaukee,False
641368a7-3f3f-4c08-808c-f447460a3a34,Fastenal,industrial_equipment,"['building_supply_store', 'b2b_machinery_and_tools', 'business_to_business', 'retail']",WI,Wauwatosa,53225.0,4702 N 124th St,43.1023321,-88.0660657,Microsoft,2024-03-25T19:49:57.280Z,0.77,,,,,,,,milwaukee,False
e6c1d5f4-6bb0-4e14-a5cb-9dc979ac5ea2,Fastenal Fulfillment Center,industrial_equipment,"['building_supply_store', 'b2b_machinery_and_tools', 'automotive', 'business_to_business', 'retail']",MN,Shakopee,55379.0,6268 Highway 101 E,44.794285,-93.438805,Microsoft,2024-03-25T19:49:57.280Z,0.77,0279f2bf-b3a5-4b44-9eb2-6a34f13213dc,,,,OpenStreetMap,2020-11-20T17:14:34.000Z,,minneapolis,False
829b8a39-68ee-4f33-a160-4c4cfc92453d,Fastenal Fulfillment Center,industrial_equipment,"['b2b_machinery_and_tools', 'business_to_business']",MN,Saint Paul,55104.0,716 Prior Ave N Ste 5,44.9621986,-93.1772194,Microsoft,2024-03-25T19:46:20.090Z,0.77,,,,,,,,minneapolis,False
b79004cf-c7e1-41f8-806e-3fae02c65232,Fastenal,building_supply_store,"['wholesale_store', 'business_to_business', 'retail']",MN,Saint Paul,55130.0,650 Olive St,44.9587319,-93.0875457,Microsoft,2024-03-25T19:49:57.280Z,0.77,,,,,,,,minneapolis,False
c58bb351-5b0b-4b12-85ef-51ef52cfdd53,Fastenal Fulfillment Center,industrial_equipment,"['building_supply_store', 'b2b_machinery_and_tools', 'business_to_business', 'retail']",MN,Oakdale,55128.0,615 Hale Ave N,44.957316,-92.960877,Microsoft,2024-03-25T19:46:20.090Z,0.77,,,,,,,,minneapolis,False
426a1bf5-f73c-4340-add4-c61f5b8d6139,Fastenal Fulfillment Center,building_supply_store,"['business_to_business', 'retail']",MN,Plymouth,55441.0,2950 Xenium Lane N Ste 150,45.0138115,-93.4489074,Microsoft,2024-03-25T19:46:20.090Z,0.77,,,,,,,,minneapolis,False
1c59a0f3-1d6c-47f3-8ea6-4ee06bc10f84,Fastenal Fulfillment Center,building_supply_store,"['business_to_business', 'retail']",MN,Brooklyn Park,55445.0,8307 Brooklyn Blvd,45.0944976,-93.3873981,Microsoft,2024-03-25T19:46:20.090Z,0.77,,,,,,,,minneapolis,False
3d34a17d-96de-424d-b901-64671fa8bca2,Fastenal Company,industrial_equipment,"['industrial_company', 'building_supply_store']",MN,Roseville,55113.0,1920 Oakcrest Ave,45.019893,-93.182463,meta,2025-06-02T07:00:00.000Z,0.2456896551724137,d382a038-2d23-4c6b-bd2f-6f35f20fa1ab,,,,OpenStreetMap,2013-08-22T02:37:52.000Z,,minneapolis,True
4420ac95-e1ad-45aa-9319-5b2514ef2a31,Fastenal Fulfillment Center,hardware_store,"['construction_services', 'industrial_equipment']",MN,Blaine,55449.0,1441 85th Ave NE,45.1250096,-93.2339714,meta,2025-06-02T07:00:00.000Z,0.9297091412742382,,,,,,,,minneapolis,False
3f220dab-4e11-4d3e-b36e-02a410697b05,Fastenal Fulfillment Center - Appointment Only,business_to_business,,CA,Irvine,92618.0,15801 Rockfield Blvd Ste /,33.6325773,-117.7186753,Microsoft,2024-03-25T19:46:20.090Z,0.77,65699092-cf3d-4922-8d1a-fbe569bf9902,,commercial,commercial,OpenStreetMap,2020-09-15T18:33:12.000Z,,mission-viejo,False
4ee865cc-401f-47dc-aa69-c41c0e16628c,Fastenal Company,industrial_equipment,"['commercial_industrial', 'industrial_company']",AL,Mobile,36693.0,3713 Lakeside Ct,30.650833,-88.12873,meta,2025-06-02T07:00:00.000Z,0.242152466367713,,,,,,,,mobile,True
3049af82-80a6-4de9-9637-bea93176543c,Fastenal Fulfillment Center - Appointment Only,industrial_equipment,"['building_supply_store', 'b2b_machinery_and_tools', 'business_to_business', 'retail']",CA,Modesto,95358.0,1581C Cummins Dr Ste 153,37.658243,-121.036709,Microsoft,2024-03-25T19:46:20.090Z,0.77,e607519b-de08-4730-a1fa-7aa7a5ab4cd4,,,,Microsoft ML Buildings,2022-03-11T00:00:00.000Z,,modesto,False
4f20482f-b658-4b1d-acd6-e9df4273ef88,Fastenal Company,industrial_equipment,"['commercial_industrial', 'industrial_company']",CA,Modesto,95351.0,1295 N Emerald Ave,37.652066,-121.025814,meta,2025-06-02T07:00:00.000Z,0.4929396662387676,b04f3b93-d2be-4c02-b8c2-2f405b4f1fec,,,,Microsoft ML Buildings,2022-05-30T00:00:00.000Z,,modesto,True
61fc535a-62f2-4407-80d3-f4f73c08711d,Fastenal Company,industrial_equipment,"['professional_services', 'commercial_industrial']",CA,Modesto,95357.0,4025 Finch Rd,37.625405,-120.9189181,meta,2025-06-02T07:00:00.000Z,0.4929396662387676,,,,,,,,modesto,True
1b1b0e2b-b7e8-4d06-b7b2-15047ef24d5d,Fastenal Fulfillment Center,building_supply_store,"['business_to_business', 'retail']",AL,Montgomery,36117.0,849 Lagoon Business Loop,32.4045948,-86.2164443,Microsoft,2024-03-25T19:46:20.090Z,0.77,,,,,,,,montgomery,False
83c00c14-cf28-422b-866c-768521472f56,Fastenal Fulfillment Center,building_supply_store,"['business_to_business', 'retail']",TN,Nashville,37210.0,820 Fesslers Ln,36.1381182,-86.7467018,Microsoft,2024-03-25T19:46:20.090Z,0.77,,,,,,,,nashville-davidson,False
ec84d6af-f745-4a21-9aa4-2eab69929846,Fastenal Fulfillment Center,building_supply_store,"['business_to_business', 'retail']",CT,Danbury,6810.0,"15 Old Sherman Turnpike, Ste 13",41.4103255,-73.4074456,Microsoft,2024-03-25T19:46:20.090Z,0.77,,,,,,,,new-haven,False
4451ada7-f5bb-4cb1-b80e-99b988cc479e,Fastenal Fulfillment Center,building_supply_store,"['business_to_business', 'retail']",CT,North Haven,6473.0,356 Sackett Point Rd,41.3674154,-72.875735,Microsoft,2024-03-25T19:46:20.090Z,0.77,,,,,,,,new-haven,False
edece6e3-c839-462c-b103-7830d64f1291,Fastenal Company,industrial_equipment,"['metal_supplier', 'shopping']",LA,Belle Chasse,70037.0,55 Coquille Dr,29.865239,-90.0172315,meta,2025-06-02T07:00:00.000Z,0.5662921348314607,,,,,,,,new-orleans,True
ad5eff58-546e-4698-ad1b-de50b0ffd4ab,Fastenal Harahan,industrial_equipment,"['bookstore', 'professional_services']",LA,New Orleans,70123.0,621 Distributors Row,29.951357,-90.18751,meta,2025-06-02T07:00:00.000Z,0.242152466367713,77dbe114-9dbf-4fa8-b3d2-994dd4fc2c42,,,,OpenStreetMap,2022-05-23T00:46:38.000Z,,new-orleans,False
598643af-23ae-41ad-ad86-b4ab7592cc04,Fastenal Company,commercial_industrial,"['industrial_equipment', 'industrial_company']",LA,New Orleans,70125.0,4431 Euphrosine St,29.9591589,-90.1011846,meta,2025-06-02T07:00:00.000Z,0.3961437335670464,d63c8a81-7cf5-4124-8ca1-f424dfc385a6,,,,OpenStreetMap,2015-02-09T21:19:19.000Z,,new-orleans,True
71d5c6d8-2e13-4d46-a8fa-ae39bc3eeb0f,Fastenal Fulfillment Center,hardware_store,"['industrial_equipment', 'commercial_industrial']",NJ,New Brunswick,8901.0,987c Jersey Ave,40.4707335,-74.4772925,meta,2025-06-02T07:00:00.000Z,0.9300613496932516,,,,,,,,new-york,False
fc65e87b-b39c-432a-b172-e0e7b62955b6,Fastenal Fulfillment Center,industrial_equipment,"['building_supply_store', 'b2b_machinery_and_tools', 'business_to_business', 'retail']",NJ,Middlesex,8846.0,550 Lincoln Blvd,40.5702782,-74.4965836,Microsoft,2024-03-25T19:46:20.090Z,0.77,,,,,,,,new-york,False
3e0194d2-861b-42dd-975f-6a654816a199,Fastenal Company,industrial_equipment,['industrial_company'],NJ,Linden,7036.0,1026 W Elizabeth Ave,40.624379,-74.259261,meta,2025-06-02T07:00:00.000Z,0.3376623376623376,740ff6d0-25f2-4ef4-8e3f-7f2a48f88a62,,,,OpenStreetMap,2023-07-18T14:14:39.000Z,,new-york,True
9cc04f74-3fc2-4695-ae5c-9993d137092a,Fastenal Company,industrial_equipment,"['industrial_company', 'commercial_industrial']",NY,Staten Island,10314.0,3521 Victory Blvd,40.602291,-74.175997,meta,2025-06-02T07:00:00.000Z,0.296943231441048,41b55d04-90e9-41f5-ba49-86fb3b213b0a,,industrial,industrial,OpenStreetMap,2023-09-01T22:00:10.000Z,,new-york,True
9cc04f74-3fc2-4695-ae5c-9993d137092a,Fastenal Company,industrial_equipment,"['industrial_company', 'commercial_industrial']",NY,Staten Island,10314.0,3521 Victory Blvd,40.602291,-74.175997,meta,2025-06-02T07:00:00.000Z,0.296943231441048,c0fb4dad-bdb4-4115-b6d5-2173fc174a15,,industrial,industrial,OpenStreetMap,2023-09-01T22:00:10.000Z,,new-york,True
f717981a-729a-47e5-94b5-825f35ed09cb,Fastenal Fulfillment Center,industrial_equipment,"['building_supply_store', 'b2b_machinery_and_tools', 'business_to_business', 'retail']",NY,Staten Island,10302.0,1961 Richmond Ter,40.6380668,-74.1289296,Microsoft,2024-03-25T19:46:20.090Z,0.77,,,,,,,,new-york,False
4762d45c-08aa-44bc-b825-e3a2109c234f,Fastenal Company,industrial_equipment,"['commercial_industrial', 'wholesale_store']",NY,Brooklyn,11232.0,951 3rd Ave,40.6549941,-74.0065919,meta,2025-06-02T07:00:00.000Z,0.3961437335670464,d478d1f0-0e83-480c-a0cc-cdef245dab8d,,,,OpenStreetMap,2013-12-02T19:25:09.000Z,,new-york,True
2480ec12-a166-41fd-9a2c-2e7f0790b130,Fastenal Fulfillment Center,building_supply_store,"['business_to_business', 'retail']",NJ,Kearny,7032.0,9 Basin Dr Ste 140,40.7270868,-74.1039894,Microsoft,2024-03-25T19:46:20.090Z,0.77,,,,,,,,new-york,False
58062f30-242a-43de-a29f-e96c0c8c20ce,Fastenal Fulfillment Center,industrial_equipment,['industrial_company'],NY,Oceanside,11572.0,3199 Lawson Blvd,40.6330258,-73.6531224,meta,2025-06-02T07:00:00.000Z,0.909823677581864,29e83fd3-26d6-4d8e-b973-de7fcad15275,,,,OpenStreetMap,2021-05-30T19:30:29.000Z,,new-york,False
34c8ad03-0804-427c-a602-a5cbda5746f3,Fastenal Fulfillment Center,building_supply_store,"['business_to_business', 'retail']",NY,Bethpage,11714.0,15 Grumman Rd W Ste 1600,40.7438701,-73.4866755,Microsoft,2024-03-25T19:46:20.090Z,0.77,,,,,,,,new-york,False
09df9ce5-d082-48ec-a3ec-dab11f5f17a3,Fastenal Fulfillment Center,building_supply_store,"['business_to_business', 'retail']",NY,Deer Park,11729.0,1017 Grand Blvd,40.7607306,-73.296349,Microsoft,2024-03-25T19:46:20.090Z,0.77,,,,,,,,new-york,False
831bafe0-d757-4c5c-a5c1-9820f3665395,Fastenal Company,industrial_equipment,['industrial_company'],NJ,Whippany,7981.0,53 S Jefferson Rd,40.822717,-74.436566,meta,2025-06-02T07:00:00.000Z,0.242152466367713,b45e20db-9af4-4482-898f-eff2d7978842,,,,OpenStreetMap,2016-03-14T02:11:18.000Z,,new-york,True
030811b0-8655-405a-9a73-ccedc45b8675,Fastenal Fulfillment Center,building_supply_store,"['business_to_business', 'retail']",NJ,Fairfield,7004.0,68A Clinton Rd,40.8618032,-74.3135963,Microsoft,2024-03-25T19:46:20.090Z,0.77,,,,,,,,new-york,False
574eeb88-53ec-49b5-82c7-3d29368558a7,Fastenal Fulfillment Center,building_supply_store,"['business_to_business', 'retail']",NJ,East Rutherford,7073.0,450 Murray Hill Pkwy Unit F,40.8180283,-74.0920064,Microsoft,2024-03-25T19:46:20.090Z,0.77,,,,,,,,new-york,False
9a0dd429-bd9c-492d-baf0-071d8ca1058d,Fastenal Fulfillment Center,industrial_equipment,"['building_supply_store', 'b2b_machinery_and_tools', 'business_to_business', 'retail']",NY,Bronx,10461.0,1448 Ferris Pl,40.840085,-73.841977,Microsoft,2024-03-25T19:49:57.280Z,0.77,7aca7c0d-6a2d-4921-ba61-126342ca19f9,,,,OpenStreetMap,2022-02-13T18:24:31.000Z,,new-york,False
9a0dd429-bd9c-492d-baf0-071d8ca1058d,Fastenal Fulfillment Center,industrial_equipment,"['building_supply_store', 'b2b_machinery_and_tools', 'business_to_business', 'retail']",NY,Bronx,10461.0,1448 Ferris Pl,40.840085,-73.841977,Microsoft,2024-03-25T19:49:57.280Z,0.77,13106eb8-eab2-40e8-8a32-52fc303b17fd,,,,OpenStreetMap,2023-10-17T05:06:06.000Z,,new-york,False
a6a25669-ddf8-40e0-a304-a121d5e87dd5,Fastenal Fulfillment Center,hardware_store,"['industrial_equipment', 'commercial_industrial']",NY,Bellport,11713.0,36 Sawgrass Dr,40.8020722,-72.9489482,meta,2025-06-02T07:00:00.000Z,0.9784508333782836,,,,,,,,new-york,False
2af047c9-b865-4382-8f65-2806e24a4f1e,Fastenal Fulfillment Center,industrial_equipment,"['construction_services', 'industrial_company']",CA,Burlingame,94010.0,1438 Rollins Rd,37.591919,-122.3680492,meta,2025-06-02T07:00:00.000Z,0.9459263554653524,193e699c-9826-441b-ba87-1032d239dae3,,,,OpenStreetMap,2025-01-19T12:30:10.000Z,,oakland,False
91adf9ed-6cbe-47e2-857b-a310f7e40f3a,Fastenal Company,industrial_equipment,"['industrial_company', 'commercial_industrial']",CA,South San Francisco,94080.0,204 Michelle Ct,37.650138,-122.391449,meta,2025-06-02T07:00:00.000Z,0.3961437335670464,6463e3f1-8472-4c02-9e96-d221eb6182cf,,commercial,commercial,OpenStreetMap,2014-08-07T00:53:10.000Z,,oakland,True
31c837f6-ba7d-46ef-ac8d-8ecf343710b8,Fastenal Company,industrial_equipment,"['industrial_company', 'commercial_industrial']",CA,San Francisco,94107.0,1011 25th St,37.752608,-122.389086,meta,2025-06-02T07:00:00.000Z,0.296943231441048,18885cc3-49c8-4872-a598-9163a7a0a119,,,,OpenStreetMap,2020-07-09T04:31:31.000Z,,oakland,True
5507eb05-eb8c-42f3-8621-9ad29f3573a4,Fastenal Fulfillment Center - Appointment Only,building_supply_store,"['business_to_business', 'retail']",CA,Richmond,94804.0,1200 Harbour Way S Ste 102,37.9147723,-122.3598482,Microsoft,2024-03-25T19:46:20.090Z,0.77,,,,,,,,oakland,False
427fc93e-1b3e-4b89-81cf-e7013526f2da,Fastenal Fulfillment Center - Appointment Only,industrial_equipment,"['b2b_machinery_and_tools', 'business_to_business', 'retail']",CA,Union City,94587.0,32400 Central Ave,37.605049,-122.037401,Microsoft,2024-06-20T16:11:17.927Z,0.77,fb279c2e-3462-4f1d-98d5-6eb155a981c8,,,,OpenStreetMap,2020-09-18T20:00:36.000Z,,oakland,False
caec1887-8c5f-4dd7-93f4-0177264b73bc,Fastenal Fulfillment Center - Appointment Only,industrial_equipment,"['building_supply_store', 'b2b_machinery_and_tools', 'business_to_business', 'retail']",CA,Concord,94520.0,2441 Sprig Ct Ste F,38.013231,-122.030767,Microsoft,2024-03-25T19:46:20.090Z,0.77,977a0a9e-0a1a-43ee-9742-85f2682b0adb,,,,OpenStreetMap,2018-06-28T19:34:33.000Z,,oakland,False
43e8e06a-d953-44ba-876b-91cc83389cb1,Fastenal Fulfillment Center,industrial_equipment,"['building_supply_store', 'b2b_machinery_and_tools', 'business_to_business', 'retail']",UT,Ogden,84401.0,"1327 W 2550 S, Suite 2 & 4",41.218748,-112.010645,Microsoft,2024-06-20T12:43:11.013Z,0.77,59045c5b-16fc-4e9e-aac4-21dd296335d5,,,,OpenStreetMap,2013-01-03T01:47:14.000Z,,ogden,False
2a030cac-ddb4-4fe4-a2ba-c83555e8a2d3,Fastenal,industrial_equipment,"['hardware_store', 'commercial_industrial']",OK,Oklahoma City,73119.0,3110 S Meridian Ave,35.4337321,-97.6008057,meta,2025-06-02T07:00:00.000Z,0.9784508333782836,,,,,,,,oklahoma-city,False
c7d12a58-db96-45f9-a0f4-9367bb5ff469,Fastenal Fulfillment Center,hardware_store,"['industrial_equipment', 'commercial_industrial']",OK,Oklahoma City,73135.0,7001 S Sooner Rd,35.3967733,-97.4239604,meta,2025-06-02T07:00:00.000Z,0.9415384615384615,,,,,,,,oklahoma-city,False
964c732c-61b7-4cce-af1e-0bac74f45c33,Fastenal Fulfillment Center,home_improvement_store,"['construction_services', 'storage_facility']",OK,Oklahoma City,73105.0,4721 N Walnut Ave,35.5194215,-97.5079942,meta,2025-06-02T07:00:00.000Z,0.9300613496932516,63cd9e17-7476-426e-8faa-8dac86af12b4,,,,OpenStreetMap,2024-02-20T04:04:11.000Z,,oklahoma-city,False
70495abe-4a0d-4a5a-a6b1-119df92bc97d,Fastenal Fulfillment Center,building_supply_store,"['business_to_business', 'retail']",NE,La Vista,68128.0,11501 Centennial Rd Ste 600,41.1702065,-96.0928104,Microsoft,2024-03-25T19:46:20.090Z,0.77,,,,,,,,omaha,False
7d8c5bf6-35db-4d7a-aa67-2201a0ad4ac0,Fastenal,industrial_equipment,"['building_supply_store', 'b2b_machinery_and_tools', 'business_to_business', 'retail']",NE,Omaha,68117.0,5707 F St,41.2197333,-96.0014046,Microsoft,2024-03-25T19:49:57.280Z,0.77,,,,,,,,omaha,False
730dd346-fbc0-4c85-a688-82b2ffb2d0f3,Fastenal Company,industrial_equipment,"['commercial_industrial', 'construction_services']",FL,Orlando,32809.0,7215 S John Young Pkwy,28.460787,-81.421257,meta,2025-06-02T07:00:00.000Z,0.3961437335670464,879eda09-1f90-4cb7-abf9-28a52218fae9,,,,OpenStreetMap,2020-03-11T00:33:54.000Z,,orlando,True
210a6c50-9437-446c-89ee-3780e6559686,Fastenal Fulfillment Center,building_supply_store,"['business_to_business', 'retail']",FL,Orlando,32809.0,7101 Presidents Dr Ste 300,28.46261,-81.4163745,Microsoft,2024-03-25T19:46:20.090Z,0.77,,,,,,,,orlando,False
9fd28a52-ea1d-48af-8f24-f0c809023070,Fastenal Fulfillment Center,industrial_equipment,"['building_supply_store', 'b2b_machinery_and_tools', 'business_to_business', 'retail']",FL,Apopka,32703.0,1833 S Orange Blossom Trl,28.650468,-81.46512,Microsoft,2023-10-30T20:21:00.390Z,0.77,d212d400-0790-42e2-937a-602624994367,,,,OpenStreetMap,2021-05-28T18:02:03.000Z,,orlando,False
4dedb1de-33c1-4c48-a3d4-4334dde69477,Fastenal Fulfillment Center,industrial_equipment,"['building_supply_store', 'b2b_machinery_and_tools', 'business_to_business', 'retail']",FL,Orlando,32807.0,6148 Hanging Moss Rd Ste 150,28.5789347,-81.3054474,Microsoft,2024-03-25T19:46:20.090Z,0.77,,,,,,,,orlando,False
de040a34-20f8-4070-a34d-d267723a266f,Fastenal Fulfillment Center,building_supply_store,"['industrial_equipment', 'industrial_company']",FL,Longwood,32750.0,830 S Ronald Reagan Blvd,28.6868299,-81.3464191,meta,2025-06-02T07:00:00.000Z,0.9204819277108434,,,,,,,,orlando,False
e7cb1eee-85a3-4a53-a8a2-11a5bb7eacd3,Fastenal Company,industrial_equipment,"['commercial_industrial', 'wholesale_store']",FL,Sanford,32771.0,655 Progress Way,28.821531,-81.32353,meta,2025-06-02T07:00:00.000Z,0.3376623376623376,64277940-da8d-4dde-a5ed-8bf4cf1616fd,,,,OpenStreetMap,2020-05-11T22:54:59.000Z,,orlando,True
bb73fdf2-a9a6-471b-93f6-cda0a405021d,Fastenal Fulfillment Center,industrial_equipment,"['building_supply_store', 'b2b_machinery_and_tools', 'business_to_business', 'retail']",FL,Melbourne,32934.0,4301 Fortune Pl Ste H,28.094356,-80.696831,Microsoft,2024-02-06T14:16:16.243Z,0.77,90f1f85a-9435-4f30-8110-c7c33df84f5b,,,,OpenStreetMap,2021-10-25T19:03:47.000Z,,palm-bay-melbourne,False
0b986cb5-201e-4059-b6d3-e89d650827ea,Fastenal Fulfillment Center,building_supply_store,"['business_to_business', 'retail']",FL,Pensacola,32503.0,33 Brent Lane Ste 106,30.4657769,-87.2387101,Microsoft,2024-03-25T19:46:20.090Z,0.77,,,,,,,,pensacola,False
b7403a90-eb3e-4dbf-9c74-5d68c05bb74e,Fastenal Company,industrial_equipment,"['commercial_industrial', 'hardware_store']",PA,Coatesville,19320.0,2701 E Lincoln Hwy,39.992198,-75.771927,meta,2025-06-02T07:00:00.000Z,0.242152466367713,5fd0b203-6482-4a1f-ac3b-7cdb0f11e771,,,,Esri Community Maps,2024-10-15T00:00:00.000Z,,philadelphia,True
800a99ab-7789-440d-9da8-f0d724ee1240,Fastenal Fulfillment Center,industrial_equipment,"['building_supply_store', 'b2b_machinery_and_tools', 'business_to_business', 'retail']",PA,West Chester,19382.0,510 E Barnard St,39.9616711,-75.5958386,Microsoft,2024-03-25T19:46:20.090Z,0.77,,,,,,,,philadelphia,False
c3e95a65-491e-476b-ab26-54861ec468c8,Fastenal Fulfillment Center,building_supply_store,"['business_to_business', 'retail']",PA,Downingtown,19335.0,3953 Lincoln Highway,39.9969126,-75.7404192,Microsoft,2024-03-25T19:46:20.090Z,0.77,,,,,,,,philadelphia,False
f69fdfbc-92a6-418d-8001-ae329026f7da,Fastenal Company,industrial_equipment,"['industrial_company', 'construction_services']",DE,Wilmington,19804.0,15 Germay Dr,39.7295504,-75.5784502,meta,2025-06-02T07:00:00.000Z,0.3961437335670464,,,,,,,,philadelphia,True
aea0ad05-937e-46e5-bd60-202ca4c42329,Fastenal Fulfillment Center,industrial_equipment,"['building_supply_store', 'b2b_machinery_and_tools', 'business_to_business', 'retail']",PA,Folcroft,19032.0,"1548 Delmar Dr, Bay C",39.8963332,-75.2749824,Microsoft,2024-03-25T19:46:20.090Z,0.77,,,,,,,,philadelphia,False
59a0c4e9-2731-4480-8755-1ea494356626,Fastenal Fulfillment Center,business_to_business,,NJ,Sewell,8080.0,1 Enterprise Ct,39.7747383,-75.1030123,Microsoft,2024-03-25T19:49:57.280Z,0.77,88194c69-6aa4-452a-9602-9eb49538ec57,,,,OpenStreetMap,2019-07-09T14:57:46.000Z,,philadelphia,False
0024ad04-af37-4a03-93ad-43da646df988,Fastenal Fulfillment Center,industrial_equipment,"['building_supply_store', 'b2b_machinery_and_tools', 'business_to_business', 'retail']",NJ,Berlin,8009.0,"421 US-73, Unit 11",39.79363543,-74.92009718,Microsoft,2024-03-25T19:46:20.090Z,0.77,,,,,,,,philadelphia,False
fa8c391e-489a-4bf2-8299-7a6192b93af8,Fastenal Fulfillment Center,building_supply_store,"['business_to_business', 'retail']",PA,Philadelphia,19123.0,458 N 2nd St,39.9588836,-75.1418156,Microsoft,2024-03-25T19:46:20.090Z,0.77,,,,,,,,philadelphia,False
7ffed908-88e7-4587-af58-fc6f59a3bd7e,Fastenal Company,industrial_equipment,"['commercial_industrial', 'industrial_company']",PA,Philadelphia,19134.0,3251 Cedar St,39.9890849,-75.1041064,meta,2025-06-02T07:00:00.000Z,0.242152466367713,9a78c0f9-bb24-44ca-ba3e-7cc8ceb84d94,,,,OpenStreetMap,2023-09-26T14:40:37.000Z,,philadelphia,True
7ffed908-88e7-4587-af58-fc6f59a3bd7e,Fastenal Company,industrial_equipment,"['commercial_industrial', 'industrial_company']",PA,Philadelphia,19134.0,3251 Cedar St,39.9890849,-75.1041064,meta,2025-06-02T07:00:00.000Z,0.242152466367713,38c7455b-4cd0-4d48-be36-503458b45b44,,,,OpenStreetMap,2023-09-26T14:40:37.000Z,,philadelphia,True
7ffed908-88e7-4587-af58-fc6f59a3bd7e,Fastenal Company,industrial_equipment,"['commercial_industrial', 'industrial_company']",PA,Philadelphia,19134.0,3251 Cedar St,39.9890849,-75.1041064,meta,2025-06-02T07:00:00.000Z,0.242152466367713,bc385ce8-0c9c-40b7-90a2-d67afd9f47b9,,,,OpenStreetMap,2023-09-26T14:40:37.000Z,,philadelphia,True
d8d49cf4-7f27-4040-aee8-40ca95357d80,"Fastenal Company of Pennsauken, NJ",industrial_company,"['hardware_store', 'professional_services']",NJ,Pennsauken,8110.0,5043 N Crescent Blvd,39.95496,-75.059936,meta,2025-06-02T07:00:00.000Z,0.3376623376623376,9fd2c0ce-b3a8-4215-98ec-aca2a0f680b1,,,,OpenStreetMap,2017-04-27T08:43:49.000Z,,philadelphia,True
ef2fb6cd-6286-476c-9996-bb4a3afa8a8a,Fastenal Fulfillment Center,building_supply_store,"['business_to_business', 'retail']",NJ,Cinnaminson,8077.0,1704 Taylors Lane Ste 4,40.0112886,-74.9746817,Microsoft,2024-03-25T19:46:20.090Z,0.77,,,,,,,,philadelphia,False
b4e6a728-0294-4c8f-8e5d-fb53d117108a,Fastenal Fulfillment Center,building_supply_store,"['business_to_business', 'retail']",PA,Pottstown,19464.0,335 W High St,40.2490436,-75.6659253,Microsoft,2024-03-25T19:46:20.090Z,0.77,,,,,,,,philadelphia,False
ef0176ad-25ca-47a2-8272-e4cba18a0600,Fastenal Fulfillment Center,industrial_equipment,"['building_supply_store', 'b2b_machinery_and_tools', 'business_to_business', 'retail']",PA,King Of Prussia,19406.0,380 Crooked Lane Unit 1,40.0907314,-75.3476357,Microsoft,2024-03-25T19:46:20.090Z,0.77,,,,,,,,philadelphia,False
4e088a63-2559-429c-9ca4-c356d85969c8,Fastenal Fulfillment Center,building_supply_store,"['business_to_business', 'retail']",PA,Bensalem,19020.0,654 Street Rd,40.0799083,-74.9318247,Microsoft,2024-03-25T19:46:20.090Z,0.77,,,,,,,,philadelphia,False
a30975c0-45fd-4e4e-ae25-9e235e9eb977,Fastenal Company,industrial_equipment,"['commercial_industrial', 'industrial_company']",PA,Tullytown,19007.0,1210 Branagan Dr,40.1400628,-74.8099211,meta,2025-06-02T07:00:00.000Z,0.242152466367713,ffc37d75-e55b-45f5-9062-abac046d92be,,,,Esri Community Maps,2024-10-15T00:00:00.000Z,,philadelphia,True
d0e79a67-5395-48e2-babf-66fa53de294a,Fastenal Fulfillment Center,building_supply_store,"['hardware_store', 'lighting_store']",AZ,Gilbert,85233.0,75 W Baseline Rd,33.3780417,-111.8324524,meta,2025-06-02T07:00:00.000Z,0.8860580325548478,,,,,,,,phoenix,False
2444d593-758c-4a73-ba22-2a8fd9e5787a,Fastenal Fulfillment Center,building_supply_store,"['business_to_business', 'retail']",AZ,Peoria,85381.0,8957 W Windsor Dr Ste 123,33.6008794,-112.2519976,Microsoft,2024-03-25T19:46:20.090Z,0.77,,,,,,,,phoenix,False
734649b3-0585-4dfa-8786-7c212789ae04,Fastenal Fulfillment Center,industrial_equipment,"['building_supply_store', 'b2b_machinery_and_tools', 'business_to_business', 'retail']",AZ,Phoenix,85034.0,1775 E University Dr Ste 180,33.423778,-112.0438212,Microsoft,2024-03-25T19:46:20.090Z,0.77,,,,,,,,phoenix,False
93612fcf-420e-445b-9d8d-77a1a0122663,Fastenal Company,industrial_equipment,"['shopping', 'hardware_store']",PA,Duquesne,15110.0,105 S Duquesne Blvd,40.372318,-79.84243,meta,2025-06-02T07:00:00.000Z,0.296943231441048,4ae08cc5-0401-47d3-8728-7eb2524dedc3,,,,OpenStreetMap,2021-12-15T21:42:37.000Z,,pittsburgh,True
74654886-9f25-447d-83c4-8151054a8251,Fastenal Fulfillment Center,industrial_equipment,"['building_supply_store', 'b2b_machinery_and_tools', 'business_to_business', 'retail']",PA,Duquesne,15110.0,105 N Duquesne Blvd,40.3765199,-79.8479195,Microsoft,2024-03-25T19:46:20.090Z,0.77,,,,,,,,pittsburgh,False
4618ce2e-aabd-4bf9-b247-f539d0c867d5,Fastenal Fulfillment Center,building_supply_store,"['business_to_business', 'retail']",PA,Pittsburgh,15205.0,621 Napor Blvd,40.4437609,-80.0891029,Microsoft,2024-03-25T19:46:20.090Z,0.77,,,,,,,,pittsburgh,False
53c8461a-b8bb-494d-925d-d141c6b812e7,Fastenal Fulfillment Center,building_supply_store,"['business_to_business', 'retail']",FL,Port Saint Lucie,34986.0,750 NW Enterprise Dr Ste 105,27.3357402,-80.4111204,Microsoft,2024-03-25T19:46:20.090Z,0.77,,,,,,,,port-st-lucie,False
374cd1aa-e607-497d-bbd9-6f86cc4f3307,Fastenal Company,industrial_equipment,"['commercial_industrial', 'hardware_store']",OR,Hillsboro,97124.0,1800 NE 25th Ave,45.5396385,-122.9576697,meta,2025-06-02T07:00:00.000Z,0.3376623376623376,de8c2426-48d9-4bb4-9fa3-443161d88338,,,,OpenStreetMap,2012-10-09T17:51:30.000Z,,portland,True
6041f74d-877a-425c-9f74-9d28358736cf,Fastenal Fulfillment Center,building_supply_store,"['business_to_business', 'retail']",OR,Hillsboro,97124.0,2460 NE Griffin Oaks St Ste D-1500,45.5401309,-122.9578665,Microsoft,2024-03-25T19:46:20.090Z,0.77,,,,,,,,portland,False
35a9bff6-2bb6-4c05-8f03-1d16e73e2022,Fastenal Fulfillment Center,industrial_equipment,"['building_supply_store', 'b2b_machinery_and_tools', 'business_to_business', 'retail']",OR,Clackamas,97015.0,12360 SE Highway 212,45.40747,-122.536726,Microsoft,2024-03-21T13:09:37.413Z,0.77,8944b6b4-1964-47c4-aa19-7caae74527cd,,,,OpenStreetMap,2016-08-19T04:43:42.000Z,,portland,False
3a5bff9f-153d-4d99-910d-a2a8925e69e8,Fastenal Company,industrial_equipment,"['commercial_industrial', 'industrial_company']",OR,Portland,97217.0,8501 N Albina Ave,45.584881,-122.674889,meta,2025-06-02T07:00:00.000Z,0.242152466367713,aa03eb95-e06c-48fa-8e52-e6224d76516e,,,,OpenStreetMap,2015-09-20T06:00:18.000Z,,portland,True
082b9b05-d5da-4ef8-8bdf-3dcab56f5666,Fastenal Company,industrial_equipment,"['commercial_industrial', 'industrial_company']",WA,Vancouver,98660.0,906 Harney St,45.62859,-122.67961,meta,2025-06-02T07:00:00.000Z,0.2456896551724137,,,,,,,,portland,True
4ca78ec2-8e37-4f4a-a37f-c111dd2da9bb,Fastenal Fulfillment Center,building_supply_store,"['business_to_business', 'retail']",RI,Cranston,2921.0,2158 Plainfield Pike,41.7884422,-71.513984,Microsoft,2024-03-25T19:46:20.090Z,0.77,,,,,,,,providence,False
82c846a5-a364-4f0a-ac33-e7554180fbba,Fastenal Fulfillment Center,hardware_store,"['industrial_company', 'commercial_industrial']",NC,Raleigh,27603.0,1638 S Saunders St,35.7580007,-78.649587,meta,2025-06-02T07:00:00.000Z,0.9297091412742382,dab5614a-2e9b-4431-8508-e9d54d8bc721,,,,OpenStreetMap,2015-11-27T20:45:11.000Z,,raleigh,False
f937a574-1329-4a51-a0b5-ca2076107f18,Fastenal Company,industrial_equipment,"['industrial_company', 'commercial_industrial']",NV,Reno,89502.0,4090 S McCarran Blvd,39.475475,-119.767306,meta,2025-06-02T07:00:00.000Z,0.2456896551724137,f97179a6-9f9d-4bcf-b6b8-608801a1eead,,commercial,office,OpenStreetMap,2024-11-05T08:53:15.000Z,,reno,True
9767e973-3409-4189-baac-edd42410f13e,Fastenal Fulfillment Center,industrial_equipment,"['building_supply_store', 'b2b_machinery_and_tools', 'business_to_business', 'retail']",NV,Reno,89512.0,950 Bennie Lane Unit B,39.571699,-119.808332,Microsoft,2024-01-25T19:09:38.167Z,0.77,17ee05b8-fb6b-4668-b881-bdac65000d72,,industrial,industrial,OpenStreetMap,2024-10-26T06:08:09.000Z,,reno,False
27e8ecd8-6baa-4d50-b2d2-7e0be6d6b807,Fastenal Fulfillment Center,building_supply_store,"['business_to_business', 'retail']",VA,Richmond,23231.0,5653 S Laburnum Ave,37.5074288,-77.3494307,Microsoft,2024-03-25T19:46:20.090Z,0.77,,,,,,,,richmond,False
cd083ff6-2c3f-4406-b491-0eaf52644ac8,Fastenal Company,industrial_equipment,"['commercial_industrial', 'industrial_company']",VA,Henrico,23231.0,5653 S Laburnum Ave,37.5074876,-77.3489822,meta,2025-06-02T07:00:00.000Z,0.296943231441048,1c257590-1df9-4509-a8d5-5af7f6398fb9,,,,OpenStreetMap,2019-08-05T07:29:54.000Z,,richmond,True
acca0fcb-9f31-48ee-8625-1774e49d465b,Fastenal Fulfillment Center - Appointment Only,building_supply_store,"['business_to_business', 'retail']",CA,Corona,92878.0,595 N Smith Ave Unit A,33.8952309,-117.5884328,Microsoft,2024-03-25T19:46:20.090Z,0.77,,,,,,,,riverside-san-bernardino,False
707478c4-f816-460e-945e-922813d290ae,Fastenal Fulfillment Center - Appointment Only,building_supply_store,"['business_to_business', 'retail']",CA,Chino,91710.0,5171 Edison Ave Ste B,33.9972745,-117.6917059,Microsoft,2024-03-25T19:46:20.090Z,0.77,,,,,,,,riverside-san-bernardino,False
13cca06d-6a38-45d5-902c-dc371ce41fc4,Fastenal Company,industrial_equipment,['industrial_company'],CA,Ontario,91761.0,1351 S Grove Ave,34.049188,-117.628017,meta,2025-06-02T07:00:00.000Z,0.2456896551724137,c3d64265-036e-418b-bbe8-bad96ed50dd1,,,,OpenStreetMap,2024-04-28T04:46:57.000Z,,riverside-san-bernardino,True
9f6b1b2b-0a84-4c5c-b545-56eac3355b6d,Fastenal Fulfillment Center - Appointment Only,building_supply_store,"['business_to_business', 'retail']",CA,Jurupa Valley,91752.0,10247 Bellegrave Ave Unit 108,34.0046448,-117.5074806,Microsoft,2024-03-25T19:46:20.090Z,0.77,,,,,,,,riverside-san-bernardino,False
e3f1428c-5d47-4788-973d-a13e49758567,Fastenal Fulfillment Center,industrial_equipment,"['commercial_industrial', 'industrial_company']",CA,March Air Reserve Base,92518.0,21801 Cactus Ave,33.9081019,-117.2863738,meta,2025-06-02T07:00:00.000Z,0.9300613496932516,,,,,,,,riverside-san-bernardino,False
a3e23da2-5dba-438c-a913-c414e80afce6,Fastenal Company,industrial_equipment,['industrial_company'],CA,Rialto,92376.0,1285 N Fitzgerald Ave,34.1235656,-117.3927829,meta,2025-06-02T07:00:00.000Z,0.3961437335670464,631336cb-67f7-4dbd-a9a1-348ff7563a29,,,,Microsoft ML Buildings,2020-11-15T00:00:00.000Z,,riverside-san-bernardino,True
f8c68e99-7be0-4af6-8898-56c148d012cb,Fastenal Fulfillment Center,building_supply_store,"['business_to_business', 'retail']",NY,Rochester,14623.0,2710 W Henrietta Rd,43.097682,-77.631164,Microsoft,2024-03-25T19:46:20.090Z,0.77,,,,,,,,rochester,False
3fc99e1a-dcdc-456a-89eb-17bb514e72b5,Fastenal Fulfillment Center,building_supply_store,"['business_to_business', 'retail']",IL,Loves Park,61111.0,7315 N Alpine Rd Ste A,42.328974,-89.0284986,Microsoft,2024-03-25T19:46:20.090Z,0.77,,,,,,,,rockford,False
7af15f3e-d37b-401d-a6f4-af8b5bd86c17,Fastenal Fulfillment Center,industrial_equipment,"['hardware_store', 'commercial_industrial']",IL,Waukegan,60085.0,1187 Northpoint Blvd,42.3376625,-87.8872633,meta,2025-06-02T07:00:00.000Z,0.909823677581864,,,,,,,,round-lake-beach-mchenry-grayslake,False
de3bca58-bb43-46ef-84fe-84920f4bd299,Fastenal Fulfillment Center - Appointment Only,industrial_equipment,"['building_supply_store', 'b2b_machinery_and_tools', 'business_to_business', 'retail']",CA,Sacramento,95834.0,1045 National Dr Unit 7,38.6477632,-121.4892145,Microsoft,2024-03-25T19:46:20.090Z,0.77,,,,,,,,sacramento,False
ce743c99-a691-43ba-9a19-8ebad7cb4e97,Fastenal Fulfillment Center - Appointment Only,building_supply_store,"['business_to_business', 'retail']",CA,Sacramento,95826.0,5430 Florin Perkins Rd Ste 200,38.5263323,-121.3908237,Microsoft,2024-03-25T19:46:20.090Z,0.77,,,,,,,,sacramento,False
4450a3ed-4ed8-4b54-b275-cbb01b8f86a0,Fastenal Fulfillment Center - Appointment Only,building_supply_store,"['business_to_business', 'retail']",CA,Rancho Cordova,95742.0,3251 Luyung Dr Ste A,38.5851032,-121.2558726,Microsoft,2024-03-25T19:46:20.090Z,0.77,,,,,,,,sacramento,False
809bbb42-9815-4aa0-8382-c8eee40cff59,Fastenal Fulfillment Center - Appointment Only,building_supply_store,"['business_to_business', 'retail']",CA,Roseville,95678.0,10560 Industrial Ave Unit 100,38.8013029,-121.3064207,Microsoft,2024-03-25T19:46:20.090Z,0.77,e0d8b589-040c-400d-a5cf-a58fbbc18fc1,,commercial,commercial,OpenStreetMap,2024-03-27T18:48:59.000Z,,sacramento,False
1c7e780d-8486-43ee-876a-b1b28570ec2e,Fastenal Fulfillment Center,industrial_equipment,"['building_supply_store', 'b2b_machinery_and_tools', 'business_to_business', 'retail']",UT,Sandy,84070.0,9706 S Sandy Pkwy,40.5747402,-111.9061758,Microsoft,2024-03-25T19:46:20.090Z,0.77,,,,,,,,salt-lake-city,False
27dbf976-4029-4208-aa68-82d1d177f162,Fastenal Fulfillment Center,industrial_equipment,"['building_supply_store', 'b2b_machinery_and_tools', 'business_to_business', 'retail']",UT,West Jordan,84084.0,6582 S. Airport Rd. Su. 3,40.6214544,-111.99737673,Microsoft,2024-03-25T19:46:20.090Z,0.77,,,,,,,,salt-lake-city,False
b3a927c4-6530-4aa0-838f-c3ce3e68c7a3,Fastenal Company,industrial_equipment,['professional_services'],UT,Salt Lake City,84104.0,1871 S 4800 W,40.72918,-112.00505,meta,2025-06-02T07:00:00.000Z,0.3376623376623376,35feb0c0-df35-4273-98aa-10397e22ebf4,,,,OpenStreetMap,2025-03-03T17:22:48.000Z,,salt-lake-city,True
e51c1219-08c0-45b6-8a18-10bb2d50c3a4,Fastenal Fulfillment Center,building_supply_store,"['business_to_business', 'retail']",UT,West Valley City,84120.0,3825 W 2100 S Ste D,40.7252799,-111.982985,Microsoft,2024-03-25T19:46:20.090Z,0.77,,,,,,,,salt-lake-city,False
62c5738d-a179-4254-8f42-dccb39cc3f26,Fastenal Fulfillment Center,industrial_equipment,"['building_supply_store', 'b2b_machinery_and_tools', 'business_to_business', 'retail']",UT,Salt Lake City,84104.0,2181 W California Ave Ste 300,40.7404213,-111.950973,Microsoft,2024-03-25T19:46:20.090Z,0.77,,,,,,,,salt-lake-city,False
27dfa134-ce85-4bac-bf82-47877aa134a4,Fastenal,industrial_equipment,"['b2b_machinery_and_tools', 'business_to_business']",TX,San Antonio,78238.0,1850 Grandstand Dr,29.45756033062935,-98.62131245434284,Microsoft,2015-12-21T22:42:26.827Z,0.77,,,,,,,,san-antonio,False
3edb8126-1636-4554-a1de-9dfa76aa7263,Fastenal Company,industrial_equipment,"['commercial_industrial', 'industrial_company']",TX,San Antonio,78207.0,1731 S San Marcos,29.406565,-98.513484,meta,2025-06-02T07:00:00.000Z,0.3961437335670464,3101010e-a9c1-4941-8178-8a5d057fc792,,,,Microsoft ML Buildings,2020-12-09T00:00:00.000Z,,san-antonio,True
cb701244-b81e-4363-b87b-997d3978acd0,Fastenal Company,industrial_equipment,"['commercial_industrial', 'industrial_company']",TX,Universal City,78148.0,1917 Pat Booker Rd,29.553476,-98.30972,meta,2025-06-02T07:00:00.000Z,0.242152466367713,,,,,,,,san-antonio,True
7e9c530e-5e8c-48a5-a691-42dc71583f7b,Fastenal Fulfillment Center,industrial_equipment,"['building_supply_store', 'b2b_machinery_and_tools', 'business_to_business', 'retail']",TX,Selma,78154.0,17301 Bell N Dr,29.6178146,-98.2954415,Microsoft,2024-03-25T19:46:20.090Z,0.77,,,,,,,,san-antonio,False
6e84ce6d-5fe0-485f-8fd3-a9e12c14935d,Fastenal Fulfillment Center - Appointment Only,building_supply_store,"['business_to_business', 'retail']",CA,Chula Vista,91911.0,1120 Bay Blvd Ste D,32.6061811,-117.0922627,Microsoft,2024-03-25T19:46:20.090Z,0.77,,,,,,,,san-diego,False
4d4b0349-5338-45cf-8211-2f1cd03a2e3e,Fastenal Mexico,shopping,"['professional_services', 'home_improvement_store']",,Tijuana,22444.0,Boulevard Industrial 19434,32.5390919,-116.9105041,meta,2025-06-02T07:00:00.000Z,0.9204819277108434,af623de1-3b00-425c-9898-35e3786d362b,,industrial,industrial,OpenStreetMap,2018-06-13T19:24:14.000Z,,san-diego,False
fa3b6921-dbb3-4d90-8a7d-ebddf2840381,Fastenal Fulfillment Center - Appointment Only,building_supply_store,"['business_to_business', 'retail']",CA,San Diego,92121.0,9030 Carroll Way Ste 9,32.8875077,-117.1588458,Microsoft,2024-03-25T19:46:20.090Z,0.77,,,,,,,,san-diego,False
2af047c9-b865-4382-8f65-2806e24a4f1e,Fastenal Fulfillment Center,industrial_equipment,"['construction_services', 'industrial_company']",CA,Burlingame,94010.0,1438 Rollins Rd,37.591919,-122.3680492,meta,2025-06-02T07:00:00.000Z,0.9459263554653524,193e699c-9826-441b-ba87-1032d239dae3,,,,OpenStreetMap,2025-01-19T12:30:10.000Z,,san-francisco,False
91adf9ed-6cbe-47e2-857b-a310f7e40f3a,Fastenal Company,industrial_equipment,"['industrial_company', 'commercial_industrial']",CA,South San Francisco,94080.0,204 Michelle Ct,37.650138,-122.391449,meta,2025-06-02T07:00:00.000Z,0.3961437335670464,6463e3f1-8472-4c02-9e96-d221eb6182cf,,commercial,commercial,OpenStreetMap,2014-08-07T00:53:10.000Z,,san-francisco,True
31c837f6-ba7d-46ef-ac8d-8ecf343710b8,Fastenal Company,industrial_equipment,"['industrial_company', 'commercial_industrial']",CA,San Francisco,94107.0,1011 25th St,37.752608,-122.389086,meta,2025-06-02T07:00:00.000Z,0.296943231441048,18885cc3-49c8-4872-a598-9163a7a0a119,,,,OpenStreetMap,2020-07-09T04:31:31.000Z,,san-francisco,True
427fc93e-1b3e-4b89-81cf-e7013526f2da,Fastenal Fulfillment Center - Appointment Only,industrial_equipment,"['b2b_machinery_and_tools', 'business_to_business', 'retail']",CA,Union City,94587.0,32400 Central Ave,37.605049,-122.037401,Microsoft,2024-06-20T16:11:17.927Z,0.77,fb279c2e-3462-4f1d-98d5-6eb155a981c8,,,,OpenStreetMap,2020-09-18T20:00:36.000Z,,san-jose,False
786aeb0a-8d5a-471b-992b-c71be503ebd7,Fastenal Company,contractor,"['commercial_industrial', 'industrial_company']",CA,San Jose,95112.0,510 Parrott St,37.307359,-121.851338,meta,2025-06-02T07:00:00.000Z,0.2456896551724137,f9c9e5c1-629b-4818-8f12-4c2d1aac8ae2,,,,OpenStreetMap,2022-03-28T16:00:06.000Z,,san-jose,True
334fd3c3-90dc-43ae-97b8-9b1409995f27,Fastenal Company,industrial_equipment,"['commercial_industrial', 'industrial_company']",CA,San Jose,95112.0,1510 Oakland Rd,37.375373,-121.894268,meta,2025-06-02T07:00:00.000Z,0.3376623376623376,b5baed79-8076-44ad-b636-fb73d0268982,,,,OpenStreetMap,2021-07-31T21:10:42.000Z,,san-jose,True
14233964-27d7-409d-bb96-a7b798ba9539,Fastenal Fulfillment Center - Appointment Only,industrial_equipment,"['building_supply_store', 'b2b_machinery_and_tools', 'business_to_business', 'retail']",CA,San Jose,95131.0,1546 Montague Expy,37.4010965,-121.9024118,Microsoft,2024-03-25T19:46:20.090Z,0.77,,,,,,,,san-jose,False
44009359-2fd4-4e4a-b744-7c4540abe5f6,Fastenal Company,industrial_equipment,"['industrial_company', 'storage_facility']",CA,Valencia,91355.0,25133 Avenue Tibbitts,34.4298567,-118.5734,meta,2025-06-02T07:00:00.000Z,0.296943231441048,542beba8-332e-43e8-947d-c766acd15a4e,,industrial,industrial,OpenStreetMap,2017-02-06T11:02:25.000Z,,santa-clarita,True
39765b95-84da-421e-b7c9-de678c88e077,Fastenal Company,industrial_equipment,"['commercial_industrial', 'industrial_company']",CA,Santa Rosa,95407.0,3715 Santa Rosa Ave,38.388738,-122.714409,meta,2025-06-02T07:00:00.000Z,0.296943231441048,23fb24af-b536-47a5-9ba5-df6a1c5dd08c,,commercial,warehouse,OpenStreetMap,2022-01-08T03:39:35.000Z,,santa-rosa,True
75695558-e909-48f5-a6c5-9eef1d847df1,Fastenal Fulfillment Center,industrial_equipment,"['building_supply_store', 'b2b_machinery_and_tools', 'business_to_business', 'retail']",FL,Sarasota,34232.0,1155 Cattleman Rd Unit C,27.3244399,-82.45138,Microsoft,2024-03-25T19:46:20.090Z,0.77,,,,,,,,sarasota-bradenton,False
d6cc7e69-3264-4f43-8a10-a405f63fd4fb,Fastenal Fulfillment Center,industrial_equipment,"['commercial_industrial', 'industrial_company']",PA,Scranton,18505.0,711 Davis St,41.3774591,-75.6906041,meta,2025-06-02T07:00:00.000Z,0.9204819277108434,37b8d30b-c88c-4c5f-b577-bee4c54acffd,,,,OpenStreetMap,2016-05-22T12:50:40.000Z,,scranton,False
d2a00aa0-e85e-411d-b530-895512ba6682,Fastenal Company,industrial_equipment,"['commercial_industrial', 'industrial_company']",PA,Olyphant,18447.0,1506 E Lackawanna Ave,41.45578,-75.58423,meta,2025-06-02T07:00:00.000Z,0.3376623376623376,,,,,,,,scranton,True
f7662067-e8ec-4478-8b5b-aaf3892cb0a5,Fastenal Fulfillment Center,building_supply_store,"['business_to_business', 'retail']",PA,Olyphant,18447.0,1153 Mid Valley Dr,41.4590329,-75.5762299,Microsoft,2024-03-25T19:46:20.090Z,0.77,,,,,,,,scranton,False
bb6f89eb-8506-4701-ae8c-4d7e5b1ec4ae,Fastenal Co Distribution Center,telecommunications_company,"['professional_services', 'freight_and_cargo_service']",PA,Jessup,18434.0,1225 Mid Valley Dr,41.46102,-75.5722477,meta,2025-06-02T07:00:00.000Z,0.9459263554653524,213bc71a-86c4-4cf3-8791-51f429c57e4c,,,,OpenStreetMap,2016-05-23T21:22:18.000Z,,scranton,False
67fff331-45d3-4e9d-8d77-e9048c224164,Fastenal Fulfillment Center,industrial_equipment,"['building_supply_store', 'wholesale_store', 'b2b_machinery_and_tools', 'hydraulic_equipment_supplier', 'business_equipment_and_supply', 'business_to_business', 'retail']",WA,Lakewood,98499.0,4425 100th St SW,47.1666254,-122.496492,Microsoft,2024-03-25T19:49:57.280Z,0.77,,,,,,,,seattle,False
736c35f2-9196-4983-93b9-1c540e787720,Fastenal Fulfillment Center,building_supply_store,"['business_to_business', 'retail']",WA,Sumner,98390.0,1302 Puyallup St Ste G,47.2129992,-122.2400465,Microsoft,2024-03-25T19:46:21.790Z,0.77,,,,,,,,seattle,False
da92f17e-2a13-4bdd-8014-5d0502bf3fdc,Fastenal Fulfillment Center,building_supply_store,"['business_to_business', 'retail']",WA,Auburn,98001.0,1508 O St SW Ste 112,47.2942485,-122.2499354,Microsoft,2024-03-25T19:46:21.790Z,0.77,,,,,,,,seattle,False
a1137e87-d0a6-48c1-9f17-544426513673,Fastenal Fulfillment Center,industrial_equipment,"['building_supply_store', 'b2b_machinery_and_tools', 'business_to_business', 'retail']",WA,Tukwila,98188.0,1183 Andover Park W,47.4444717,-122.2544811,Microsoft,2024-03-25T19:46:21.790Z,0.77,,,,,,,,seattle,False
d01b96c1-e7f9-4f97-aceb-e7d64ff6f16b,Fastenal Fulfillment Center,building_supply_store,"['business_to_business', 'retail']",WA,Seattle,98108.0,9124 E Marginal Way S,47.521154,-122.2995365,Microsoft,2024-03-25T19:46:21.790Z,0.77,,,,,,,,seattle,False
3adafdf0-edf5-444e-9b38-c063db98922c,Fastenal Fulfillment Center,industrial_equipment,"['building_supply_store', 'b2b_machinery_and_tools', 'business_to_business', 'retail']",WA,Redmond,98052.0,9145 Willows Rd NE,47.6841497,-122.1443039,Microsoft,2024-03-25T19:46:21.790Z,0.77,,,,,,,,seattle,False
