id_left,primary_name_left,primary_category,alternate_category,region,locality,zipcode,address,latitude,longitude,plc_source_dataset,plc_source_update_time,plc_source_confidence,id_right,primary_name_right,subtype,class,bldg_dataset,bldg_update_time,bldg_confidence,source_city,is_office_by_pipeline
d925630f-161c-4686-b928-e1a44cb776fb,"Tara Norton, MPT",doctor,['health_and_medical'],NC,Raleigh,27617.0,10211 Alm St Ste 212,35.9002621,-78.7975881,Microsoft,2025-02-04T21:25:11.330Z,0.77,,,,,,,,raleigh,False
40541c4b-be71-4be3-b31c-913d095b015f,Virginia Norton Realty,real_estate_agent,['real_estate'],NC,Raleigh,27617.0,7751 Brier Creek Pkwy,35.9186902,-78.777101,meta,2025-06-02T07:00:00.000Z,0.9204819277108434,96ce29b4-0572-40ba-9f9e-3ea0ed9a2dd4,,,,OpenStreetMap,2019-06-03T02:05:02.000Z,,raleigh,False
6bede463-2df2-4cf0-ad0e-9d51e6331877,"Joanna Norton, DO",doctor,['health_and_medical'],NC,Raleigh,27607.0,3633 Harden Rd Ste 100,35.8131374,-78.7022278,Microsoft,2025-02-04T21:25:11.330Z,0.77,,,,,,,,raleigh,False
02fab484-0b2a-4a63-8b40-2dbcf2bb9146,Norton Collar Lund Lilley,accountant,"['financial_service', 'trusts']",NC,Raleigh,27615.0,7701 Six Forks Rd,35.8847323,-78.6470545,meta,2025-06-02T07:00:00.000Z,0.9415384615384615,,,,,,,,raleigh,False
fd52db52-0bbd-4260-89cb-6553d89ab69a,"Jim Norton Architect, LLC",architectural_designer,"['engineering_services', 'carpenter']",AL,Huntsville,35806.0,150 W Park Loop NW,34.7451512,-86.6909325,meta,2025-06-02T07:00:00.000Z,0.9204819277108434,2ec5c611-03db-44fc-8e81-8f01dd54655f,,,,OpenStreetMap,2021-07-03T15:30:36.000Z,,huntsville,False
3b8b5ba3-5299-4218-ad10-928fe411bc7b,Norton Paint Company,contractor,['painting'],NC,Greensboro,27405.0,313 Melbourne Rd,36.1065546,-79.7832067,meta,2025-06-02T07:00:00.000Z,0.909823677581864,,,,,,,,greensboro,True
500f29f3-03ec-4d07-8a2b-c3989134fd69,Norton Herrick Center for Motion Picture Studies,college_university,['event_photography'],FL,Coral Gables,33146.0,5100 Brunson Dr,25.722726,-80.2757918,meta,2025-06-02T07:00:00.000Z,0.242152466367713,,,,,,,,miami,False
62db8763-83be-4c2a-aad6-d126f1e18c41,Allen Norton & Blue PA,lawyer,"['criminal_defense_law', 'legal_services']",FL,Coral Gables,33134.0,121 Majorca Ave,25.7553661,-80.2575877,meta,2025-06-02T07:00:00.000Z,0.9415384615384615,f5b99010-d024-4ac6-86a6-03496e59b7c5,,,,OpenStreetMap,2016-08-05T03:10:31.000Z,,miami,False
343e3f03-fab3-417c-87d1-128c0c0c7b5f,Philip Norton,real_estate_agent,['real_estate'],FL,Miami,33131.0,100 SE 2nd St,25.7723383,-80.1913299,meta,2025-06-02T07:00:00.000Z,0.8860580325548478,4ca22625-9fe9-466f-abe1-b3e2ed1fdff7,,commercial,commercial,OpenStreetMap,2022-10-19T00:46:26.000Z,,miami,False
343e3f03-fab3-417c-87d1-128c0c0c7b5f,Philip Norton,real_estate_agent,['real_estate'],FL,Miami,33131.0,100 SE 2nd St,25.7723383,-80.1913299,meta,2025-06-02T07:00:00.000Z,0.8860580325548478,5d381128-9e70-475b-a204-381cf3ff85b5,Miami Tower,commercial,commercial,OpenStreetMap,2023-01-06T20:33:24.000Z,,miami,False
b03a7931-8da7-4b10-b60f-93f3a107c011,Norton Carbide Tools,hardware_store,"['commercial_industrial', 'outdoor_gear']",FL,Davie,33314.0,5775 Orange Dr,26.0663572,-80.2233739,meta,2025-06-02T07:00:00.000Z,0.9784508333782836,2ed75e3e-3935-4a99-abaf-672aff53360f,,,,OpenStreetMap,2021-08-06T17:07:53.000Z,,miami,False
95f39752-74b1-45c8-8ebd-e08d82f30fa0,A Norton Painting,professional_services,,FL,Boca Raton,33432.0,160 W Camino Real,26.3401473,-80.0902578,meta,2025-06-02T07:00:00.000Z,0.8860580325548478,6d7d54ed-cf05-43d7-8186-96335ceca1be,The Fresh Market,,,OpenStreetMap,2022-07-27T22:17:41.000Z,,miami,False
07d1b116-d962-4483-862a-692d028466d0,Robert P. Norton,orthopedist,"['doctor', 'hospital']",FL,Boca Raton,33431.0,670 Glades Rd,26.3635332,-80.1002846,meta,2025-06-02T07:00:00.000Z,0.9784508333782836,16071c65-f542-48c8-a0b9-2cc8965fee60,,,,OpenStreetMap,2022-01-23T23:52:21.000Z,,miami,False
6053cc4b-2b9a-4152-986c-d857c5be89f9,"Robert P Norton, MD - Spine Surgeon",orthopedist,"['doctor', 'health_and_medical']",FL,Boca Raton,33431.0,670 Glades Rd Ste 200,26.3626622,-80.0981875,Microsoft,2025-02-18T14:52:32.050Z,0.77,,,,,,,,miami,False
f9b02f2d-30b5-41eb-bbd7-d4f602376cd1,"Monty Norton, P.A.",real_estate,['real_estate_agent'],FL,Boca Raton,33433.0,7280 W Palmetto Park Rd,26.4743301,-80.1233339,meta,2025-06-02T07:00:00.000Z,0.3961437335670464,,,,,,,,miami,False
bcdc8821-9ee2-40c6-99f4-f7fe8091f8c5,Norton Dental Arts,cosmetic_dentist,"['dentist', 'professional_services']",FL,Delray Beach,33445.0,900 NW 17th Ave,26.4746224,-80.0906526,meta,2025-06-02T07:00:00.000Z,0.9784508333782836,7d20c9b1-c567-449e-ae8e-a04a9b6ead6d,,,,OpenStreetMap,2021-04-26T08:39:32.000Z,,miami,False
e87e4241-6800-4b5c-bbaf-52dedc17fe91,Norton Dental Arts,cosmetic_dentist,"['dentist', 'professional_services']",FL,Lantana,33462.0,1280 W Lantana Rd,26.5869435,-80.065157,meta,2025-06-02T07:00:00.000Z,0.9784508333782836,,,,,,,,miami,False
91e33b3b-2853-4db4-86e8-123f5deee67b,"Associates in Obstetrics & Gynecology, a part of Norton Women's Care - Dixie",obstetrician_and_gynecologist,"['doctor', 'health_and_medical']",KY,Louisville,40216.0,5129 Dixie Hwy Ste 305,26.666917,-80.055369,Microsoft,2016-03-08T18:46:37.237Z,0.77,,,,,,,,miami,False
e3420cb7-903c-4ad1-ab59-fc69555d14fe,Norton House,landmark_and_historical_building,"['art_museum', 'modern_art_museum']",FL,West Palm Beach,33401.0,253 Barcelona Rd,26.69537,-80.05065,meta,2025-06-02T07:00:00.000Z,0.3376623376623376,4f244529-50f8-4c41-9fff-624d9e9b81c5,,,,OpenStreetMap,2022-03-21T14:42:23.000Z,,miami,False
38186002-af31-402c-8adf-39c71d967063,Ann Norton Sculpture Gardens,art_museum,"['botanical_garden', 'sculpture_statue']",FL,West Palm Beach,33401.0,253 Barcelona Rd,26.6953343,-80.0505525,meta,2025-06-02T07:00:00.000Z,0.9459263554653524,4f244529-50f8-4c41-9fff-624d9e9b81c5,,,,OpenStreetMap,2022-03-21T14:42:23.000Z,,miami,False
33b2c63b-2597-49c7-a931-c020ac6c9d05,Norton Museum of Art,art_museum,"['museum', 'art_gallery']",FL,West Palm Beach,33401.0,1450 S Dixie Hwy,26.700863,-80.0534893,meta,2025-06-02T07:00:00.000Z,0.9879256218304756,4e654f88-eda5-4de3-9a20-e3b76606ae52,,,,OpenStreetMap,2022-02-27T14:26:07.000Z,,miami,False
29a1d56e-d2f1-4aea-a97b-b890e117293c,The Restaurant at The Norton,american_restaurant,"['restaurant', 'bar']",FL,West Palm Beach,33401.0,1450 S Dixie Hwy,26.7004627,-80.0531377,meta,2025-06-02T07:00:00.000Z,0.9784508333782836,4e654f88-eda5-4de3-9a20-e3b76606ae52,,,,OpenStreetMap,2022-02-27T14:26:07.000Z,,miami,False
d02fe084-2f54-490f-bb3d-804c1dd25cce,Norton Park Place,landmark_and_historical_building,"['accommodation', 'park']",FL,West Palm Beach,33401.0,1501 S Flagler Dr,26.7001762,-80.0507155,meta,2025-06-02T07:00:00.000Z,0.9459263554653524,1a7233e0-301e-47aa-883a-4860ce3c65bf,,,,OpenStreetMap,2018-05-04T20:23:20.000Z,,miami,False
88b46611-9fe5-4349-8567-254e58da51e2,Norton Manor,landmark_and_historical_building,"['retirement_home', 'lawyer']",OH,Youngstown,44505.0,1400 Springdale Ave,41.1124655,-80.6262588,meta,2025-06-02T07:00:00.000Z,0.909823677581864,88973089-5686-44bd-8ca5-0afe24f33f53,,,,OpenStreetMap,2024-08-05T19:39:46.000Z,,youngstown,False
44ab49d9-d500-47cb-95d0-2bd2e8b359ba,W. W. Norton & Company,book_magazine_distribution,"['shopping', 'fashion_accessories_store']",,,18512.0,Keystone Industrial Park,41.436245,-75.605154,meta,2025-06-02T07:00:00.000Z,0.242152466367713,33bc633e-bd7b-4736-a4ff-85f0465adbd8,,,,OpenStreetMap,2018-08-23T01:25:10.000Z,,scranton,True
328d2297-f614-4dcc-80b2-a4a139bb0357,Norton Rose Fulbright,lawyer,"['tattoo_and_piercing', 'flowers_and_gifts_shop']",TX,Austin,78701.0,98 San Jacinto Blvd,30.2627377,-97.7429395,meta,2025-06-02T07:00:00.000Z,0.9784508333782836,5e3ec6fe-d31c-4ae6-b510-8402c494e54e,San Jacinto Center,,,OpenStreetMap,2017-08-17T06:15:07.000Z,,austin,False
6a4dc780-2f8f-414c-82ab-b275ba1f74a3,Norton Moses Masonic Lodge,social_service_organizations,['lodge'],TX,Leander,78641.0,201 Sonny Dr,30.5684768,-97.8507213,meta,2025-06-02T07:00:00.000Z,0.9459263554653524,,,,,,,,austin,False
0086049b-05d2-4d8c-8c2d-8dc1eecbcb69,Norton Fitness-Houston,active_life,"['gym', 'health_and_medical']",,,77058.0,1110 E NASA Pkwy STE 108I,30.4604151,-97.6481987,meta,2025-06-02T07:00:00.000Z,0.909823677581864,80724424-37fc-4199-aa44-d19a10be83fb,,commercial,commercial,OpenStreetMap,2023-10-21T02:19:38.000Z,,austin,False
e2b9894e-441e-43b8-9f90-c1b309e5ab36,Norton and Hodges,jewelry_store,"['fashion', 'shopping']",SC,Charleston,29401.0,3 Broad St,32.77663,-79.92732,meta,2025-06-02T07:00:00.000Z,0.3961437335670464,4de028ea-9b3c-4e3f-becb-401e0e708f46,,commercial,commercial,OpenStreetMap,2025-05-30T21:04:46.000Z,,charleston,False
e2b9894e-441e-43b8-9f90-c1b309e5ab36,Norton and Hodges,jewelry_store,"['fashion', 'shopping']",SC,Charleston,29401.0,3 Broad St,32.77663,-79.92732,meta,2025-06-02T07:00:00.000Z,0.3961437335670464,7c6d5f15-ef91-4091-bf28-30cc5c442f2c,"Walker, Evans & Cogswell Building",commercial,commercial,OpenStreetMap,2025-05-30T21:04:46.000Z,,charleston,False
e2b9894e-441e-43b8-9f90-c1b309e5ab36,Norton and Hodges,jewelry_store,"['fashion', 'shopping']",SC,Charleston,29401.0,3 Broad St,32.77663,-79.92732,meta,2025-06-02T07:00:00.000Z,0.3961437335670464,edbbc663-5318-4c7d-9cf1-804a940a063e,State Bank of South Carolina Building,commercial,retail,OpenStreetMap,2025-05-30T21:04:46.000Z,,charleston,False
02d90225-767f-4d4a-86a1-d347919635a4,Dee Norton Child Advocacy Center,community_services_non_profits,"['social_service_organizations', 'charity_organization']",SC,Charleston,29403.0,1061 King St,32.8049186,-79.9511038,meta,2025-06-02T07:00:00.000Z,0.8860580325548478,437bf8d7-be19-4142-a51a-9c244b7bc2d7,,,,OpenStreetMap,2022-12-17T21:06:39.000Z,,charleston,False
fe9a5a25-9fdd-4de4-8ff8-303b3e75682e,Norton Psychological Services LLC,psychologist,"['counseling_and_mental_health', 'life_coach']",IL,Libertyville,60048.0,1580 S Milwaukee Ave,42.2558239,-87.9470988,meta,2025-06-02T07:00:00.000Z,0.296943231441048,,,,,,,,round-lake-beach-mchenry-grayslake,False
b75e8c7e-aad3-4144-af97-e672bab27437,Norton Hammersley Lopez and Skokos,lawyer,['legal_services'],FL,Sarasota,34236.0,1819 Main St,27.3365301,-82.5334419,meta,2025-06-02T07:00:00.000Z,0.9204819277108434,,,,,,,,sarasota-bradenton,False
a5baf19c-fcf2-41e4-9983-c7aa217309fc,"Dr. Leroy Norton, Jr.",optometrist,['health_and_medical'],TN,Memphis,38116.0,4557 Millbranch Rd,35.0242993587469,-90.0079801335425,Microsoft,2016-04-12T22:14:30.087Z,0.77,23d2cd06-4ffc-42e8-9729-5774d4b4b7d9,,,,OpenStreetMap,2018-10-30T01:04:29.000Z,,memphis,False
400ed484-7992-4a9d-845f-e4c805436c77,Norton Family Dentistry,dentist,"['health_and_medical', 'cosmetic_dentist']",OH,Norton,44203.0,4322 Cleveland Massillon Rd,41.020892,-81.6388011,meta,2025-06-02T07:00:00.000Z,0.9784508333782836,,,,,,,,akron,False
ff4e928c-9051-46d8-97fa-65658d44ce87,Norton Mutual Insurance Agency,insurance_agency,,OH,Barberton,44203.0,529 W Tuscarawas Ave,41.0129342,-81.6090645,meta,2025-06-02T07:00:00.000Z,0.9784508333782836,c582d3ae-b727-4b03-80ab-3344cdebb016,,,,OpenStreetMap,2023-03-04T19:32:11.000Z,,akron,False
368a0ed8-1cf0-4464-9d40-54d02b687824,Norton Mutual Insurance Ag,auto_insurance,['home_and_rental_insurance'],OH,Barberton,44203.0,529 W Tuscarawas Ave,41.01311091843377,-81.6090402233767,Microsoft,2018-07-23T15:01:32.837Z,0.77,c582d3ae-b727-4b03-80ab-3344cdebb016,,,,OpenStreetMap,2023-03-04T19:32:11.000Z,,akron,False
3751be41-59d0-49d7-abab-5ea5536fa95e,Norton Youth Football Fieldhouse,gym,"['active_life', 'sports_and_recreation_venue']",OH,Norton,44203.0,4060 Columbia Woods Dr,41.0236972,-81.6470858,meta,2025-06-02T07:00:00.000Z,0.9459263554653524,,,,,,,,akron,False
677e55d3-c9c8-4d2d-8d4b-9b854bf6798c,Athletico Physical Therapy - Norton,physical_therapy,['health_and_medical'],OH,Norton,44203.0,3300 Greenwich Rd,41.0251573,-81.6445233,Microsoft,2023-12-18T01:10:56.687Z,0.77,f328f6c5-53dc-4fe9-b403-8c8aa65820bc,,,,Microsoft ML Buildings,2000-01-01T00:00:00.000Z,,akron,False
517ff352-c5d0-4e9a-8874-ddc35f4b6ba8,"Snap Fitness. Norton, OH",gym,"['active_life', 'health_and_medical']",OH,Norton,44203.0,3300 Greenwich Rd,41.0252845,-81.6440927,meta,2025-06-02T07:00:00.000Z,0.9784508333782836,f328f6c5-53dc-4fe9-b403-8c8aa65820bc,,,,Microsoft ML Buildings,2000-01-01T00:00:00.000Z,,akron,False
daac9ba8-7a42-45dc-b0cc-e30c0b6cdf70,Norton Baseball Association,youth_organizations,"['community_services_non_profits', 'active_life']",OH,Norton,44203.0,3200 Greenwich Rd,41.023731,-81.640498,meta,2025-06-02T07:00:00.000Z,0.296943231441048,178d017d-cf45-4206-9211-5e7f76ef3ca1,,,,OpenStreetMap,2023-03-29T18:19:20.000Z,,akron,False
958af4d2-70f6-46e5-a6ac-177bece8292f,Pet Supplies Plus Norton,pet_services,['pet_store'],OH,Norton,44203.0,3200 Greenwich Rd,41.0242025,-81.6403123,meta,2025-06-02T07:00:00.000Z,0.9879256218304756,178d017d-cf45-4206-9211-5e7f76ef3ca1,,,,OpenStreetMap,2023-03-29T18:19:20.000Z,,akron,False
dc36ad82-3c39-4a21-b29a-b2816c9b20f5,Norton Plaza,grocery_store,"['supermarket', 'shopping']",OH,Norton,44203.0,3200 Greenwich Rd,41.024257,-81.639705,meta,2025-06-02T07:00:00.000Z,0.7548172757475083,178d017d-cf45-4206-9211-5e7f76ef3ca1,,,,OpenStreetMap,2023-03-29T18:19:20.000Z,,akron,False
37d2eee8-1e3b-4cec-8f7f-8bd87e3ca576,Plaza At Norton,shopping_center,"['shopping', 'health_and_medical']",OH,Norton,44203.0,4162 Cleveland Massillon Rd,41.0245137,-81.6398534,meta,2025-06-02T07:00:00.000Z,0.9204819277108434,,,,,,,,akron,False
dbd483ec-d635-40df-b76b-cf29e44da56c,Post Office-Norton,post_office,"['public_service_and_government', 'public_and_government_association']",OH,Norton,44203.0,3200 Greenwich Rd,41.02559,-81.6401251,meta,2025-06-02T07:00:00.000Z,0.4929396662387676,,,,,,,,akron,False
413e60cf-1cec-4de6-9f86-7843c9bbc1b7,Athletico Physical Therapy - Norton,physical_therapy,['health_and_medical'],OH,Norton,44203.0,3300 Greenwich Rd,41.025799,-81.6444906,Microsoft,2025-04-16T16:54:33.287Z,0.77,,,,,,,,akron,False
6f1e4d75-450a-4cf0-b0b5-0aea825f43d2,Norton Primary School,elementary_school,"['education', 'school']",OH,Norton,44203.0,3163 Greenwich Rd,41.0270341,-81.6409956,meta,2025-06-02T07:00:00.000Z,0.9784508333782836,8a9da84f-7e93-4af1-af36-309469092321,,education,school,OpenStreetMap,2023-01-23T15:01:44.000Z,,akron,False
38c71b07-51d1-45fb-aae3-caa1dac7c117,Norton City Schools Administration Office,education,"['school', 'public_school']",OH,Norton,44203.0,4108 S Cleveland Massillon Rd,41.0266158,-81.6394272,meta,2025-06-02T07:00:00.000Z,0.9784508333782836,,,,,,,,akron,False
0e73017a-eeb7-4c7f-90f9-7b4f06b1276a,Norton Middle School,high_school,"['middle_school', 'public_school']",OH,Norton,44203.0,4108 S Cleveland Massillon Rd,41.0285123,-81.6417364,meta,2025-06-02T07:00:00.000Z,0.9784508333782836,28679982-b499-4e7d-b2d8-e3da129f63a8,,education,school,OpenStreetMap,2023-01-23T15:01:44.000Z,,akron,False
04ab086a-6fb6-4d75-9acd-4fbd1fe01467,Norton High School Stadium,stadium_arena,"['active_life', 'high_school']",OH,Norton,44203.0,3930 S Cleveland Massillon Rd,41.0318781,-81.6422428,meta,2025-06-02T07:00:00.000Z,0.9784508333782836,,,,,,,,akron,False
81fa1c7a-69f0-4a53-9718-85820b0e7071,Norton HS Sports Complex,active_life,"['baseball_field', 'sports_club_and_league']",OH,Barberton,0.0,,41.0320607,-81.6424211,meta,2025-06-02T07:00:00.000Z,0.4929396662387676,,,,,,,,akron,False
3a564822-e439-4dbe-a478-7e5a15178c25,Norton High School Baseball Field,attractions_and_activities,"['stadium_arena', 'football_stadium']",OH,Norton,44203.0,3956 S Cleveland Massillon Rd,41.0318471,-81.6410104,meta,2025-06-02T07:00:00.000Z,0.9297091412742382,,,,,,,,akron,False
6c9e6429-7abf-43e4-81ff-07a9e355010a,Norton Baptist Church,church_cathedral,"['baptist_church', 'religious_organization']",OH,Norton,44203.0,4239 S Cleveland Massillon Rd,41.0231531,-81.6379739,meta,2025-06-02T07:00:00.000Z,0.9784508333782836,7c1d9247-f762-4544-b3f9-def910f6ad57,,,,Microsoft ML Buildings,2000-01-01T00:00:00.000Z,,akron,False
c75b907e-5e45-4477-b8fe-e63b201783a7,Fiesta Salons Norton,hair_salon,"['beauty_salon', 'beauty_and_spa']",OH,Norton,44203.0,4162 Cleveland Massillon Rd,41.02524,-81.63884,meta,2025-06-02T07:00:00.000Z,0.5662921348314607,5392c3c4-f33d-4dec-9a4b-8e009a868e86,,commercial,retail,OpenStreetMap,2024-09-30T14:54:55.000Z,,akron,False
9fd4f816-bd96-42e3-bf24-bc7321009dfa,Norton Farmers Market,farmers_market,,OH,Norton,44203.0,4138 S Cleveland Massillon Rd,41.0263967,-81.6387815,meta,2025-06-02T07:00:00.000Z,0.5662921348314607,2db42f56-26bb-491a-9878-3b2a7de2fbc6,,,,Microsoft ML Buildings,2000-01-01T00:00:00.000Z,,akron,False
bc5a3099-7b18-4193-be99-b8c9e2266a09,Norton City Schools,middle_school,"['public_school', 'school']",OH,Barberton,44203.0,4138 S Cleveland Massillon Rd,41.026602,-81.638826,meta,2025-06-02T07:00:00.000Z,0.7548172757475083,2db42f56-26bb-491a-9878-3b2a7de2fbc6,,,,Microsoft ML Buildings,2000-01-01T00:00:00.000Z,,akron,False
a87b8b0a-3ef5-4445-895d-4691018b53a0,HealthSource Chiropractic of Norton,chiropractor,['health_and_medical'],OH,Norton,44203.0,1309 Norton Ave Ste 120,41.026145,-81.636772,Microsoft,2021-03-17T22:37:45.170Z,0.77,410fcc37-6a12-46b1-b05c-2e6cd65ec56b,,,,OpenStreetMap,2024-09-30T14:54:55.000Z,,akron,False
4f7e4129-637c-403a-9390-09206b74abb3,JJ's Norton Cafe,diner,"['cafe', 'restaurant']",OH,Norton,44203.0,1275 Norton Ave,41.025909,-81.6356726,meta,2025-06-02T07:00:00.000Z,0.9784508333782836,,,,,,,,akron,False
91133a9f-3f34-4109-b64f-aacae41100ea,Norton Family Practice,family_practice,"['doctor', 'health_and_medical']",OH,Norton,44203.0,1193 Norton Ave,41.0259751,-81.6329485,meta,2025-06-02T07:00:00.000Z,0.9784508333782836,,,,,,,,akron,False
a7070f8c-0ba4-464c-a8a2-45fd66065735,Norton Branch Library,library,"['central_government_office', 'public_and_government_association']",OH,Norton,44203.0,3930 S Cleveland Massillon Rd,41.03168,-81.6391496,meta,2025-06-02T07:00:00.000Z,0.9784508333782836,de087dda-3433-41d6-89d9-9bc85181b082,Akron-Summit County Public Library Norton Branch,civic,library,OpenStreetMap,2023-01-20T15:03:20.000Z,,akron,False
405794f7-08a4-4613-a725-dc257903a855,Norton High School,elementary_school,"['high_school', 'education']",OH,Norton,44203.0,1 Panther Way,41.0345392,-81.6422241,meta,2025-06-02T07:00:00.000Z,0.9784508333782836,98219ed6-1419-4611-ab15-17d974e87f4f,Norton High School,education,school,OpenStreetMap,2024-04-18T22:33:29.000Z,,akron,False
7baa0719-faed-4c29-9077-25677594d601,Norton Performing Arts Center,theatre,"['topic_concert_venue', 'high_school']",OH,Norton,44203.0,1 Panther Way,41.0344026,-81.6415423,meta,2025-06-02T07:00:00.000Z,0.9784508333782836,98219ed6-1419-4611-ab15-17d974e87f4f,Norton High School,education,school,OpenStreetMap,2024-04-18T22:33:29.000Z,,akron,False
ae3c9317-0dc0-413e-9285-2ab3ceb9ac9b,Norton Church of Christ,church_cathedral,['religious_organization'],OH,Norton,44203.0,3274 Greenfall Rd,41.0405245,-81.6451115,meta,2025-06-02T07:00:00.000Z,0.9784508333782836,,,,,,,,akron,False
50ae9f6f-93ff-4e96-8a7f-b6a619bfa4df,The Norton Church of Christ,church_cathedral,,OH,Norton,0.0,,41.04065,-81.64514,meta,2025-06-02T07:00:00.000Z,0.3376623376623376,,,,,,,,akron,False
930a62b4-1c6a-4d62-ac69-aa19c03dd8a3,Norton Chiropractic Center,chiropractor,"['naturopathic_holistic', 'medical_service_organizations']",OH,Norton,44203.0,3725 S Cleveland Massillon Rd,41.0372302,-81.6371692,meta,2025-06-02T07:00:00.000Z,0.9784508333782836,,,,,,,,akron,False
3ef05868-2b46-4ded-85cd-e4bb3365c4ec,Norton Church of Christ,church_cathedral,['religious_organization'],OH,Norton,0.0,,41.03225,-81.62079,meta,2025-06-02T07:00:00.000Z,0.3961437335670464,,,,,,,,akron,False
45e4ea83-1921-4eba-a7e9-50508505305d,Norton Raceway Park,race_track,"['topic_concert_venue', 'active_life']",OH,Norton,44203.0,3363 Clark Mill Rd,41.0369201,-81.6171165,meta,2025-06-02T07:00:00.000Z,0.9784508333782836,63e6756b-2fbf-4a7f-9867-2726fe677784,,,,Microsoft ML Buildings,2000-01-01T00:00:00.000Z,,akron,False
45e4ea83-1921-4eba-a7e9-50508505305d,Norton Raceway Park,race_track,"['topic_concert_venue', 'active_life']",OH,Norton,44203.0,3363 Clark Mill Rd,41.0369201,-81.6171165,meta,2025-06-02T07:00:00.000Z,0.9784508333782836,6467fa79-d178-49e7-975d-dae092a5ee38,,,,Microsoft ML Buildings,2000-01-01T00:00:00.000Z,,akron,False
621cd7bf-ec31-4e5a-9487-c7f34bb8fe5d,Range 42 Norton,shooting_range,['gun_and_ammo'],OH,Norton,44203.0,3017 Barber Rd,41.0428338,-81.6083198,meta,2025-06-02T07:00:00.000Z,0.9784508333782836,97c9c4fe-b8f6-4bcc-bd8c-cbea19949ce7,,,,Microsoft ML Buildings,2000-01-01T00:00:00.000Z,,akron,False
e2bcd324-5ea2-4eb6-9ac5-20664e06b098,Barberton Norton Mosquito Abatement District,public_service_and_government,"['central_government_office', 'funeral_services_and_cemeteries']",OH,Barberton,44203.0,131 Snyder Ave,41.0029081,-81.6039566,meta,2025-06-02T07:00:00.000Z,0.9297091412742382,,,,,,,,akron,False
9efd0dfe-f1ff-47c0-b9c7-fd03afedb537,Norton Marine LLC,marina,['social_service_organizations'],OH,Norton,44203.0,4190 Summit Rd,41.0408194,-81.594531,meta,2025-06-02T07:00:00.000Z,0.9459263554653524,,,,,,,,akron,False
930ec908-bfb5-4afd-bf8a-554f1f473c16,Norton Elementary School,elementary_school,['education'],OH,Norton,44203.0,3390 S Cleveland Massillon Rd,41.0467976,-81.6392753,meta,2025-06-02T07:00:00.000Z,0.9784508333782836,6fdfab9a-560a-4062-a589-83795eff4b01,,,,Microsoft ML Buildings,2000-01-01T00:00:00.000Z,,akron,False
a63cf0b2-6155-4b62-8aca-d8860f775103,Norton Self Storage Inc,storage_facility,"['commercial_industrial', 'industrial_company']",OH,Norton,44203.0,3093 Whipple Dr,41.0495236,-81.6392602,meta,2025-06-02T07:00:00.000Z,0.9784508333782836,c5bac70f-667a-4d80-acf3-520c19f2130f,,,,Microsoft ML Buildings,2000-01-01T00:00:00.000Z,,akron,False
211dfadb-ac9a-4c99-8ef0-8b355246d35e,Norton Tool Rental,rental_service,,OH,Norton,44203.0,2824 Barber Rd,41.0482365,-81.6088854,meta,2025-06-02T07:00:00.000Z,0.9300613496932516,54d75cb3-f6da-4368-b6bc-fd3384e05abe,,,,Microsoft ML Buildings,2000-01-01T00:00:00.000Z,,akron,False
1cbfbb7b-464b-4ab4-88ec-5b29cd5616d6,Jack Leonhard at Ken Ganley Ford in Norton,car_dealer,,OH,Norton,44203.0,2835 Barber Rd,41.0488247,-81.6079388,meta,2025-06-02T07:00:00.000Z,0.296943231441048,93c90781-84b6-48bb-92a9-0148807cd8fb,,,,Microsoft ML Buildings,2000-01-01T00:00:00.000Z,,akron,False
3f4f7ff2-7a68-4a1d-8b4a-e7258a623a3a,Ken Ganley Ford Norton,car_dealer,['automobile_leasing'],OH,Norton,44203.0,2835 Barber Rd,41.04882,-81.607527,meta,2025-06-02T07:00:00.000Z,0.9879256218304756,93c90781-84b6-48bb-92a9-0148807cd8fb,,,,Microsoft ML Buildings,2000-01-01T00:00:00.000Z,,akron,False
3af77bbc-cb99-41af-9272-433bc78683ce,Wing Warehouse-Norton,chicken_restaurant,"['bar', 'american_restaurant']",OH,Norton,44203.0,2293 Wadsworth Rd,41.054576,-81.6118442,meta,2025-06-02T07:00:00.000Z,0.9784508333782836,fb9e0b83-5c61-4a22-89be-5dc7c88751e9,,,,Microsoft ML Buildings,2000-01-01T00:00:00.000Z,,akron,False
74d82aca-232e-4fdd-bdb6-7d64d67201b7,Norton Orthodontics,dentist,"['orthodontist', 'doctor']",FL,Cape Coral,33904.0,4115 Del Prado Blvd S,26.5745222,-81.9433807,meta,2025-06-02T07:00:00.000Z,0.9784508333782836,,,,,,,,cape-coral,False
70e077c8-821b-4199-a207-0f72e6e8bded,Markham Norton Mosteller Wright and Company,accountant,"['professional_services', 'financial_service']",FL,Fort Myers,33919.0,8961 Conference Dr,26.5550277,-81.9034295,meta,2025-06-02T07:00:00.000Z,0.9784508333782836,9ed94dbe-c4bc-4489-9afa-ee8c0ec0f4b8,,,,OpenStreetMap,2022-05-01T14:10:47.000Z,,cape-coral,False
f88c6085-641a-408b-af98-e6a6b5bbab29,Norton Orthodontics: Donald Norton PA,dentist,"['health_and_medical', 'shopping']",FL,Fort Myers,33907.0,45 Barkley Cir,26.588323,-81.881579,meta,2025-06-02T07:00:00.000Z,0.3376623376623376,9db72073-8ea3-4f9c-98c7-0ae3d0b33585,,,,OpenStreetMap,2022-05-01T14:10:33.000Z,,cape-coral,False
d3027bfc-31bf-421b-9407-8c874882773c,"Stacy L. Norton, MD, FACOG",obstetrician_and_gynecologist,"['doctor', 'health_and_medical']",TX,Cypress,77433.0,9915 Barker Cypress Rd,29.9214774,-95.688408,Microsoft,2023-10-14T16:31:55.997Z,0.77,891ab801-ab7f-43c1-939c-5f14867e41f5,,,,OpenStreetMap,2022-06-20T01:07:17.000Z,,houston,False
f5d59dd8-37f0-437e-82d8-ab1799ad5a65,"Stacy Norton, MD, FACOG",obstetrician_and_gynecologist,"['doctor', 'health_and_medical']",TX,Cypress,77433.0,9915 Barker Cypress Rd Ste 200,29.92166,-95.688545,Microsoft,2020-11-17T20:35:41.563Z,0.77,,,,,,,,houston,False
4b34ede6-aff6-40f6-8ead-665854b8ec50,Norton Creative,advertising_agency,"['graphic_designer', 'marketing_agency']",TX,Houston,77055.0,9434 Katy Fwy,29.788054,-95.525121,meta,2025-06-02T07:00:00.000Z,0.242152466367713,b2012e86-ddb1-40ff-a060-eaadfe871242,,,,OpenStreetMap,2023-02-12T20:46:35.000Z,,houston,False
7fbae606-bbef-4f7f-8e4a-27bfbf1877ba,Norton Ditto,mens_clothing_store,"['shoe_store', 'clothing_store']",TX,Houston,77098.0,2409 W Alabama St,29.738222,-95.4169659,meta,2025-06-02T07:00:00.000Z,0.9784508333782836,a5819266-d8c3-4788-8974-7f63362ce291,,,,OpenStreetMap,2016-11-04T02:15:44.000Z,,houston,False
8aeb931b-d42e-4212-8e65-751bf9f94909,Norton Ditto of Houston Inc,clothing_store,['retail'],TX,Houston,77007.0,600 N Shepherd Dr Ste 103,29.7827915,-95.4094775,Microsoft,2023-12-12T08:11:36.490Z,0.77,,,,,,,,houston,False
3c7f043e-9224-472f-9768-0c1837963fda,Norton Rose Fulbright,lawyer,"['legal_services', 'professional_services']",TX,Houston,77010.0,1301 McKinney St,29.755288,-95.3616816,meta,2025-06-02T07:00:00.000Z,0.9879256218304756,8ad25860-999d-40cf-b8ac-e66382e3aaf8,Fulbright Tower,commercial,office,OpenStreetMap,2023-02-12T18:48:48.000Z,,houston,False
810b99b6-a76d-48f8-8ad4-b95c1cece91b,Norton Memorial Temple Church of God in Christ,church_cathedral,['pentecostal_church'],TX,Houston,77026.0,5008 Lucille St,29.7896207,-95.3201146,meta,2025-06-02T07:00:00.000Z,0.9459263554653524,74c8edaf-6185-4a2b-a361-1dcf39ce6f67,,,,OpenStreetMap,2022-08-30T05:08:16.000Z,,houston,False
904b154c-f9fb-4df5-9d72-58b93ef559f8,Norton Setup Activation,it_consultant,"['it_support_and_service', 'it_service_and_computer_repair']",TX,Houston,77018.0,347 Garden Oaks Blvd,29.82622849,-95.40492251,Microsoft,2025-04-10T12:26:11.750Z,0.77,,,,,,,,houston,False
48c9c0a2-1e3c-4457-814f-1ce46d54702a,Darrell Norton,marketing_agency,,TX,Houston,77001.0,Darrell Norton,29.5399,-95.22698,meta,2025-06-02T07:00:00.000Z,0.3313953488372093,,,,,,,,houston,False
92713002-2981-446c-99a7-0212dc8c2ba2,Norton Auto Glass,windshield_installation_and_repair,['automotive'],TX,La Porte,77571.0,403 N 10th St,29.669326,-95.029899,Microsoft,2014-06-26T23:59:16.640Z,0.77,,,,,,,,houston,False
a68fd3c6-bdb0-49a3-9be5-304c2940e6b7,"Stacy L. Norton, MD, FACOG",obstetrician_and_gynecologist,"['doctor', 'medical_center', 'health_and_medical']",TX,Houston,77070.0,"18220 State Highway 249, Ste 475",29.9667366,-95.5510361,Microsoft,2023-11-01T07:50:34.350Z,0.77,505c9523-1fc2-4245-8878-d2d6548aa9ce,Women's & Children's Pavilion,medical,hospital,OpenStreetMap,2020-09-08T22:45:11.000Z,,houston,False
9a2afca5-bc86-48da-8470-fbfb2b68cc54,Norton Industrial Dock & Door,garage_door_service,,TX,The Woodlands,77382.0,38 N Star Ridge Cir,30.181737,-95.586578,Microsoft,2015-05-12T19:01:07.467Z,0.77,46df65bb-58c9-4d2f-a6f8-93eaab757d17,,,,Microsoft ML Buildings,2023-03-04T00:00:00.000Z,,houston,False
08353498-45f0-440b-9fa1-089829ad4d97,Darren Norton - Thrivent,accountant,"['financial_service', 'financial_advising']",CA,Santa Clarita,91355.0,28015 Smyth Dr,34.4420088,-118.5717147,meta,2025-06-02T07:00:00.000Z,0.8860580325548478,5d74c11e-1c19-49e6-8400-873e490a5113,,commercial,commercial,OpenStreetMap,2017-02-06T11:31:26.000Z,,santa-clarita,False
f01c08b1-cf8a-40f7-87d7-e20538614f6a,Norton Holly T DC,chiropractor,"['naturopathic_holistic', 'health_and_medical']",RI,North Providence,2904.0,1243 Mineral Spring Ave,41.8684513,-71.4342936,meta,2025-06-02T07:00:00.000Z,0.9297091412742382,,,,,,,,providence,False
beb25eba-84f4-4ae8-9243-e82782bb3793,Bernard F. Norton School,elementary_school,"['education', 'school']",RI,Cumberland,2864.0,364 Broad St,41.9088164,-71.3943662,meta,2025-06-02T07:00:00.000Z,0.9784508333782836,4ef4f2d9-dd1b-406d-bd8c-4ff6e2fe26c3,,,,Microsoft ML Buildings,2020-10-08T00:00:00.000Z,,providence,False
f12e0674-bc99-493b-bc80-fbc9529f25d5,Dana Norton,real_estate_agent,"['professional_services', 'real_estate']",AL,Mountain Brook,35223.0,2807 Cahaba Rd,33.483436,-86.7730169,meta,2025-06-02T07:00:00.000Z,0.9300613496932516,2f63c98b-dcfa-4fb9-a8ce-a26eb0d236dd,,commercial,retail,OpenStreetMap,2025-01-20T19:41:29.000Z,,birmingham,False
a503c015-e4c8-482d-991c-2a906ca9a4f3,Norton's Florist,flowers_and_gifts_shop,"['shopping', 'retail']",AL,Birmingham,35233.0,401 22nd St S,33.5103142,-86.7989232,meta,2025-06-02T07:00:00.000Z,0.9784508333782836,,,,,,,,birmingham,False
8fe1a25c-5de5-49fc-9c46-b473790ee517,Tracy Norton,real_estate_agent,['real_estate'],CA,Clovis,93612.0,565 Pollasky Ave,36.823301,-119.701722,meta,2025-06-02T07:00:00.000Z,0.9300613496932516,559bb139-c6e8-4f6b-ad75-e59fecb7765a,,,,OpenStreetMap,2020-05-07T02:22:06.000Z,,fresno,False
b1a69476-048e-447f-8f76-8867a13c83d9,Norton Funeral Home,funeral_services_and_cemeteries,"['dentist', 'accommodation']",NJ,Williamstown,8094.0,1232 S Black Horse Pike,39.6731773,-74.9782846,meta,2025-06-02T07:00:00.000Z,0.9784508333782836,,,,,,,,philadelphia,False
af96236c-bcd2-404c-9fd1-dd973c6222ac,Norton Wealth Management,financial_advising,['professional_services'],NJ,Hammonton,8037.0,18 S 2nd St,39.6354544,-74.803057,meta,2025-06-02T07:00:00.000Z,0.9204819277108434,574fa02a-4f18-47e5-9c32-49e2373a66d3,,,,OpenStreetMap,2023-07-03T14:46:00.000Z,,philadelphia,False
666ee171-98c8-425b-9118-4e18958d41d0,Avira at Schuylkill Yards,landmark_and_historical_building,,PA,Philadelphia,19104.0,3025 John F Kennedy Blvd,39.9565305,-75.1861464,meta,2025-06-02T07:00:00.000Z,0.4929396662387676,,,,,,,,philadelphia,False
759d5f56-1aa0-407e-bed6-fcb9320856d5,Norton Avenue Baptist Church,baptist_church,"['church_cathedral', 'religious_organization']",PA,Bristol,19007.0,1230 Norton Ave,40.1182772,-74.8487768,meta,2025-06-02T07:00:00.000Z,0.9784508333782836,b80281bf-ff70-45c3-9df2-617132fb9b0d,,,,Esri Community Maps,2024-10-15T00:00:00.000Z,,philadelphia,False
85a44e9e-866b-4a31-b5b9-7e3e927865bd,Norton Custom Homes Inc.,contractor,['construction_services'],NE,Bellevue,68147.0,3307 Chandler Rd W,41.1812226,-95.9631175,meta,2025-06-02T07:00:00.000Z,0.9297091412742382,8fa1f548-cd7f-43e6-b463-c6fcf07b2095,,residential,house,OpenStreetMap,2021-09-06T12:44:38.000Z,,omaha,False
ecb1ac97-c203-4f21-8b0d-1173d5906218,William Norton III Commercial Mediation,mediator,,TN,Nashville,37203.0,1600 Division St Ste 700,36.1521747,-86.7921927,Microsoft,2022-08-29T20:53:33.577Z,0.77,,,,,,,,nashville-davidson,False
9d14b83f-dd00-483c-88db-20a1b4fcf290,Max Norton,real_estate_agent,"['real_estate', 'real_estate_service']",TN,Nashville,37203.0,656 Wedgewood Ave,36.1358291,-86.7729075,meta,2025-06-02T07:00:00.000Z,0.9297091412742382,a087bff0-1aa0-4267-9da5-38ef91a237bd,,industrial,industrial,OpenStreetMap,2019-05-01T21:07:19.000Z,,nashville-davidson,False
09514387-ea1e-4745-a661-39c5e576ac15,Bone McAllester Norton PLLC,lawyer,"['legal_services', 'professional_services']",TN,Nashville,37219.0,511 Union St,36.1638833,-86.781974,meta,2025-06-02T07:00:00.000Z,0.9784508333782836,49050fe6-d924-4466-9828-0fdd8c90e8ea,Nashville City Center,,,OpenStreetMap,2020-02-13T10:00:40.000Z,,nashville-davidson,False
baca972b-4bcd-4758-861d-f0aca4b736b8,Norton Financial Consultants,financial_advising,"['investing', 'financial_service']",MA,Medway,2053.0,165 Main St,42.1468912,-71.4269379,meta,2025-06-02T07:00:00.000Z,0.9415384615384615,fbde5805-b0d6-4e4d-a60e-f04cc7ded9c3,,,,OpenStreetMap,2018-03-14T09:31:26.000Z,,boston,False
207a6f91-f458-4e1d-a76f-40b95a5f29a4,Kevin Norton & Co,landscaping,"['professional_services', 'gardener']",MA,Holliston,1746.0,11 Ashland St,42.2274813,-71.4323451,meta,2025-06-02T07:00:00.000Z,0.8831168831168831,353257dd-3fee-4850-84bb-781e7c92db67,,,,OpenStreetMap,2020-03-14T11:59:34.000Z,,boston,False
ecf3fe2a-6700-4c09-ac39-f46ec816cab1,"Norton, McKinney & Lawler Funeral Home and Cremation Services",funeral_services_and_cemeteries,"['home_security', 'hardware_store']",MA,Framingham,1702.0,53 Beech St,42.2836235,-71.4195496,meta,2025-06-02T07:00:00.000Z,0.9784508333782836,cc3082e8-0d1d-4d4d-aec5-d58b71ede614,,,,OpenStreetMap,2019-05-11T21:59:36.000Z,,boston,False
6bccf713-ec6d-44e7-81a4-ecc023ea4e0e,Norton Pond,landmark_and_historical_building,"['structure_and_geography', 'fountain']",MA,Framingham,0.0,,42.3330379,-71.4020001,meta,2025-06-02T07:00:00.000Z,0.296943231441048,,,,,,,,boston,False
3e8a24d4-135b-4182-84ac-f2c2904afba0,Norton Point Development,home_developer,['construction_services'],MA,Newton,2459.0,95 Union St,42.3294973,-71.1932875,meta,2025-06-02T07:00:00.000Z,0.9297091412742382,c593d1d0-b38b-4f5a-ac8f-8676c5ecd8a8,,residential,apartments,OpenStreetMap,2019-04-09T21:17:06.000Z,,boston,False
11d1c805-9c84-4e60-b9be-8ef4b8e06f80,"Pulgini & Norton, LLP",personal_injury_law,,MA,Braintree,2184.0,10 Forbes Rd Ste 410,42.219593,-71.029114,Microsoft,2013-11-25T19:32:20.653Z,0.77,97515506-33d0-4146-8947-d4c931c73be3,,,,OpenStreetMap,2019-05-08T12:15:16.000Z,,boston,False
995bd16e-93dc-48b6-8892-984a08be629b,"Al Norton, Residential Sales & Rentals, Unlimited Sotheby's",real_estate,"['real_estate_agent', 'property_management']",MA,Brookline,2446.0,1334 Beacon St,42.34211,-71.12244,meta,2025-06-02T07:00:00.000Z,0.5662921348314607,8d0ca742-f9a1-4fc7-a4d7-82d0815b5813,S. S. Pierce Building,,,OpenStreetMap,2025-05-10T11:19:47.000Z,,boston,False
2a294fe9-6750-41c2-9876-de67292411be,Giarrusso Norton Cooley and McGlone PC,lawyer,"['legal_services', 'employment_law']",MA,Quincy,2171.0,308 Victory Rd,42.2991256,-71.0301612,meta,2025-06-02T07:00:00.000Z,0.9459263554653524,6d9df672-5410-4b5d-aaf9-ca93713b246b,,commercial,retail,OpenStreetMap,2025-04-28T23:20:17.000Z,,boston,False
3a1daacc-f48b-4535-8b83-b6603e7316ed,Elliot Norton Park,park,"['public_plaza', 'structure_and_geography']",MA,Boston,2116.0,295 Tremont St,42.349102,-71.0659143,meta,2025-06-02T07:00:00.000Z,0.9784508333782836,,,,,,,,boston,False
82b06515-e24c-4511-8118-78412106bc54,"Maddison Norton, LICSW",doctor,['health_and_medical'],MA,Belmont,2478.0,115 Mill St,42.3945173,-71.1913002,Microsoft,2025-03-24T16:34:56.783Z,0.77,f10bac94-0c88-42da-8214-72c98086b6b8,de Marneffe,,,OpenStreetMap,2023-01-07T01:21:32.000Z,,boston,False
736d48c5-c34a-4973-9453-abfd8ee306eb,Norton's Liquors,liquor_store,,MA,Cambridge,2140.0,2451 Massachusetts Ave,42.398549,-71.1313535,meta,2025-06-02T07:00:00.000Z,0.9784508333782836,db91e004-94ca-4682-bd67-41ed87adeb8d,Norton's Liquors,commercial,retail,OpenStreetMap,2024-06-12T17:32:57.000Z,,boston,False
5abedec8-7ba4-4d28-aa67-a530b8270222,Norton Group,real_estate_agent,['real_estate'],MA,Somerville,2144.0,699 Broadway,42.4000255,-71.1119308,meta,2025-06-02T07:00:00.000Z,0.9204819277108434,42cc7132-3dfc-44bf-afc2-150a3b074596,,residential,apartments,OpenStreetMap,2021-08-17T00:16:12.000Z,,boston,False
e8762021-2b86-42ee-94ac-48246c707e2e,Century 21 North East Norton Realty Group,real_estate,"['property_management', 'real_estate_service']",MA,Somerville,2144.0,697 Broadway,42.3999,-71.11171,meta,2025-06-02T07:00:00.000Z,0.9300613496932516,,,,,,,,boston,False
f0274815-45aa-49dc-9f78-8c61c6d4317a,Norton Road KinderCare,preschool,"['day_care_preschool', 'home_service']",OH,Columbus,43119.0,1145 Norton Rd,39.9280949,-83.1446124,meta,2025-06-02T07:00:00.000Z,0.9784508333782836,,,,,,,,columbus-ohio,False
38a1eb08-20f7-4b27-97c2-a642c456271e,Norton Road KinderCare,preschool,"['child_care_and_day_care', 'school', 'public_school', 'education']",OH,Galloway,43119.0,1145 Norton Rd,39.9284954,-83.1441803,Microsoft,2014-10-20T18:48:04.043Z,0.77,,,,,,,,columbus-ohio,False
f6c93866-381e-4f8e-ac79-dc2a1c01bc10,Norton Auto Detail Shop,auto_detailing,['wholesale_store'],OH,Columbus,43228.0,1146 Norton Rd,39.9287217,-83.1436906,meta,2025-06-02T07:00:00.000Z,0.8540983606557377,c546e62b-1f0b-4b73-bb57-cb83964d8e8d,,,,Microsoft ML Buildings,2024-07-01T00:00:00.000Z,0.996999979019165,columbus-ohio,False
6040f4ac-570b-4ea7-a74c-f7e26376cb5d,Norton Road Veterinary Hospital,veterinarian,"['hospital', 'pet_services']",OH,Galloway,43119.0,1111 Norton Rd,39.9295446,-83.1445004,meta,2025-06-02T07:00:00.000Z,0.9784508333782836,,,,,,,,columbus-ohio,False
0d848cda-0be5-4bde-82fc-1a277c064a25,Norton Village Apartments,landmark_and_historical_building,"['accommodation', 'real_estate']",OH,Columbus,43228.0,1066 New Dawn Ln,39.9290285,-83.1386319,meta,2025-06-02T07:00:00.000Z,0.9459263554653524,47022f6e-006d-417c-b698-65a2b6e96020,,,,Esri Community Maps,2024-10-15T00:00:00.000Z,,columbus-ohio,False
8b594cb5-3227-4500-8dc8-183826d4ed21,Norton Village Apartments,apartments,,OH,Columbus,43228.0,1066 New Dawn Ln,39.9303629,-83.1391122,Microsoft,2024-07-18T15:18:13.907Z,0.77,,,,,,,,columbus-ohio,False
81fa3a79-ec61-465b-a638-33c37821f237,Norton Road Drive-Thru,convenience_store,"['shopping', 'gas_station']",OH,Columbus,43228.0,550 Norton Rd,39.9405638,-83.1425706,meta,2025-06-02T07:00:00.000Z,0.9415384615384615,,,,,,,,columbus-ohio,False
7527309c-3bfa-4362-8589-719cfc47f93e,Norton Middle School,middle_school,"['education', 'school']",OH,Columbus,43228.0,215 Norton Rd,39.9478289,-83.1418575,meta,2025-06-02T07:00:00.000Z,0.9784508333782836,632ee5e6-6b40-46de-b630-2963fdb19560,,,,Esri Community Maps,2024-10-15T00:00:00.000Z,,columbus-ohio,False
3c6f5978-35f5-412b-8d97-a803468f2a40,Prairie Norton Elementary School,elementary_school,"['education', 'school']",OH,Prairie Twp,43228.0,105 Norton Rd,39.94957,-83.1406894,meta,2025-06-02T07:00:00.000Z,0.9784508333782836,,,,,,,,columbus-ohio,False
604318eb-0c99-4e19-92aa-8fe61e844083,Norton Family Dental,oral_surgeon,"['pediatric_dentist', 'periodontist', 'dentist', 'health_and_medical']",OH,Columbus,43228.0,17 Norton Rd,39.9513297,-83.1400852,Microsoft,2025-03-01T06:38:13.470Z,0.77,f213e4e1-3714-49de-99b6-68e9faa9aead,,,,OpenStreetMap,2025-05-10T21:20:11.000Z,,columbus-ohio,False
3d4c5b95-8a1d-4f2f-8093-35232ec49338,Anthony-Thomas Candy Shoppes - West-Norton Plaza,candy_store,"['shopping', 'professional_services']",OH,Columbus,43228.0,5157 W Broad St,39.950936,-83.138156,meta,2025-06-02T07:00:00.000Z,0.296943231441048,1e0dcd2c-b634-4f27-addb-c5d6cc8df3bb,,,,OpenStreetMap,2019-11-11T23:25:28.000Z,,columbus-ohio,False
fd0621c8-3f5d-4485-87cd-cdf29de93390,Kavitha P Norton,doctor,"['hospice', 'health_and_medical']",OH,Columbus,43210.0,410 W 10th Ave,39.995167,-83.017703,Microsoft,2025-05-23T03:14:39.227Z,0.77,42147927-d271-4003-9fe4-4752363f6455,University Hospital,medical,hospital,OpenStreetMap,2025-05-01T05:26:53.000Z,,columbus-ohio,False
c6cb5233-20f9-4bf8-8463-f114fa73b63f,Norton House,accommodation,['museum'],OH,Columbus,43210.0,2114 Neil Ave,40.0048155,-83.0138423,meta,2025-06-02T07:00:00.000Z,0.9415384615384615,50fd268c-2036-42cf-a905-fb88b4f9ccd2,Norton House,residential,dormitory,OpenStreetMap,2024-10-14T04:12:09.000Z,,columbus-ohio,False
df7a3aed-bafb-4955-a74b-8ba1d2839fe4,Norton Field Park,park,"['attractions_and_activities', 'landmark_and_historical_building']",OH,Whitehall,43213.0,4464 San Jose Ln,39.971847,-82.881568,meta,2025-06-02T07:00:00.000Z,0.9459263554653524,,,,,,,,columbus-ohio,False
bb660930-a598-41ef-94b3-91d801517ee7,Lofts at Norton Crossing,landmark_and_historical_building,['accommodation'],OH,Whitehall,43213.0,4657 E Broad St,39.9755424,-82.8774912,meta,2025-06-02T07:00:00.000Z,0.9879256218304756,,,,,,,,columbus-ohio,False
4bffd5df-e3e5-44b8-bcac-630846b71138,Norton Children's Development Center,hospital,['doctor'],KY,Lexington,40504.0,333 Waller Ave,38.0299322,-84.516396,meta,2025-06-02T07:00:00.000Z,0.9784508333782836,9447e7b6-93d1-4266-8745-6f127cd29345,,,,OpenStreetMap,2016-03-20T01:58:48.000Z,,lexington-fayette,False
734449f3-75c9-43c0-a874-958d92fee725,Norton Speech and Voice,speech_therapist,"['medical_service_organizations', 'health_and_medical']",WA,Spokane,99207.0,4407 N Division St,47.6984321,-117.4119388,meta,2025-06-02T07:00:00.000Z,0.9459263554653524,681a98b7-2a1d-4eff-8f08-e293e1018bfb,Northtown Professional Building,commercial,commercial,OpenStreetMap,2021-12-16T20:04:54.000Z,,spokane,False
8a7b9996-ccc6-44ab-936e-6f1de792e82c,Norton Enterprises,contractor,['home_improvement_store'],VA,Manassas,20111.0,10796 Moore Dr,38.719252,-77.420919,meta,2025-06-02T07:00:00.000Z,0.242152466367713,,,,,,,,washington-dc,False
e3e6381e-6e3c-4579-b97c-5519e8c82d69,Brock-Norton Insurance Agency,insurance_agency,,VA,Chantilly,20151.0,4221 Walney Rd,38.8871912,-77.43399,meta,2025-06-02T07:00:00.000Z,0.9459263554653524,ce850f04-8299-4676-ba0c-efc03b55d613,,,,OpenStreetMap,2022-09-10T18:57:17.000Z,,washington-dc,False
e7e78486-a3fd-4a1c-b878-1bcf1d5c4375,Andrew Norton,real_estate_agent,"['professional_services', 'real_estate']",VA,Chantilly,20151.0,"Jose Flores - Samson Properties, 14526 Lee Rd",39.0803512,-77.4722036,meta,2025-06-02T07:00:00.000Z,0.8860580325548478,,,,,,,,washington-dc,False
4e60d010-7c96-456b-b6bd-c9ec60d78850,Ritter Norton Architects,architectural_designer,['professional_services'],VA,Alexandria,22314.0,115 S Union St,38.8036819,-77.0405346,meta,2025-06-02T07:00:00.000Z,0.9204819277108434,30c1ec1f-b42b-481b-a098-6a332237e970,,,,OpenStreetMap,2015-08-05T01:50:49.000Z,,washington-dc,False
7d2ea5da-7619-49fc-8f35-699699a2a979,Ritter Norton Architects PLLC,architectural_designer,"['interior_design', 'home_improvement_store']",VA,Alexandria,22314.0,814 King St,38.805027,-77.048767,meta,2025-06-02T07:00:00.000Z,0.4929396662387676,4e5327f6-8b8a-47a4-b1dc-36313ffc36a2,Calico Corners,,,OpenStreetMap,2023-11-08T21:33:37.000Z,,washington-dc,False
ece20dce-422c-4fd6-916a-b41045d31060,Joe Norton Physical Therapy,physical_therapy,"['hospital', 'occupational_therapy']",DC,Washington,20007.0,3222 N St NW,38.9067699,-77.0638692,meta,2025-06-02T07:00:00.000Z,0.9459263554653524,3bde6a0f-b167-40c1-809b-1f119a48d260,,,,OpenStreetMap,2010-07-06T18:11:40.000Z,,washington-dc,False
4673dd0f-3477-46bc-9819-5ead3a6eb162,Margaret Culotta-Norton,dentist,"['oral_surgeon', 'doctor']",DC,Washington,20036.0,1120 19th St NW,38.9045337,-77.0436315,meta,2025-06-02T07:00:00.000Z,0.9459263554653524,bf1fe514-5312-4575-ae47-8345241d8cca,,,,OpenStreetMap,2025-01-24T02:20:48.000Z,,washington-dc,False
08db3154-34b4-42bf-b606-0fcd7fc1dc10,Norton Rose Fulbright,lawyer,"['legal_services', 'non_governmental_association']",DC,Washington,20001.0,799 9th St NW,38.8996668,-77.023442,meta,2025-06-02T07:00:00.000Z,0.9459263554653524,58b815cf-29e2-4ba4-a28c-14fcbfb0ca6e,,,,OpenStreetMap,2025-02-11T22:01:35.000Z,,washington-dc,False
8f88c791-09c1-47a0-af3a-2299bc40fb84,Norton Fishman,doctor,"['lawyer', 'family_practice']",MD,Rockville,20850.0,15235 Shady Grove Rd,39.106776,-77.1883204,meta,2025-06-02T07:00:00.000Z,0.9204819277108434,171c21f4-e0c5-49a3-a81f-94b3d9cdeb78,,,,OpenStreetMap,2024-12-30T04:18:30.000Z,,washington-dc,False
1653dbed-bd6b-4c28-b182-0a4246357cf3,M. E. Norton HVAC & Plumbing Inc,hvac_services,,MD,Silver Spring,20906.0,12814 Holdridge Rd,39.06671,-77.06385,Microsoft,2020-02-15T21:46:23.603Z,0.77,200c7214-7401-4457-ad71-e0c21d3a4a8b,,,,Esri Community Maps,2024-10-15T00:00:00.000Z,,washington-dc,False
ba68f4ec-0fc6-4ac2-8285-d129a1dfb3f8,Emperor Norton Inn,hotel,"['travel', 'real_estate']",CA,San Francisco,94109.0,615 Post St,37.7877862,-122.4120716,meta,2025-06-02T07:00:00.000Z,0.9784508333782836,e316213b-1a8a-4f81-9835-4f14fe408a6a,,,,OpenStreetMap,2024-03-12T23:43:45.000Z,,oakland,False
ba68f4ec-0fc6-4ac2-8285-d129a1dfb3f8,Emperor Norton Inn,hotel,"['travel', 'real_estate']",CA,San Francisco,94109.0,615 Post St,37.7877862,-122.4120716,meta,2025-06-02T07:00:00.000Z,0.9784508333782836,6ba84f67-98c6-4d28-b412-c1fdfe1ac02b,,,,OpenStreetMap,2024-03-12T23:43:45.000Z,,oakland,False
9322345d-c804-4475-a0b0-6c4ec43043f3,Norton Rose Fulbright,professional_services,['lawyer'],CA,San Francisco,94111.0,1 Embarcadero Ctr,37.794653,-122.3998273,meta,2025-06-02T07:00:00.000Z,0.8831168831168831,a7649ee1-716f-4e19-a61d-b774fb7c165c,Embarcadero Center 1,,,OpenStreetMap,2021-10-10T22:22:38.000Z,,oakland,False
9322345d-c804-4475-a0b0-6c4ec43043f3,Norton Rose Fulbright,professional_services,['lawyer'],CA,San Francisco,94111.0,1 Embarcadero Ctr,37.794653,-122.3998273,meta,2025-06-02T07:00:00.000Z,0.8831168831168831,f33f3b3b-61c9-4e55-af5a-4c6b905e1fb0,,,,OpenStreetMap,2024-05-03T20:30:23.000Z,,oakland,False
3b6724bf-0bfd-4e78-9c20-f46aed05a633,Norton Factory Studios,art_gallery,['arts_and_entertainment'],CA,Oakland,94601.0,3094 E 10th St,37.7763849,-122.2285953,meta,2025-06-02T07:00:00.000Z,0.9879256218304756,432bf72d-4220-469a-bffa-e6f295a16b84,Norton Factory Studios,entertainment,,OpenStreetMap,2016-04-05T01:11:24.000Z,,oakland,False
13051fd6-d9df-4619-9647-2db1f90ddd37,Emperor Norton Bridge,bridge,"['landmark_and_historical_building', 'monument']",CA,San Francisco,0.0,,37.8219979,-122.3290394,meta,2025-06-02T07:00:00.000Z,0.4929396662387676,,,,,,,,oakland,False
1a155c58-aa9d-49fa-831c-f8b259d2bbe3,Norton Team CBRE,commercial_real_estate,['real_estate'],CA,Oakland,94607.0,1111 Broadway,37.8026411,-122.2729044,meta,2025-06-02T07:00:00.000Z,0.909823677581864,7229b6bd-21e4-453a-8321-fa77bceb4674,1111 Broadway Building,commercial,office,OpenStreetMap,2025-04-21T19:15:51.000Z,,oakland,False
bbc7ed17-86c8-416b-a6f8-4ac857f00d0a,Law Offices of Norton Tooby,lawyer,"['legal_services', 'professional_services']",CA,Oakland,94609.0,2831 Telegraph Ave,37.8179312,-122.2676574,meta,2025-06-02T07:00:00.000Z,0.9297091412742382,,,,,,,,oakland,False
47948237-cafc-4b05-9776-6e82a26008cc,Norton Vascular Surgery - Harrison County,cardiologist,"['vascular_medicine', 'doctor', 'surgical_center', 'health_and_medical']",IN,Corydon,47112.0,1263 Hospital Dr Ste 210,37.854569,-122.256908,Microsoft,2016-03-08T18:46:37.237Z,0.77,b071bb62-4531-4750-be47-ff19df643e2b,Alta Bates Medical Center,medical,hospital,OpenStreetMap,2025-02-12T22:19:21.000Z,,oakland,False
ea44ad0c-a7d0-4619-88dd-b039d3ef8f14,Norton Neuroscience Institute - Corydon,neurologist,"['doctor', 'medical_center', 'health_and_medical']",IN,Corydon,47112.0,1263 Hospital Dr Ste 210,37.854569,-122.256908,Microsoft,2016-03-08T18:46:37.237Z,0.77,b071bb62-4531-4750-be47-ff19df643e2b,Alta Bates Medical Center,medical,hospital,OpenStreetMap,2025-02-12T22:19:21.000Z,,oakland,False
b9b5d723-5f5b-4492-840e-bf30b7f934f8,Norton Leatherman Spine Center - Corydon,spine_surgeon,"['doctor', 'health_and_medical']",IN,Corydon,47112.0,1263 Hospital Dr Ste 220,37.854569,-122.256908,Microsoft,2016-03-08T18:46:37.237Z,0.77,b071bb62-4531-4750-be47-ff19df643e2b,Alta Bates Medical Center,medical,hospital,OpenStreetMap,2025-02-12T22:19:21.000Z,,oakland,False
0665691f-7496-4c6c-98bd-4497a5f0b67f,Norton Upholstering Co Inc,furniture_assembly,"['b2b_textiles', 'automotive_repair']",CT,West Haven,6516.0,1012 Orange Ave,41.2835189,-72.9799381,meta,2025-06-02T07:00:00.000Z,0.9297091412742382,,,,,,,,new-haven,False
ce7dc711-4a8f-4bfd-a6e0-9340d6f022ec,Norton Package Store,liquor_store,['shopping'],CT,New Haven,6511.0,1566 Chapel St,41.3121032,-72.948402,meta,2025-06-02T07:00:00.000Z,0.9459263554653524,9543ade5-4ff8-4d87-bd7e-03307f171eae,,,,OpenStreetMap,2015-04-14T15:23:27.000Z,,new-haven,False
b6f44ee1-1fc5-4b7c-a095-6a5b2ce0ce59,Norton Foundation LLC,charity_organization,"['abuse_and_addiction_treatment', 'alcohol_and_drug_treatment_centers']",CT,New Haven,6511.0,476 Norton Pkwy,41.3241999,-72.9426323,meta,2025-06-02T07:00:00.000Z,0.9300613496932516,d68f93f2-1e8c-41f1-b2da-8abe81d15657,,residential,house,OpenStreetMap,2022-08-11T12:14:22.000Z,,new-haven,False
0d512c20-e0ba-4d75-ba67-fe3f610ea2a2,Norton Clapp Theatre,theatre,"['college_university', 'health_and_medical']",WA,Tacoma,98416.0,1500 N Warner St,47.2637732,-122.4808587,meta,2025-06-02T07:00:00.000Z,0.9459263554653524,,,,,,,,seattle,False
915b914e-819c-475a-aa7d-82b21702dffc,Norton Memorial Park,park,['attractions_and_activities'],,,98402.0,,47.2633002,-122.4466193,meta,2025-06-02T07:00:00.000Z,0.9459263554653524,,,,,,,,seattle,False
25fa256b-ca8a-4f01-9944-fab7efa237ea,John Norton American Family Insurance,insurance_agency,['financial_service'],WA,Seattle,98107.0,2232 NW Market St,47.669104,-122.386156,meta,2025-06-02T07:00:00.000Z,0.9459263554653524,a2e51414-f346-40c7-bf12-932bb32de121,,commercial,retail,OpenStreetMap,2025-01-01T11:00:11.000Z,,seattle,False
2e81e762-3225-4dd7-8aa1-b131d5082b1f,Laird Norton Wetherby,financial_advising,['investing'],WA,Seattle,98104.0,801 2nd Ave,47.60365,-122.3349743,meta,2025-06-02T07:00:00.000Z,0.9204819277108434,5f9f9231-a062-43de-8ba6-7a0005d63207,Norton Parking Garage,transportation,parking,OpenStreetMap,2021-02-27T06:04:36.000Z,,seattle,False
2e81e762-3225-4dd7-8aa1-b131d5082b1f,Laird Norton Wetherby,financial_advising,['investing'],WA,Seattle,98104.0,801 2nd Ave,47.60365,-122.3349743,meta,2025-06-02T07:00:00.000Z,0.9204819277108434,854acf14-9dae-49d3-91a6-c080b3f37627,Norton Building,commercial,commercial,OpenStreetMap,2024-07-15T21:44:21.000Z,,seattle,False
7052f1f8-f46f-431d-9174-5251a277d5be,Norton Building,landmark_and_historical_building,"['real_estate', 'hospital']",WA,Seattle,98104.0,801 2nd Ave,47.604,-122.335,meta,2025-06-02T07:00:00.000Z,0.5662921348314607,38e66cbe-e13c-4205-804c-4d67847f3927,Exchange Building,commercial,commercial,OpenStreetMap,2024-07-15T21:44:21.000Z,,seattle,False
21d99e83-ce3e-4f41-8a96-a5a03ff8d20f,Jeffrey Norton: Allstate Insurance,insurance_agency,['financial_service'],WA,Bellevue,98006.0,13231 SE 36th St,47.5789524,-122.164171,meta,2025-06-02T07:00:00.000Z,0.9784508333782836,62732dd7-34a9-400d-86ad-dce26dc555b5,UW Physicians Factoria Clinic,medical,,OpenStreetMap,2024-07-19T08:08:56.000Z,,seattle,False
be038240-9339-4e15-99e5-81200cb22548,Michael Norton,real_estate_agent,['real_estate'],WA,Seattle,98103.0,1307 N 45th St,47.6610784,-122.3417418,meta,2025-06-02T07:00:00.000Z,0.8831168831168831,2869f668-18f6-49f6-9fc8-69a096c4b6f5,,,,OpenStreetMap,2016-08-01T01:56:43.000Z,,seattle,False
ee39c914-ce5a-4cbf-98b5-dc05c437d0de,"Nortown Neighborhood Gym, Tricia Norton CPT",gym,['active_life'],WA,Shoreline,98133.0,2121 N 183rd Pl,47.76168,-122.33406,meta,2025-06-02T07:00:00.000Z,0.7548172757475083,d7d6f837-0c8a-4def-bf20-211eaf586d30,,,,OpenStreetMap,2024-11-11T04:20:57.000Z,,seattle,False
a80bb5eb-033b-4e4c-9276-2c2ce2831102,Norton Corrosion Limited,engineering_services,['professional_services'],WA,Woodinville,98077.0,8820 222nd St SE,47.7938614,-122.1144629,meta,2025-06-02T07:00:00.000Z,0.296943231441048,b394c530-10a9-4995-a2c0-443c53a59ba0,,,,Microsoft ML Buildings,2023-09-01T00:00:00.000Z,0.995299994945526,seattle,False
53836024-0f41-4fa4-a877-1ab7aa0c160a,The Norton Group,financial_service,"['financial_advising', 'investing']",CA,Costa Mesa,92627.0,485 E 17th St,33.6284297,-117.9097586,meta,2025-06-02T07:00:00.000Z,0.9204819277108434,ea029991-9291-4196-a7c2-9ba1c7f46044,,,,OpenStreetMap,2022-11-10T22:28:08.000Z,,los-angeles,False
b3333600-c140-4633-af62-c8af3b736113,Norton Law Corporation,business_law,,CA,Costa Mesa,92626.0,3420 Bristol St 6th Fl,33.6937408447266,-117.884979248047,Microsoft,2014-06-16T23:50:51.120Z,0.77,,,,,,,,los-angeles,True
6145fb08-4f1f-44dd-addd-241b4e51e199,Norton & Associates,real_estate_law,"['lawyer', 'professional_services']",CA,Manhattan Beach,90266.0,1500 Rosecrans Ave,33.9012382,-118.3874454,meta,2025-06-02T07:00:00.000Z,0.9415384615384615,98c93606-8c2f-4f83-a8e4-fa3c71c2dc33,,commercial,commercial,OpenStreetMap,2022-05-09T19:21:52.000Z,,los-angeles,False
a7eb5fc4-0409-42ed-8aed-30929e6ea30d,NortonLifeLock,real_estate,['event_planning'],CA,Culver City,90230.0,900 Corporate Pointe,33.987745,-118.388853,meta,2025-06-02T07:00:00.000Z,0.3376623376623376,cf84ded3-5185-44d5-b648-422b060e9e24,Symantec,commercial,commercial,OpenStreetMap,2019-02-17T17:28:47.000Z,,los-angeles,True
31444f12-2715-486f-865b-fe88eae8b983,Law Offices of Cathleen E. Norton,divorce_and_family_law,"['personal_injury_law', 'dui_law']",CA,Beverly Hills,90212.0,9595 Wilshire Blvd,34.0676535,-118.4001481,meta,2025-06-02T07:00:00.000Z,0.9415384615384615,,,,,,,,los-angeles,False
8d71ce9c-2dbf-4fa0-aeda-7a01347a635e,Leo by Paul Norton,beauty_salon,"['beauty_and_spa', 'barber']",CA,West Hollywood,90069.0,8543 Santa Monica Blvd,34.089075,-118.377623,meta,2025-06-02T07:00:00.000Z,0.4929396662387676,1cca3b87-aacb-4deb-ae78-f26d2722ff3f,,commercial,retail,OpenStreetMap,2018-08-24T08:22:28.000Z,,los-angeles,False
a7bc01fc-1234-40c5-b84f-1506339099bc,Empire at Norton,real_estate,"['hotel', 'landmark_and_historical_building']",CA,West Hollywood,90046.0,8017 Norton Ave,34.0918909,-118.3652996,meta,2025-06-02T07:00:00.000Z,0.8253968253968254,64d77942-c208-4d2e-8e8b-debc37ee82b2,,,,OpenStreetMap,2024-02-22T22:33:26.000Z,,los-angeles,False
78300510-884e-4b7b-8b1a-d5a8ffc380e4,Nora on Norton,rental_services,"['apartments', 'real_estate_service']",CA,West Hollywood,90046.0,7976 Norton Ave,34.0918095,-118.364059,Microsoft,2025-05-20T13:29:07.903Z,0.77,,,,,,,,los-angeles,False
8757711a-4aa1-4e48-ae19-59c2e7ed3461,South Norton Apartments,accommodation,"['landmark_and_historical_building', 'real_estate']",CA,Los Angeles,90020.0,435 S Norton Ave,34.065994,-118.317619,meta,2025-06-02T07:00:00.000Z,0.3961437335670464,a80aee62-c1b5-4979-a083-8537eb7156af,,residential,apartments,OpenStreetMap,2023-07-04T00:58:15.000Z,,los-angeles,False
83a0a47d-af61-455f-b47b-aecbdb29635c,Norton Market,grocery_store,"['supermarket', 'hospital']",CA,Lynwood,90262.0,2967 Norton Ave,33.9337354,-118.2175762,meta,2025-06-02T07:00:00.000Z,0.9415384615384615,4ba25ae4-df57-4d3d-8f0b-c691552db03e,,commercial,retail,OpenStreetMap,2016-11-04T22:19:12.000Z,,los-angeles,False
63358ae3-96df-453d-a53e-4c1fa00cdbff,"Norton Packaging, Inc.",business_manufacturing_and_supply,"['professional_services', 'industrial_equipment']",CA,Vernon,90058.0,5800 S Boyle Ave,33.9905225,-118.2118134,meta,2025-06-02T07:00:00.000Z,0.9784508333782836,55b1e5d1-e904-41f7-b722-1e022fae8f7d,,industrial,industrial,OpenStreetMap,2016-06-23T14:48:57.000Z,,los-angeles,False
71137e45-41be-4c3b-b660-78c6e7a3a78a,Norton Electric,electrician,"['public_service_and_government', 'electronics']",CA,Los Angeles,90012.0,1375 N Broadway,34.0709365,-118.2306211,meta,2025-06-02T07:00:00.000Z,0.9204819277108434,9136742f-6ea1-4e0a-a577-d20e9f08664a,,commercial,warehouse,OpenStreetMap,2016-07-04T22:03:01.000Z,,los-angeles,False
71a619bf-1c36-4228-a0e9-e8c629d85b80,Norton Medical Industries,laboratory_testing,"['pharmacy', 'health_and_medical']",CA,Los Angeles,91411.0,6265 Sepulveda Blvd,34.1843745,-118.4665741,meta,2025-06-02T07:00:00.000Z,0.9784508333782836,71737177-e70a-4150-8b60-4baeccc8fb7a,,commercial,commercial,OpenStreetMap,2019-09-27T21:47:59.000Z,,los-angeles,False
8f0bb81e-dffa-460e-a17c-804f7d051fe3,Norton Medical Industries,dui_school,"['laboratory_testing', 'scientific_laboratories', 'specialty_school', 'education', 'health_and_medical', 'business_to_business']",CA,Van Nuys,91411.0,6265 Sepulveda Blvd Ste 13,34.1849250793457,-118.466682434082,Microsoft,2016-01-08T22:54:36.943Z,0.77,71737177-e70a-4150-8b60-4baeccc8fb7a,,commercial,commercial,OpenStreetMap,2019-09-27T21:47:59.000Z,,los-angeles,False
f11d28d2-72bd-4339-b2c8-6726cfc709f0,Pauls Video Productions - Paul Norton,venue_and_event_space,"['music_venue', 'video_film_production', 'arts_and_entertainment']",CA,Los Angeles,90068.0,3493 Cahuenga Blvd W,34.1327083,-118.3551368,Microsoft,2025-04-20T11:54:52.517Z,0.77,,,,,,,,los-angeles,False
cbdf4011-319e-4704-ae64-149dfc45ee89,"Richard E. Norton, E. A.",accountant,['professional_services'],CA,Burbank,91505.0,513 N Florence St,34.16613,-118.3359,meta,2025-06-02T07:00:00.000Z,0.296943231441048,657cdad4-2350-4fd5-8c6f-b13f8140a353,,residential,house,OpenStreetMap,2017-02-03T18:40:29.000Z,,los-angeles,False
cbdf4011-319e-4704-ae64-149dfc45ee89,"Richard E. Norton, E. A.",accountant,['professional_services'],CA,Burbank,91505.0,513 N Florence St,34.16613,-118.3359,meta,2025-06-02T07:00:00.000Z,0.296943231441048,72421a6a-7b18-4bb2-8d0e-a90330d6451a,,residential,house,OpenStreetMap,2017-02-03T18:41:22.000Z,,los-angeles,False
151ea537-218f-4b36-b592-a2c2c8400926,Norton Sales,hardware_store,"['car_dealer', 'shopping']",CA,North Hollywood,91605.0,7429 Laurel Canyon Blvd,34.205631,-118.396695,meta,2025-06-02T07:00:00.000Z,0.7548172757475083,c02a7952-6e46-42b1-856e-cea8619c69ea,,commercial,warehouse,OpenStreetMap,2016-07-20T15:44:00.000Z,,los-angeles,False
85fee6db-b40c-41ba-92d3-4482328ccb3e,Norton House,landmark_and_historical_building,"['museum', 'fountain']",CA,Pasadena,91105.0,820 Burleigh Dr,34.1293668,-118.1734686,meta,2025-06-02T07:00:00.000Z,0.9297091412742382,,,,,,,,los-angeles,False
7b98abc9-53b4-44de-b768-2308be814b78,Garden Cafe at Norton Simon Museum,cafe,['restaurant'],CA,Pasadena,91105.0,411 W Colorado Blvd,34.1457336,-118.1593684,Microsoft,2020-06-16T02:17:38.707Z,0.77,,,,,,,,los-angeles,False
3d369adc-b40b-41c5-b774-7da211fd3036,Norton Simon Museum,art_museum,"['museum', 'art_gallery']",CA,Pasadena,91105.0,411 W Colorado Blvd,34.1463432,-118.1592609,meta,2025-06-02T07:00:00.000Z,0.9879256218304756,1508f6b1-e9b9-4542-9d33-0dc6980fb0ba,Norton Simon Museum of Art,entertainment,,OpenStreetMap,2025-01-05T23:09:51.000Z,,los-angeles,False
c9abdb6e-5601-424b-b42f-a7f14fe4870f,Norton Simon Foundation,museum,"['community_services_non_profits', 'history_museum']",CA,Pasadena,91101.0,385 E Colorado Blvd,34.1461114,-118.1417846,meta,2025-06-02T07:00:00.000Z,0.9784508333782836,c84088f3-2ed2-48b7-be7b-c079b1c1c8fd,Western Asset Plaza,commercial,commercial,OpenStreetMap,2024-02-04T22:33:25.000Z,,los-angeles,False
3ead8927-1252-4a2b-96d2-dfdb58f655c5,Socal Norton Club,motorcycle_dealer,"['active_life', 'automotive']",CA,La Canada Flintridge,91011.0,607 Foothill Blvd,34.2069755,-118.1940079,meta,2025-06-02T07:00:00.000Z,0.296943231441048,27b07aea-a559-41c7-a803-0b1df053726b,,residential,house,OpenStreetMap,2017-02-03T19:27:53.000Z,,los-angeles,False
3ead8927-1252-4a2b-96d2-dfdb58f655c5,Socal Norton Club,motorcycle_dealer,"['active_life', 'automotive']",CA,La Canada Flintridge,91011.0,607 Foothill Blvd,34.2069755,-118.1940079,meta,2025-06-02T07:00:00.000Z,0.296943231441048,8d3a96e2-5214-48d9-ae1d-da14934e62b6,,residential,house,OpenStreetMap,2017-02-03T19:27:52.000Z,,los-angeles,False
5b17790c-6f82-4f79-bb9d-cee6fe00d9b3,Norton Novelcraft,carpenter,"['arts_and_crafts', 'jewelry_store']",CA,Buena Park,90621.0,6940 Knott Ave,33.859967,-118.0109578,meta,2025-06-02T07:00:00.000Z,0.9300613496932516,039d0cf3-24d2-45ad-b45b-430ad851ada0,,,,OpenStreetMap,2021-12-30T12:54:16.000Z,,los-angeles,False
0bef4d2d-62b3-45d1-b1e6-221470d01fc7,Norton Auto Group,vehicle_shipping,"['shipping_center', 'food_beverage_service_distribution']",CA,Garden Grove,92843.0,11752 Garden Grove Blvd,33.7739826,-117.9277542,meta,2025-06-02T07:00:00.000Z,0.9459263554653524,f8f4ae0f-24d8-4611-b8bd-ea1358e7138e,,,,OpenStreetMap,2022-12-02T02:09:40.000Z,,los-angeles,False
59f891c7-2f44-4125-ae8a-1a52617b4c17,Norton's Cleaners,dry_cleaning,"['laundromat', 'shopping']",CA,Placentia,92870.0,204 E Yorba Linda Blvd,33.8882525,-117.8610374,meta,2025-06-02T07:00:00.000Z,0.9784508333782836,d649560b-5465-44d8-a88b-ce4736e5a7cb,,,,OpenStreetMap,2022-03-23T18:09:22.000Z,,los-angeles,False
ce686d23-1ba0-42ec-8ec2-58cf79e280f7,Norton Younglove Reserve,park,"['attractions_and_activities', 'national_park']",CA,Moreno Valley,92555.0,30399 Ironwood Ave,34.0364625,-117.8662493,meta,2025-06-02T07:00:00.000Z,0.3961437335670464,5e1c2df1-9f24-4afc-8034-70e93c4c02a5,,residential,house,OpenStreetMap,2017-02-01T18:52:56.000Z,,los-angeles,False
352a7670-fb84-4ffe-a372-e3662cb325bb,Mark Norton - State Farm Insurance Agent,auto_insurance,['home_and_rental_insurance'],CA,Monrovia,91016.0,931 S Myrtle Ave,34.141934,-118.001039,Microsoft,2023-10-30T14:18:36.587Z,0.77,c4b5c59d-aca9-4168-a8b5-b90ddd559e9c,,industrial,industrial,OpenStreetMap,2017-01-31T09:51:47.000Z,,los-angeles,False
ad5066d1-0282-4ff2-8670-0c92861df9af,"Michael P. Norton, M.D.",radiologist,"['doctor', 'health_and_medical']",CA,Sacramento,95815.0,1500 Expo Pkwy,38.59721,-121.45485,Microsoft,2017-09-14T05:34:00.450Z,0.77,a7c77eb6-f92f-4f07-b233-de613ab10b1a,,,,OpenStreetMap,2009-03-26T18:34:30.000Z,,sacramento,False
8e77b038-bd8d-4907-ba5b-9b447b1e0a4e,Cori Norton,beauty_and_spa,"['beauty_salon', 'hair_removal']",CA,Granite Bay,95746.0,8850 Auburn Folsom Rd,38.7385011,-121.1712133,meta,2025-06-02T07:00:00.000Z,0.9784508333782836,5d7345cf-7b54-49c8-86ef-1bf91152250a,,,,OpenStreetMap,2022-07-11T16:39:15.000Z,,sacramento,False
759d5f56-1aa0-407e-bed6-fcb9320856d5,Norton Avenue Baptist Church,baptist_church,"['church_cathedral', 'religious_organization']",PA,Bristol,19007.0,1230 Norton Ave,40.1182772,-74.8487768,meta,2025-06-02T07:00:00.000Z,0.9784508333782836,b80281bf-ff70-45c3-9df2-617132fb9b0d,,,,Esri Community Maps,2024-10-15T00:00:00.000Z,,trenton,False
ba748b4d-1f38-444c-8d6a-d54f12c0d096,Avira by Shira,hair_salon,"['beauty_and_spa', 'beauty_salon']",NJ,Robbinsville,8691.0,430 Marketplace Blvd,40.1939268,-74.6391709,meta,2025-06-02T07:00:00.000Z,0.9297091412742382,71b4aaa8-d8dc-4f39-9110-8f036a18b893,Dress Barn,,,OpenStreetMap,2022-01-28T04:04:05.000Z,,trenton,False
633ad3bb-d5c7-4dc1-b4c1-5bf428bedd52,Norton Family Lights,arts_and_entertainment,,TX,Fort Worth,76179.0,5308 Threshing Dr,32.8839353,-97.4044425,meta,2025-06-02T07:00:00.000Z,0.3961437335670464,e34cf198-fec5-4040-8831-316e4662a0b7,,residential,house,OpenStreetMap,2022-11-10T23:22:51.000Z,,fort-worth,False
1797d9b5-e847-4d60-91bd-77536a5232df,Norton Metals,metal_supplier,"['commercial_industrial', 'iron_and_steel_industry']",TX,Saginaw,76131.0,1350 Lawson Rd,32.844989,-97.3449034,meta,2025-06-02T07:00:00.000Z,0.9784508333782836,fff87421-697b-4b1d-a634-4d07d0b44975,,,,OpenStreetMap,2020-12-21T04:36:46.000Z,,fort-worth,False
68aacb81-ab0f-4095-ac13-bde8191a18d4,NORTON'S,plumbing,"['hvac_services', 'contractor']",NY,Buffalo,14217.0,797 Military Rd,42.9589392,-78.8889305,meta,2025-06-02T07:00:00.000Z,0.909823677581864,e6add7f3-bd19-4202-8a25-872030cf36eb,,,,OpenStreetMap,2023-10-23T05:05:08.000Z,,buffalo,False
e3f9299d-f5b2-4edf-a326-8e77c79dcc0f,Norton Hall,campus_building,"['college_university', 'accommodation']",NY,Buffalo,14260.0,"University at Buffalo-North, 12 Capen Hall",43.0012406,-78.788485,meta,2025-06-02T07:00:00.000Z,0.9459263554653524,3cd42825-fe63-4b97-b643-f716f6321df3,Norton Hall,education,university,OpenStreetMap,2024-05-21T21:45:44.000Z,,buffalo,True
e3f9299d-f5b2-4edf-a326-8e77c79dcc0f,Norton Hall,campus_building,"['college_university', 'accommodation']",NY,Buffalo,14260.0,"University at Buffalo-North, 12 Capen Hall",43.0012406,-78.788485,meta,2025-06-02T07:00:00.000Z,0.9459263554653524,c75c0195-7526-49ba-8e57-c8059f9c0d12,,,,OpenStreetMap,2024-05-21T21:45:44.000Z,,buffalo,True
8005ac3e-7b76-4a76-98fd-b92d8b4a5855,Maddie Norton Sports Performance & Hockey Development,fitness_trainer,,NY,Lancaster,14086.0,2700 Commerce Pkwy W,42.91211,-78.6593,meta,2025-06-02T07:00:00.000Z,0.242152466367713,,,,,,,,buffalo,False
0de2861f-c321-4d01-a528-95e635fab919,Clifford Norton Studio,professional_services,['bridal_shop'],OH,Shaker Heights,44120.0,3558 Lee Rd,41.4630834,-81.5650891,meta,2025-06-02T07:00:00.000Z,0.9297091412742382,a9f8561e-6060-40b5-b36b-a6b68cbbc0b0,,,,Microsoft ML Buildings,2020-09-19T00:00:00.000Z,,cleveland,False
2d5befb2-b6fc-4bd5-945e-bc6d18650dd3,Norton Food Mart,convenience_store,"['candy_store', 'grocery_store']",TX,Corpus Christi,78415.0,2909 Norton St,27.7498301,-97.4044324,meta,2025-06-02T07:00:00.000Z,0.9784508333782836,,,,,,,,corpus-christi,False
6d837ff6-cc04-4dd0-a932-64c9ec56db78,Norton Basu LLP,wills_trusts_and_probate,"['lawyer', 'professional_services']",CA,Los Gatos,95032.0,15951 Los Gatos Blvd,37.2369645,-121.9626858,meta,2025-06-02T07:00:00.000Z,0.9784508333782836,,,,,,,,san-jose,False
ba341220-d096-469d-b32d-25293a51f927,Emperor Norton's Italian Restaurant & Pizzeria,pizza_restaurant,"['food', 'restaurant']",CA,San Jose,95139.0,7058 Santa Teresa Blvd,37.22767686,-121.77496324,Microsoft,2019-11-12T22:40:33.037Z,0.77,3b30a895-bb2c-406b-bfb4-e6bac3d70b63,,commercial,retail,OpenStreetMap,2021-08-22T03:26:44.000Z,,san-jose,False
a605b75f-7d21-42df-8484-c46904d282be,Symantec Corporation World Headquarters,it_service_and_computer_repair,"['software_development', 'information_technology_company']",CA,Mountain View,94043.0,350 Ellis St,37.397743,-122.053925,meta,2025-06-02T07:00:00.000Z,0.5662921348314607,dc6f5987-32ac-4492-9637-3e177aca4617,Symantec,commercial,office,OpenStreetMap,2017-01-26T23:01:52.000Z,,san-jose,False
add88ee2-562f-4a40-a655-2331f92c8340,Symantec Building H,business,"['event_planning', 'laboratory_testing']",CA,Mountain View,94043.0,545 N Whisman Rd,37.4027888,-122.05599,meta,2025-06-02T07:00:00.000Z,0.9415384615384615,6bc806ec-d712-4624-9f63-113154dc4e18,Symantec,,,OpenStreetMap,2015-09-22T23:43:52.000Z,,san-jose,True
ac16e486-b4d1-437b-ae41-0906ca32e3a4,Norton Hare,criminal_defense_law,"['lawyer', 'legal_services']",KS,Overland Park,66210.0,9200 Indian Creek Pkwy,38.9323889,-94.6921183,meta,2025-06-02T07:00:00.000Z,0.9297091412742382,,,,,,,,kansas-city,False
67915131-da46-4b90-a47a-49d983ba3315,Jay Norton Kansas DUI Attorney,doctor,['health_and_medical'],KS,Overland Park,66210.0,9200 Indian Creek Pkwy #450,38.9327167,-94.6919134,Microsoft,2025-04-30T05:33:12.277Z,0.77,01cfd3b0-40c7-4b9d-be3f-9c9e6f97396d,,commercial,office,OpenStreetMap,2025-02-14T15:19:58.000Z,,kansas-city,False
c132c2eb-118b-42cc-82d9-138ed5425508,Norton & Schmidt Consulting Engineers,engineering_services,"['structural_engineer', 'professional_services']",MO,North Kansas City,64116.0,311 E 11th Ave,39.1286568,-94.5766963,meta,2025-06-02T07:00:00.000Z,0.9784508333782836,733bd8bb-cf87-4579-b65a-42af42dc2808,,,,OpenStreetMap,2017-07-25T05:59:15.000Z,,kansas-city,False
f347cdbf-8059-475a-a322-fb17fc45d3b1,Dennis Norton Guitar Studio,music_school,"['education', 'specialty_school']",MO,Kansas City,64118.0,5545 N Oak Trfy,39.1952385,-94.5758525,meta,2025-06-02T07:00:00.000Z,0.9784508333782836,60761634-aeb4-4938-a5f8-1fb9b2bbd0ed,,commercial,office,OpenStreetMap,2020-09-22T17:08:40.000Z,,kansas-city,False
ae6dd65c-ceee-4e32-8d96-e887e9962c0d,"Norton & Norton, P.C.",medical_law,['personal_injury_law'],MO,Kansas City,64118.0,6000 N Oak Trfy #201,39.20228,-94.57634,Microsoft,2019-05-15T19:36:09.623Z,0.77,,,,,,,,kansas-city,False
61a8f2eb-fdf7-4fda-ad2a-fbb27d531222,Norton and Spencer,personal_injury_law,"['lawyer', 'wills_trusts_and_probate']",MO,Kansas City,64118.0,6000 N Oak Trfy,39.2031247,-94.5769676,meta,2025-06-02T07:00:00.000Z,0.9879256218304756,ebc6dd82-e7d8-4cbf-bfd9-651730f2deeb,,,,OpenStreetMap,2015-08-10T18:28:44.000Z,,kansas-city,False
e56160c8-3f95-4575-be6c-ed80e2cc9fc2,"Norton & Spencer, P.C.",medical_law,['personal_injury_law'],MO,Kansas City,64118.0,6000 N Oak Trfy #201,39.203337,-94.576348,Microsoft,2025-04-20T07:10:14.623Z,0.77,,,,,,,,kansas-city,False
a03e9ca2-b59a-4f27-86fe-9fc3c4a5a535,Norton Community Medical Associates - Valley Station,family_practice,"['doctor', 'professional_services']",KY,Louisville,40272.0,10798 Dixie Hwy,38.0982248,-85.8733774,meta,2025-06-02T07:00:00.000Z,0.9204819277108434,8e16ac1b-20b9-482f-857d-835b905364fa,,,,OpenStreetMap,2015-04-21T02:57:44.000Z,,louisville,False
634915ac-d48b-42f2-9447-3596310f8351,Norton Children's Medical Group - Stonestreet,pediatrician,"['health_and_medical', 'hospital']",KY,Louisville,40272.0,9702 Stonestreet Rd,38.1136888,-85.8407931,meta,2025-06-02T07:00:00.000Z,0.9784508333782836,bb64f714-bc29-46d6-b929-383be4cae98b,UofL Health - Medical Center Southwest,medical,hospital,OpenStreetMap,2021-06-10T10:10:25.000Z,,louisville,False
c34fea01-a98f-4f11-a84c-855e9dc5aace,Norton Orthopedic Institute,orthopedist,"['doctor', 'hospital']",KY,Louisville,40272.0,9300 Stonestreet Rd,38.1179184,-85.8455241,meta,2025-06-02T07:00:00.000Z,0.9784508333782836,,,,,,,,louisville,False
4fac5852-7af3-495d-9423-7986589a9582,Norton Leatherman Spine Center,hospital,"['health_and_medical', 'doctor']",KY,Louisville,40272.0,9300 Stonestreet Rd,38.1179384,-85.84564,meta,2025-06-02T07:00:00.000Z,0.9784508333782836,,,,,,,,louisville,False
e5915e94-6558-41a4-98d3-1adb8dd96338,Norton Community Medical Associates - Pleasure Ridge Park,internal_medicine,"['orthopedist', 'doctor', 'medical_center', 'health_and_medical']",KY,Louisville,40258.0,8033 Dixie Hwy,38.134477,-85.844314,Microsoft,2016-03-08T18:46:37.237Z,0.77,2eea1eef-26bf-488d-bec7-bb9a2cadea84,,,,OpenStreetMap,2015-04-10T20:22:38.000Z,,louisville,False
75cdb958-15f7-43c7-b006-835b08c8bc8b,Norton Orthopedic Institute,doctor,"['orthopedist', 'health_and_medical']",KY,Louisville,40258.0,8033 Dixie Hwy,38.134485,-85.844306,meta,2025-06-02T07:00:00.000Z,0.7548172757475083,2eea1eef-26bf-488d-bec7-bb9a2cadea84,,,,OpenStreetMap,2015-04-10T20:22:38.000Z,,louisville,False
cc8e92f5-5487-4e47-b00d-ab299c1dc6c6,Norton Community Medical Associates - Pleasure Ridge Park,family_practice,"['doctor', 'hospital']",KY,Louisville,40258.0,8033 Dixie Hwy,38.1345819,-85.8443325,meta,2025-06-02T07:00:00.000Z,0.9784508333782836,2eea1eef-26bf-488d-bec7-bb9a2cadea84,,,,OpenStreetMap,2015-04-10T20:22:38.000Z,,louisville,False
b9333b59-3ba1-4e26-9314-ee0ccaba2669,Norton Sleep Center,hospital,"['health_and_medical', 'naturopathic_holistic']",KY,Louisville,40258.0,4606 Greenwood Rd,38.1431303,-85.8421987,meta,2025-06-02T07:00:00.000Z,0.9784508333782836,1813df98-040b-4dae-a24c-303173c8bf71,,,,OpenStreetMap,2019-09-20T19:14:07.000Z,,louisville,False
fb266780-5a34-466b-a48b-ce2608e212c0,Norton Pulmonary Specialists,doctor,"['hospital', 'community_services_non_profits']",KY,Louisville,40258.0,4606 Greenwood Rd,38.143109,-85.8421634,meta,2025-06-02T07:00:00.000Z,0.9784508333782836,1813df98-040b-4dae-a24c-303173c8bf71,,,,OpenStreetMap,2019-09-20T19:14:07.000Z,,louisville,False
f0c86cf3-3c65-43e3-b31e-65892994ae1d,Norton Sleep Center - Pleasure Ridge Park,sleep_specialist,['health_and_medical'],KY,Louisville,40258.0,4606 Greenwood Rd,38.1436021,-85.8421489,Microsoft,2025-04-16T19:39:49.487Z,0.77,,,,,,,,louisville,False
69d9ec6d-f528-4d0d-8a00-de2f236d466f,Norton Children's Medical Group - Pleasure Ridge Park,pediatrician,"['doctor', 'professional_services']",KY,Louisville,40258.0,6801 Dixie Hwy,38.1505251,-85.8344174,meta,2025-06-02T07:00:00.000Z,0.9784508333782836,7ff9805e-542c-4033-8c55-74c275e29253,,,,OpenStreetMap,2015-04-19T02:06:53.000Z,,louisville,False
8549807c-63ec-47e7-bbd0-30a49d0a2d23,Norton Prompt Care at Walgreens,medical_center,"['emergency_room', 'doctor']",KY,Louisville,40216.0,5100 Dixie Hwy,38.1682599,-85.8295148,meta,2025-06-02T07:00:00.000Z,0.9459263554653524,29ae4e87-4357-4022-afa4-87e3288f844b,,,,OpenStreetMap,2015-04-19T00:53:03.000Z,,louisville,False
a37f264b-f5e0-4aa0-953d-057215cad61c,Norton Diagnostic Center - Dixie,diagnostic_imaging,['health_and_medical'],KY,Louisville,40216.0,"4420 Dixie Highway, Suite 108",38.1818387,-85.8170933,Microsoft,2025-04-16T19:39:49.487Z,0.77,b92a1942-219a-4e3b-903d-765a46763d59,,,,OpenStreetMap,2016-03-25T04:57:53.000Z,,louisville,False
d01cbec0-36e5-4254-aba6-06b39c508cbb,Norton Healthcare Vaccine Clinic  Dixie,hospital,['health_and_medical'],KY,Louisville,40216.0,4420 Dixie Hwy,38.1817976,-85.8169803,meta,2025-06-02T07:00:00.000Z,0.4929396662387676,b92a1942-219a-4e3b-903d-765a46763d59,,,,OpenStreetMap,2016-03-25T04:57:53.000Z,,louisville,False
8212ebf3-56e2-42d8-b802-f3435dfa9660,Norton Vascular Surgery,doctor,"['hospital', 'community_services_non_profits']",KY,Louisville,40216.0,4420 Dixie Hwy,38.1823397,-85.8169685,meta,2025-06-02T07:00:00.000Z,0.9784508333782836,b92a1942-219a-4e3b-903d-765a46763d59,,,,OpenStreetMap,2016-03-25T04:57:53.000Z,,louisville,False
4b33bd11-1a3e-433f-9dc5-a44ec67f1e05,Norton Cardiac Rehabilitation Center,hospital,"['abuse_and_addiction_treatment', 'cardiologist']",KY,Louisville,40216.0,4420 Dixie Hwy,38.1818915,-85.8168834,meta,2025-06-02T07:00:00.000Z,0.9784508333782836,b92a1942-219a-4e3b-903d-765a46763d59,,,,OpenStreetMap,2016-03-25T04:57:53.000Z,,louisville,False
42c0fe07-b29f-43fb-b7bf-b318f4f7b831,Norton Women's Specialists,doctor,"['womens_health_clinic', 'prenatal_perinatal_care']",KY,Louisville,40216.0,4420 Dixie Hwy,38.1820026,-85.8168356,meta,2025-06-02T07:00:00.000Z,0.9784508333782836,b92a1942-219a-4e3b-903d-765a46763d59,,,,OpenStreetMap,2016-03-25T04:57:53.000Z,,louisville,False
6c96f355-6047-4d9f-a899-dcfe86913ecb,Norton Medical Center,hospital,"['doctor', 'health_and_medical']",KY,Shively,40216.0,4420 Dixie Hwy,38.1820981,-85.8168708,meta,2025-06-02T07:00:00.000Z,0.9415384615384615,b92a1942-219a-4e3b-903d-765a46763d59,,,,OpenStreetMap,2016-03-25T04:57:53.000Z,,louisville,False
4ac0537a-316d-4b64-a9e8-cc5f6798e3d1,Norton Women's Specialists - Dixie,obstetrician_and_gynecologist,"['doctor', 'womens_health_clinic', 'health_and_medical']",KY,Louisville,40216.0,4420 Dixie Hwy Ste 116,38.182282,-85.816846,Microsoft,2016-03-08T18:46:37.237Z,0.77,b92a1942-219a-4e3b-903d-765a46763d59,,,,OpenStreetMap,2016-03-25T04:57:53.000Z,,louisville,False
4d79b113-5ccc-41b3-bfcb-92bc4451e7ff,Norton Heart Specialists - Dixie,cardiologist,"['doctor', 'health_and_medical']",KY,Louisville,40216.0,4420 Dixie Hwy Ste 118,38.182282,-85.816846,Microsoft,2016-03-08T18:46:37.237Z,0.77,b92a1942-219a-4e3b-903d-765a46763d59,,,,OpenStreetMap,2016-03-25T04:57:53.000Z,,louisville,False
5bd7ee99-3140-4ff5-866f-a577978890da,Norton Children's Behavioral Health - NCG Dixie,hospital,['counseling_and_mental_health'],KY,Louisville,40216.0,4420 Dixie Hwy,38.1822606,-85.8168191,meta,2025-06-02T07:00:00.000Z,0.9300613496932516,b92a1942-219a-4e3b-903d-765a46763d59,,,,OpenStreetMap,2016-03-25T04:57:53.000Z,,louisville,False
aa4493f6-e7dd-4ca7-95b7-3e14d50dbdf6,Norton Community Medical Associates - Dixie,family_practice,"['doctor', 'hospital']",KY,Louisville,40216.0,4420 Dixie Hwy,38.182281,-85.8167904,meta,2025-06-02T07:00:00.000Z,0.9784508333782836,b92a1942-219a-4e3b-903d-765a46763d59,,,,OpenStreetMap,2016-03-25T04:57:53.000Z,,louisville,False
88348a06-5a95-4ff5-b4aa-60b360bd3833,Norton Immediate Care Center - Dixie,hospital,"['doctor', 'medical_service_organizations']",KY,Louisville,40216.0,4420 Dixie Hwy,38.1821981,-85.816737,meta,2025-06-02T07:00:00.000Z,0.9784508333782836,b92a1942-219a-4e3b-903d-765a46763d59,,,,OpenStreetMap,2016-03-25T04:57:53.000Z,,louisville,False
85646360-daab-404b-b7ef-bdd74394b9fa,Norton Heart & Vascular Institute - Vascular Surgery - Dixie,surgical_center,['health_and_medical'],KY,Louisville,40216.0,4420 Dixie Hwy Ste 118,38.1822253,-85.8166464,Microsoft,2025-04-16T19:39:19.540Z,0.77,,,,,,,,louisville,False
57b95333-11b3-4d34-a22a-d6ec15da9e82,Norton Cardiovascular Diagnostic Center - Dixie,diagnostic_imaging,['health_and_medical'],KY,Louisville,40216.0,4420 Dixie Hwy,38.1822253,-85.8166464,Microsoft,2025-04-10T16:03:51.287Z,0.77,,,,,,,,louisville,False
39580e3b-4f44-4666-9861-f2d87f3ded09,Norton Children's Medical Group - Dixie,pediatrician,"['doctor', 'health_and_medical']",KY,Louisville,40216.0,"4420 Dixie Highway, Suite 126",38.18231356667852,-85.81695556640625,Microsoft,2025-04-16T19:39:49.487Z,0.77,b92a1942-219a-4e3b-903d-765a46763d59,,,,OpenStreetMap,2016-03-25T04:57:53.000Z,,louisville,False
c5897894-7819-41bf-88c7-bd859564d92b,Norton Laundry Mill - Shively,laundromat,['dry_cleaning'],KY,Shively,40216.0,3818 7th Street Rd,38.1949368,-85.8037029,meta,2025-06-02T07:00:00.000Z,0.9879256218304756,7d0e6fad-a8dc-4b80-aa05-f32b76bdbb7a,,,,OpenStreetMap,2022-05-18T11:37:29.000Z,,louisville,False
ea18514d-ff6d-480d-8a4a-1f4b3d1775d7,Norton Heart & Vascular Institute - West Louisville,cardiologist,"['doctor', 'health_and_medical']",KY,Louisville,40211.0,850 S 28th St,38.2463147,-85.7995715,meta,2025-06-02T07:00:00.000Z,0.9204819277108434,,,,,,,,louisville,False
95b58f7c-80ac-452a-8ce1-24346823993e,Norton Orthopedic Institute - West Louisville,orthopedist,"['doctor', 'hospital', 'health_and_medical']",KY,Louisville,40211.0,850 S 28th St Ste 104,38.2463616,-85.7988552,Microsoft,2024-11-15T15:19:54.700Z,0.77,,,,,,,,louisville,False
f5185f3c-92df-45bf-90a2-b3c37ed162a7,Norton Children's Pulmonology - West Louisville,medical_center,['health_and_medical'],KY,Louisville,40211.0,850 S 28th St Ste 104,38.2463616,-85.7988552,Microsoft,2025-04-16T19:40:21.453Z,0.77,,,,,,,,louisville,False
f48f39b3-8bf0-4ffc-bf71-dfd10c6e8508,Norton Cancer Institute - West Louisville,oncologist,"['doctor', 'health_and_medical']",KY,Louisville,40211.0,850 S 28th St Ste 104,38.2463616,-85.7988552,Microsoft,2025-04-16T19:40:21.453Z,0.77,,,,,,,,louisville,False
62179b7a-e580-49c7-a258-707449892a4a,Norton Children's Medical Group,pediatrician,"['doctor', 'professional_services']",KY,Louisville,40211.0,2225 W Broadway,38.2495357,-85.7893696,meta,2025-06-02T07:00:00.000Z,0.9784508333782836,bcae0061-10f8-4a8f-a642-d35094df719b,,,,OpenStreetMap,2019-10-24T09:48:00.000Z,,louisville,False
0cfde356-a51f-4aaf-889a-bac4abe4742b,Norton Healthcare Sports & Learning Center,track_stadium,['professional_sports_league'],KY,Louisville,40212.0,3029 W Muhammad Ali Blvd,38.2581296,-85.8009423,meta,2025-06-02T07:00:00.000Z,0.9784508333782836,,,,,,,,louisville,False
e28f9aac-87e9-407a-aead-ec5c4d8595d0,Norton Children's Heart Institute - New Albany,cardiologist,"['professional_services', 'health_and_medical']",IN,New Albany,47150.0,1919 State St,38.3005507,-85.8357684,meta,2025-06-02T07:00:00.000Z,0.9459263554653524,99910a89-2ddf-4bcb-962a-e7d65b814d2a,Baptist Health Medical Arts Building,,,OpenStreetMap,2025-01-26T22:51:10.000Z,,louisville,False
6eb4fe3d-d8c7-4e8d-ae3e-7d17b6c447f8,Norton Community Medical Associates - Floyds Knobs,family_practice,"['doctor', 'professional_services']",IN,Floyds Knobs,47119.0,4801 Paoli Pike,38.3348157,-85.8982719,meta,2025-06-02T07:00:00.000Z,0.9459263554653524,376d18b0-9a09-42c9-8e72-707e556b3bd9,,,,OpenStreetMap,2024-06-09T20:38:43.000Z,,louisville,False
8aec879b-6ec5-436c-8d6e-ad25f6cb9524,Norton Neuroscience Institute,hospital,"['doctor', 'medical_center']",IN,New Albany,47150.0,3605 Northgate Ct,38.3344979,-85.8171683,meta,2025-06-02T07:00:00.000Z,0.9784508333782836,f7a547f6-3462-460c-bbbd-0f311c24b23d,,,,Microsoft ML Buildings,2020-04-11T00:00:00.000Z,,louisville,False
45704c41-63a7-44ae-9de9-d3463e17e59e,Norton Immediate Care Center - New Albany,hospital,"['doctor', 'health_and_medical']",IN,New Albany,47150.0,3605 Northgate Ct,38.3341802,-85.8168476,meta,2025-06-02T07:00:00.000Z,0.9459263554653524,f7a547f6-3462-460c-bbbd-0f311c24b23d,,,,Microsoft ML Buildings,2020-04-11T00:00:00.000Z,,louisville,False
31d3320d-4f3e-4eed-8826-e0117ceeeba5,Norton Occupational Medicine - New Albany,doctor,"['urgent_care_clinic', 'health_and_medical']",IN,New Albany,47150.0,"3605 Northgate Court, Suite 110",38.33436431468239,-85.81692337989807,Microsoft,2025-04-16T19:39:49.487Z,0.77,f7a547f6-3462-460c-bbbd-0f311c24b23d,,,,Microsoft ML Buildings,2020-04-11T00:00:00.000Z,,louisville,False
4cd1cbbe-9ae7-45ec-b148-b87dd00cc17e,Norton Orthopedic Institute - New Albany,life_insurance,"['orthopedist', 'doctor', 'health_and_medical']",IN,New Albany,47150.0,3707 Charlestown Rd Ste C1,38.3356163,-85.7984254,Microsoft,2024-10-16T12:11:43.793Z,0.77,,,,,,,,louisville,False
2904e8d0-c291-4b32-b0e4-6e0d2812fc48,Norton Community Medical Associates - Fairdale,hospital,"['family_practice', 'doctor']",KY,Louisville,40214.0,189 Outer Loop,38.1266568,-85.7767514,meta,2025-06-02T07:00:00.000Z,0.9784508333782836,456acec5-ceba-4778-9ec2-82f6f9b43ac1,,,,OpenStreetMap,2017-03-24T17:26:11.000Z,,louisville,False
d3660f34-6ca1-4212-ae9c-77cd4f326a57,Norton Children's Medical Group,pediatrician,"['doctor', 'professional_services']",KY,Louisville,40214.0,189 Outer Loop,38.12678,-85.776822,meta,2025-06-02T07:00:00.000Z,0.9784508333782836,456acec5-ceba-4778-9ec2-82f6f9b43ac1,,,,OpenStreetMap,2017-03-24T17:26:11.000Z,,louisville,False
a6b68222-f494-4ff7-9e2e-dae6d20339e9,Norton Children's Medical Group - Okolona,pediatrician,['professional_services'],KY,Louisville,40229.0,5211 Commerce Crossings Dr,38.1037185,-85.6753453,meta,2025-06-02T07:00:00.000Z,0.9459263554653524,3d1738d3-e2b2-446c-8f86-7d8e5d0c9aee,,,,OpenStreetMap,2015-04-13T23:10:53.000Z,,louisville,False
df491635-b12a-4f6d-bb46-979064603960,Norton Immediate Care Center - Preston,family_practice,"['doctor', 'professional_services']",KY,Louisville,40219.0,7926 Preston Hwy,38.1368521,-85.6868081,meta,2025-06-02T07:00:00.000Z,0.9784508333782836,0dac35aa-ece3-41d4-a0dc-c7cc5d519534,,,,OpenStreetMap,2015-04-13T00:37:15.000Z,,louisville,False
78e5cbdd-3488-424f-9dfd-2e71bcc6a6ae,Norton Children's Medical Group,pediatrician,"['doctor', 'professional_services']",KY,Louisville,40219.0,7926 Preston Hwy,38.1370412,-85.686866,meta,2025-06-02T07:00:00.000Z,0.9784508333782836,0dac35aa-ece3-41d4-a0dc-c7cc5d519534,,,,OpenStreetMap,2015-04-13T00:37:15.000Z,,louisville,False
3178ac58-e5c3-4ab4-ba85-73eb2a3e61b6,Norton Community Medical Associates - La Clinica Preston,medical_center,['health_and_medical'],KY,Louisville,40219.0,"7926 Preston Highway, Suite 103",38.137068509622544,-85.68699211969978,Microsoft,2025-04-16T19:40:50.357Z,0.77,0dac35aa-ece3-41d4-a0dc-c7cc5d519534,,,,OpenStreetMap,2015-04-13T00:37:15.000Z,,louisville,False
cf4f6146-f8a6-4007-b2dd-926f528c8d60,Norton Community Medical Associates - Okolona,family_practice,"['hospital', 'internal_medicine']",KY,Louisville,40219.0,7430 Jefferson Blvd,38.1423296,-85.6765409,meta,2025-06-02T07:00:00.000Z,0.9784508333782836,a908226c-d117-4f81-b262-60d9e91017a5,,,,OpenStreetMap,2015-04-12T22:47:21.000Z,,louisville,False
b7b71e60-ef9e-4959-ac05-cba95a317d6a,Norton Diagnostic Center - Fern Creek,diagnostic_imaging,['health_and_medical'],KY,Louisville,40291.0,"9344 Cedar Center Way, Cedar Springs Shopping Center",38.11731,-85.571501,Microsoft,2016-03-08T18:46:37.237Z,0.77,,,,,,,,louisville,False
7c033d3a-f72f-43fb-98ef-10fc2fd1eb26,Norton Children's Medical Group,pediatrician,"['doctor', 'professional_services']",KY,Louisville,40214.0,5109 New Cut Rd,38.1630089,-85.7792005,meta,2025-06-02T07:00:00.000Z,0.9784508333782836,,,,,,,,louisville,False
a802d028-5a50-4b05-af5c-bcf398ac8df2,Norton OB/GYN Associates,obstetrician_and_gynecologist,"['hospital', 'medical_service_organizations']",KY,Louisville,40214.0,5601 S 3rd St,38.1685212,-85.7681905,meta,2025-06-02T07:00:00.000Z,0.9784508333782836,664240fe-6a14-435e-be50-fbd1c795c653,,,,OpenStreetMap,2015-04-17T23:05:01.000Z,,louisville,False
0c6b1144-9f11-495f-bda4-f6b47e2d7eb0,Norton Heart Specialists - Iroquois,cardiologist,"['doctor', 'health_and_medical']",KY,Louisville,40214.0,5601 S 3rd St Ste 200,38.168532,-85.768031,Microsoft,2016-03-08T18:46:37.237Z,0.77,664240fe-6a14-435e-be50-fbd1c795c653,,,,OpenStreetMap,2015-04-17T23:05:01.000Z,,louisville,False
a3483ac5-7b02-4ab4-86f9-b0a70afa1ac7,Dasco Norton Home Medical,pharmacy,"['surgical_appliances_and_supplies', 'health_and_medical']",KY,Louisville,40213.0,3103 Fern Valley Rd,38.157467,-85.706779,meta,2025-06-02T07:00:00.000Z,0.3376623376623376,b3642539-3d52-4a97-beea-e5ba964a5a45,,,,OpenStreetMap,2015-04-03T18:38:49.000Z,,louisville,False
7d584558-83b4-4f1d-8f78-5d1bb03e241c,Norton Immediate Care Dixie,emergency_room,,KY,Louisville,40214.0,Dixie Hwy,38.1904878,-85.7625918,meta,2025-06-02T07:00:00.000Z,0.3376623376623376,26ecb602-8aaf-4875-9c46-278430b2783c,,,,OpenStreetMap,2016-08-11T21:26:19.000Z,,louisville,False
51e480c3-97bc-4e1a-ab8b-f24283b434b8,Norton Cancer Institute Evaluation and Diagnostic Clinic - Hill Street,oncologist,"['doctor', 'medical_center']",KY,Louisville,40208.0,720 W Hill St,38.2264609,-85.7698278,meta,2025-06-02T07:00:00.000Z,0.9415384615384615,33bc0525-c9ed-4184-b607-99bdafdaeba8,,,,OpenStreetMap,2017-01-13T21:30:23.000Z,,louisville,False
e07bd9d4-f708-4a2e-a105-e40ae00d1d64,Norton Behavioral Health - Hill Street,medical_center,"['public_health_clinic', 'health_and_medical']",KY,Louisville,40208.0,720 West Hill Street,38.2264623,-85.7698296,Microsoft,2025-04-10T16:04:24.020Z,0.77,33bc0525-c9ed-4184-b607-99bdafdaeba8,,,,OpenStreetMap,2017-01-13T21:30:23.000Z,,louisville,False
ec7ed7d2-e3bb-4c82-8351-0116d2b842f1,Norton Community Medical Associates - Whole Care - Hill Street,family_practice,['professional_services'],KY,Louisville,40208.0,720 W Hill St,38.22647,-85.7698225,meta,2025-06-02T07:00:00.000Z,0.9297091412742382,33bc0525-c9ed-4184-b607-99bdafdaeba8,,,,OpenStreetMap,2017-01-13T21:30:23.000Z,,louisville,False
13649794-6585-4f48-b9d7-1f31d2f896e0,Norton OB/GYN Associates - Hill Street,obstetrician_and_gynecologist,"['hospital_equipment_and_supplies', 'doctor', 'b2b_medical_support_services', 'health_and_medical', 'business_to_business']",KY,Louisville,40208.0,720 W Hill St,38.226643,-85.77008,Microsoft,2016-03-08T18:46:37.237Z,0.77,33bc0525-c9ed-4184-b607-99bdafdaeba8,,,,OpenStreetMap,2017-01-13T21:30:23.000Z,,louisville,False
30cc5edc-64c2-44d7-bcec-a10fc36e1cc5,Norton Louisville Primary Care Center,doctor,"['hospital', 'health_and_medical']",KY,Louisville,40208.0,720 W Hill St,38.2266568,-85.7697077,meta,2025-06-02T07:00:00.000Z,0.9784508333782836,,,,,,,,louisville,False
dc7b7533-f38c-49ea-b211-63fb26f8c246,"Norton Neurology Services - Rukmaiah C. Bhupalam, M.D.",medical_center,['health_and_medical'],KY,Louisville,40217.0,1169 Eastern Pkwy Ste 1234,38.213187,-85.741026,Microsoft,2016-03-08T18:46:37.237Z,0.77,,,,,,,,louisville,False
8f786be2-458b-4374-84f3-c6e01a6b4d8b,Norton Community Medical Associates - Audubon West G1,health_and_medical,,KY,Louisville,40217.0,2355 Poplar Level Rd Ste 11 G1,38.213187,-85.741026,Microsoft,2016-03-08T18:46:37.237Z,0.77,,,,,,,,louisville,False
65478943-670a-448c-ae4d-b4eba8a2cd3f,Norton Children's Medical Group - Poplar Level,pediatrician,"['doctor', 'professional_services']",KY,Louisville,40217.0,3026 Poplar Level Rd,38.2127769,-85.7222773,meta,2025-06-02T07:00:00.000Z,0.9784508333782836,cf427990-257a-48d9-ac9e-99fc25a313a3,Norton Children's Medical Associates - Poplar Level,medical,,OpenStreetMap,2023-03-17T03:04:28.000Z,,louisville,False
d7a17e47-2fc3-40ea-bc02-34a39769b10a,Norton Sleep Center - Audubon,medical_center,"['sleep_specialist', 'health_and_medical']",KY,Louisville,40217.0,1 Audubon Plaza Dr,38.21424,-85.722477,Microsoft,2025-04-16T19:40:21.453Z,0.77,,,,,,,,louisville,False
eb8594ff-4bb1-4272-8365-7f9633e9ca31,Norton Cardiothoracic Surgery - Audubon,cardiologist,"['doctor', 'medical_center', 'health_and_medical']",KY,Louisville,40217.0,"3 Audubon Plaza Drive, Suite 560",38.21518819576797,-85.72263033704075,Microsoft,2024-11-14T22:35:37.237Z,0.77,54d7bc41-1390-4232-8531-d517073d3a79,Norton Audubon Hospital,medical,hospital,OpenStreetMap,2022-06-13T23:39:46.000Z,,louisville,False
b41a42aa-9747-4947-b2a4-68ae0311ecf1,Norton Cardio Vascular Associates Cardiac Care and Diagnostic Center,hospital,"['doctor', 'community_services_non_profits']",KY,Louisville,40217.0,1 Audubon Plaza Dr,38.2149657,-85.7224161,meta,2025-06-02T07:00:00.000Z,0.4929396662387676,54d7bc41-1390-4232-8531-d517073d3a79,Norton Audubon Hospital,medical,hospital,OpenStreetMap,2022-06-13T23:39:46.000Z,,louisville,False
ac76dd80-72ee-4ced-9f23-492afa5fdbc6,Norton Audubon Hospital,hospital,"['doctor', 'health_and_medical']",KY,Louisville,40217.0,1 Audubon Plaza Dr,38.2151886,-85.7224957,meta,2025-06-02T07:00:00.000Z,0.9784508333782836,54d7bc41-1390-4232-8531-d517073d3a79,Norton Audubon Hospital,medical,hospital,OpenStreetMap,2022-06-13T23:39:46.000Z,,louisville,False
af960d80-1fc4-4c50-861f-c98c80bfb248,Norton Heart & Vascular Institute - Vascular Surgery - Audubon,surgeon,"['doctor', 'professional_services']",KY,Louisville,40217.0,2355 Poplar Level Rd,38.2157325,-85.7233148,meta,2025-06-02T07:00:00.000Z,0.9204819277108434,54d7bc41-1390-4232-8531-d517073d3a79,Norton Audubon Hospital,medical,hospital,OpenStreetMap,2022-06-13T23:39:46.000Z,,louisville,False
d352d3c0-1aad-4a82-90ad-c00fda295565,Norton Audubon Breast Diagnostic Center,hospital,['doctor'],KY,Louisville,40217.0,2355 Poplar Level Rd,38.2157344,-85.7233179,meta,2025-06-02T07:00:00.000Z,0.8860580325548478,54d7bc41-1390-4232-8531-d517073d3a79,Norton Audubon Hospital,medical,hospital,OpenStreetMap,2022-06-13T23:39:46.000Z,,louisville,False
2f1879d9-8357-4c46-a0eb-e55e74f6b88b,Norton Pain Management Associates,doctor,"['hospital', 'surgical_center']",KY,Louisville,40217.0,2355 Poplar Level Rd,38.21578,-85.723181,meta,2025-06-02T07:00:00.000Z,0.7548172757475083,54d7bc41-1390-4232-8531-d517073d3a79,Norton Audubon Hospital,medical,hospital,OpenStreetMap,2022-06-13T23:39:46.000Z,,louisville,False
ea40a6ba-9b8f-49f4-9dc3-77f2e53431d9,Norton Vascular Surgery,doctor,"['health_and_medical', 'hospital']",KY,Louisville,40217.0,3 Audubon Plaza Dr,38.215269,-85.722858,meta,2025-06-02T07:00:00.000Z,0.5662921348314607,54d7bc41-1390-4232-8531-d517073d3a79,Norton Audubon Hospital,medical,hospital,OpenStreetMap,2022-06-13T23:39:46.000Z,,louisville,False
1079fa94-b0b4-4ad5-9828-67cb0d991344,Norton Pharmacy - Audubon,pharmacy,['retail'],KY,Louisville,40217.0,"2355 Poplar Level Road, Norton Medical Plaza West, First floor",38.215270866111744,-85.7227951421906,Microsoft,2025-04-16T19:39:19.540Z,0.77,54d7bc41-1390-4232-8531-d517073d3a79,Norton Audubon Hospital,medical,hospital,OpenStreetMap,2022-06-13T23:39:46.000Z,,louisville,False
61d94b23-983c-4dd1-933c-227376e627f0,Norton Pharmacy - Audubon,doctor,"['surgeon', 'medical_center']",KY,Louisville,40217.0,2355 Poplar Level Rd,38.2152748,-85.7227992,meta,2025-06-02T07:00:00.000Z,0.9784508333782836,54d7bc41-1390-4232-8531-d517073d3a79,Norton Audubon Hospital,medical,hospital,OpenStreetMap,2022-06-13T23:39:46.000Z,,louisville,False
ab043474-b444-43d9-908e-ea3f1b5370e2,Norton Community Medical Associates - Audubon East LL II,internal_medicine,"['doctor', 'hospital']",KY,Louisville,40217.0,3 Audubon Plaza Dr,38.2148524,-85.7215222,meta,2025-06-02T07:00:00.000Z,0.7548172757475083,54d7bc41-1390-4232-8531-d517073d3a79,Norton Audubon Hospital,medical,hospital,OpenStreetMap,2022-06-13T23:39:46.000Z,,louisville,False
fd7b3112-d530-478c-a354-fb8517102e57,Norton Heart Failure Clinic,doctor,"['hospital', 'laboratory_testing']",KY,Louisville,40217.0,3 Audubon Plaza Dr,38.2149053,-85.7215756,meta,2025-06-02T07:00:00.000Z,0.7548172757475083,54d7bc41-1390-4232-8531-d517073d3a79,Norton Audubon Hospital,medical,hospital,OpenStreetMap,2022-06-13T23:39:46.000Z,,louisville,False
0df027ce-ee17-4200-8aa1-d9e414f40094,Norton Institute Palliative Care Center,doctor,"['surgeon', 'hospital']",KY,Louisville,40217.0,3 Audubon Plaza Dr,38.2149955,-85.7219085,meta,2025-06-02T07:00:00.000Z,0.9784508333782836,54d7bc41-1390-4232-8531-d517073d3a79,Norton Audubon Hospital,medical,hospital,OpenStreetMap,2022-06-13T23:39:46.000Z,,louisville,False
bebca97d-a520-4eda-b1e9-97dd5c788f25,Norton Orthopedic Institute,hospital,"['doctor', 'orthopedist']",KY,Louisville,40217.0,3 Audubon Plaza Dr,38.2150156,-85.7219161,meta,2025-06-02T07:00:00.000Z,0.9784508333782836,54d7bc41-1390-4232-8531-d517073d3a79,Norton Audubon Hospital,medical,hospital,OpenStreetMap,2022-06-13T23:39:46.000Z,,louisville,False
e9a37b88-0c0d-47fe-8a06-7ac129448da5,Norton Cardiac & Pulmonary Rehabilitation Center,hospital,"['abuse_and_addiction_treatment', 'cardiologist']",KY,Louisville,40217.0,"Kort Physical Therapy, 3 Audubon Plaza Dr",38.2150101,-85.7219016,meta,2025-06-02T07:00:00.000Z,0.9784508333782836,54d7bc41-1390-4232-8531-d517073d3a79,Norton Audubon Hospital,medical,hospital,OpenStreetMap,2022-06-13T23:39:46.000Z,,louisville,False
7218b8b6-9bf5-49a2-a9f0-c3f0cafa4acb,Norton Neurology Services,neurologist,"['doctor', 'hospital']",KY,Louisville,40217.0,3 Audubon Plaza Dr,38.2150258,-85.7219054,meta,2025-06-02T07:00:00.000Z,0.9784508333782836,54d7bc41-1390-4232-8531-d517073d3a79,Norton Audubon Hospital,medical,hospital,OpenStreetMap,2022-06-13T23:39:46.000Z,,louisville,False
03bb3114-2b68-43e8-bc8a-6d4ea9a794e3,Norton Louisville Arm & Hand,surgeon,"['doctor', 'health_and_medical']",KY,Louisville,40217.0,3 Audubon Plaza Dr,38.2150398,-85.7218872,meta,2025-06-02T07:00:00.000Z,0.9459263554653524,54d7bc41-1390-4232-8531-d517073d3a79,Norton Audubon Hospital,medical,hospital,OpenStreetMap,2022-06-13T23:39:46.000Z,,louisville,False
71c3bff8-604c-4fca-991f-40cfe2ea5c3c,Norton Neuroscience Institute,neurologist,"['doctor', 'neuropathologist']",KY,Louisville,40217.0,3 Audubon Plaza Dr,38.215051,-85.7218786,meta,2025-06-02T07:00:00.000Z,0.9784508333782836,54d7bc41-1390-4232-8531-d517073d3a79,Norton Audubon Hospital,medical,hospital,OpenStreetMap,2022-06-13T23:39:46.000Z,,louisville,False
1ef97fd4-dafa-4e72-be1f-3a59414d6573,Norton Gastroenterology Consultants of Louisville,doctor,"['hospital', 'community_services_non_profits']",KY,Louisville,40217.0,3 Audubon Plaza Dr,38.2150261,-85.7216082,meta,2025-06-02T07:00:00.000Z,0.9784508333782836,54d7bc41-1390-4232-8531-d517073d3a79,Norton Audubon Hospital,medical,hospital,OpenStreetMap,2022-06-13T23:39:46.000Z,,louisville,False
bea234af-c5ba-4410-abe0-744d8906c982,Norton Surgical Specialists,surgeon,"['doctor', 'health_and_medical']",KY,Louisville,40217.0,3 Audubon Plaza Dr,38.215051,-85.721593,meta,2025-06-02T07:00:00.000Z,0.7548172757475083,54d7bc41-1390-4232-8531-d517073d3a79,Norton Audubon Hospital,medical,hospital,OpenStreetMap,2022-06-13T23:39:46.000Z,,louisville,False
dc721d3d-2227-43a6-8c10-e673e042aba9,Norton Arm and Hand Institute - Audubon,surgeon,"['doctor', 'medical_center', 'health_and_medical']",KY,Louisville,40217.0,"3 Audubon Plaza Drive, Suite 430",38.21505665338861,-85.72155894094831,Microsoft,2025-04-16T19:40:50.357Z,0.77,54d7bc41-1390-4232-8531-d517073d3a79,Norton Audubon Hospital,medical,hospital,OpenStreetMap,2022-06-13T23:39:46.000Z,,louisville,False
dc0b1e10-57ad-4435-8fc4-53d89aab30b6,Norton Community Medical Associates - Audubon,hospital,"['doctor', 'community_services_non_profits']",KY,Louisville,40213.0,3101 Poplar Level Rd,38.2129255,-85.7196134,meta,2025-06-02T07:00:00.000Z,0.9784508333782836,b9c3ff02-9326-43d4-a5ca-018d3d0afd82,,medical,,OpenStreetMap,2023-09-27T16:47:34.000Z,,louisville,False
96ed3ce6-5b35-4375-b09f-20ecd68926fb,Norton Immediate Care Center - Audubon,cardiologist,"['doctor', 'health_and_medical']",KY,Louisville,40213.0,"3101 Poplar Level Road, Suite 102",38.212949182282856,-85.71944292234102,Microsoft,2025-04-16T19:39:19.540Z,0.77,b9c3ff02-9326-43d4-a5ca-018d3d0afd82,,medical,,OpenStreetMap,2023-09-27T16:47:34.000Z,,louisville,False
0a27859b-6247-4789-89eb-47496cf96922,"Norton Vascular Surgery - Glenn E. Lambert, M.D.",surgeon,"['vascular_medicine', 'doctor', 'health_and_medical']",KY,Louisville,40217.0,3 Audubon Plaza Dr Ste 220,38.213921,-85.719402,Microsoft,2016-03-08T18:46:37.237Z,0.77,,,,,,,,louisville,False
cd7d5633-d7c8-4ea2-a061-64ef6671ef36,Norton OB/GYN Associates - Audubon,obstetrician_and_gynecologist,"['doctor', 'womens_health_clinic', 'health_and_medical']",KY,Louisville,40217.0,2355 Poplar Level Rd Ste 304,38.213921,-85.719402,Microsoft,2016-03-08T18:46:37.237Z,0.77,,,,,,,,louisville,False
fff23e9c-0290-4c8d-b57c-84877b4a48a7,Norton Cancer Institute - Audubon,cardiologist,"['oncologist', 'doctor', 'health_and_medical']",KY,Louisville,40217.0,2355 Poplar Level Rd Ste 405,38.213921,-85.719402,Microsoft,2016-03-08T18:46:37.237Z,0.77,,,,,,,,louisville,False
643f07c7-8668-41cf-82f9-170d502e4ed4,"Norton Community Medical Associates Audubon East LL2 - Alice H. Johnson, M.D.",internal_medicine,"['doctor', 'health_and_medical']",KY,Louisville,40217.0,3 Audubon Plaza Dr 2,38.213921,-85.719402,Microsoft,2016-03-08T18:46:37.237Z,0.77,,,,,,,,louisville,False
5801f113-e7e6-43fb-92ed-ac8d4bb61c4e,Norton CardioThoracic Surgery - Audubon,cardiologist,"['doctor', 'medical_center', 'health_and_medical']",KY,Louisville,40217.0,3 Audubon Plaza Dr Ste 560,38.213921,-85.719402,Microsoft,2016-03-08T18:46:37.237Z,0.77,,,,,,,,louisville,False
bae645ed-1f12-442d-b6d0-690b8c645256,Norton OB/GYN Associates,obstetrician_and_gynecologist,"['hospital', 'doctor']",KY,Louisville,40217.0,2355 Poplar Level Rd,38.2159667,-85.7235865,meta,2025-06-02T07:00:00.000Z,0.9784508333782836,54d7bc41-1390-4232-8531-d517073d3a79,Norton Audubon Hospital,medical,hospital,OpenStreetMap,2022-06-13T23:39:46.000Z,,louisville,False
ec09a01f-f537-441c-b412-1a722046f94f,Norton Cancer Institute Resource Center,oncologist,"['health_and_medical', 'hospital']",KY,Louisville,40217.0,2355 Poplar Level Rd,38.2160897,-85.7237084,meta,2025-06-02T07:00:00.000Z,0.9784508333782836,54d7bc41-1390-4232-8531-d517073d3a79,Norton Audubon Hospital,medical,hospital,OpenStreetMap,2022-06-13T23:39:46.000Z,,louisville,False
cfa61b8e-1486-4f17-a550-874d0b7be2ad,Norton Community Medical Associates - Endocrinology,hospital,"['internal_medicine', 'family_practice']",KY,Louisville,40217.0,2355 Poplar Level Rd,38.2161321,-85.7237069,meta,2025-06-02T07:00:00.000Z,0.9784508333782836,54d7bc41-1390-4232-8531-d517073d3a79,Norton Audubon Hospital,medical,hospital,OpenStreetMap,2022-06-13T23:39:46.000Z,,louisville,False
0f181924-a22e-4d5f-bca9-077da8483698,Norton Cancer Institute - Audubon,cardiologist,"['oncologist', 'doctor', 'health_and_medical']",KY,Louisville,40217.0,"2355 Poplar Level Road, Suite 405",38.216289523383296,-85.72360946621629,Microsoft,2025-04-10T16:03:51.287Z,0.77,54d7bc41-1390-4232-8531-d517073d3a79,Norton Audubon Hospital,medical,hospital,OpenStreetMap,2022-06-13T23:39:46.000Z,,louisville,False
5a0388c6-ece5-430a-aebf-306e63bfc47e,Norton Children's Medical Group,pediatrician,"['hospital', 'community_services_non_profits']",KY,Louisville,40217.0,1169 Eastern Pkwy,38.2258554,-85.7259989,meta,2025-06-02T07:00:00.000Z,0.9784508333782836,755a8187-e64b-493b-8902-9dfb93fd3e60,Medical Arts Building,,,OpenStreetMap,2023-06-30T09:56:59.000Z,,louisville,False
dcd5438c-a74b-48c0-9c10-3907e0bca32f,Norton Neurology Services,medical_center,['health_and_medical'],KY,Louisville,40217.0,1169 Eastern Pkwy Ste 1226,38.225748,-85.725723,Microsoft,2016-03-08T18:46:37.237Z,0.77,755a8187-e64b-493b-8902-9dfb93fd3e60,Medical Arts Building,,,OpenStreetMap,2023-06-30T09:56:59.000Z,,louisville,False
8b142fa2-3439-42e5-9ff5-cf02b266b857,Benjamin Norton Photography,professional_services,['property_management'],KY,Louisville,40205.0,1700 Gresham Rd,38.2158563,-85.6939285,meta,2025-06-02T07:00:00.000Z,0.9204819277108434,e5d8add9-fb76-43ba-b8b8-cb0a8767386d,,,,OpenStreetMap,2015-02-21T17:33:07.000Z,,louisville,False
74281258-5d4b-4395-8614-090182ea8560,Norton Pulmonary Specialists,doctor,['hospital'],KY,Louisville,40218.0,3430 Newburg Rd,38.1945178,-85.6800358,meta,2025-06-02T07:00:00.000Z,0.9784508333782836,4593ebfa-3501-4b27-96a2-f66f61237fc2,Watterson Medical Center,,,OpenStreetMap,2019-02-18T03:54:32.000Z,,louisville,False
5b72faac-206c-42ca-b74b-688370fbca42,Norton Sleep Center - Newburg,sleep_specialist,['health_and_medical'],KY,Louisville,40218.0,"3430 Newburg Road, Suite 151",38.19450992740815,-85.67983966501237,Microsoft,2025-04-16T19:39:19.540Z,0.77,4593ebfa-3501-4b27-96a2-f66f61237fc2,Watterson Medical Center,,,OpenStreetMap,2019-02-18T03:54:32.000Z,,louisville,False
a7a4899a-51d1-49bb-bc49-ff16da29c7ca,Norton eCare,doctor,"['hospital', 'community_services_non_profits']",KY,Louisville,40218.0,1930 Bishop Ln,38.201561,-85.6834545,meta,2025-06-02T07:00:00.000Z,0.9784508333782836,b69ed46f-a264-4611-b229-af609722573b,,commercial,office,OpenStreetMap,2023-06-21T08:14:51.000Z,,louisville,False
