id_left,primary_name_left,primary_category,alternate_category,region,locality,zipcode,address,latitude,longitude,plc_source_dataset,plc_source_update_time,plc_source_confidence,id_right,primary_name_right,subtype,class,bldg_dataset,bldg_update_time,bldg_confidence,source_city,is_office_by_pipeline
19e5731d-f497-405c-bee6-b29702bd8a9e,HCA Florida Hunter's Creek Emergency,emergency_medicine,"['doctor', 'hospital', 'emergency_service', 'health_and_medical']",FL,Orlando,32837.0,12100 S John Young Pkwy,28.3908095,-81.4251644,Microsoft,2025-04-25T16:50:15.120Z,0.77,,,,,,,,orlando,False
edca0f67-36b2-4208-b42e-8dab72fde182,HCA Florida Airport North Emergency,emergency_room,['health_and_medical'],FL,Orlando,32812.0,5597 Lee Vista Blvd,28.469515,-81.311717,Microsoft,2025-05-20T19:02:27.007Z,0.77,,,,,,,,orlando,False
37b0fea4-8901-4b53-8514-d7e82fc1143d,Hca Cleaning,masonry_concrete,"['contractor', 'home_cleaning']",FL,Orlando,32832.0,11150 Whistling Pine Way,28.4088327,-81.2110132,meta,2025-06-02T07:00:00.000Z,0.8253968253968254,bcfe1d22-ca43-4243-b22e-eabcf7440b4d,,,,OpenStreetMap,2021-07-14T20:17:16.000Z,,orlando,False
270df643-344f-4a5f-b628-4eea8c19596d,HCA Florida Behavioral Health Specialists - Moss Park,health_and_medical,,FL,Orlando,32832.0,10920 Moss Park Rd Ste 100,28.4144935,-81.2257145,Microsoft,2025-04-25T16:50:24.863Z,0.77,,,,,,,,orlando,False
527b6a3f-9997-499c-b344-9e923169de0a,HCA Florida Millenia Emergency,emergency_medicine,"['doctor', 'hospital', 'emergency_service', 'health_and_medical']",FL,Orlando,32839.0,4056 Millenia Blvd,28.491393,-81.4281995,Microsoft,2025-04-25T16:50:16.600Z,0.77,,,,,,,,orlando,False
70641b0c-6b93-4d5d-bd99-206f8ca89aff,HCA Florida Healthcare at Home - Orlando,home_health_care,"['personal_care_service', 'health_and_medical']",FL,Orlando,32810.0,1800 Pembrook Dr Ste 170,28.6320944,-81.4017174,Microsoft,2023-08-16T11:15:32.927Z,0.77,b00cfffc-2524-4521-8b4c-a49fca74fb75,,,,OpenStreetMap,2014-04-03T01:36:57.000Z,,orlando,False
297d18d0-aa8f-4039-a465-fc9c596a09e0,HCA Florida Women's Health Group - Orlando,doctor,['health_and_medical'],FL,Orlando,32803.0,3438 Lawton Rd Ste 2D,28.5603631,-81.3415031,Microsoft,2025-04-25T16:50:24.360Z,0.77,,,,,,,,orlando,False
2d0c9f04-ee59-486f-a3ef-e0a72ed62bb5,HCA Florida Baldwin Park Emergency,diagnostic_imaging,"['emergency_medicine', 'doctor', 'emergency_room', 'hospital', 'medical_center', 'emergency_service', 'health_and_medical']",FL,Orlando,32807.0,2361 N Semoran Blvd,28.5784779,-81.3090915,Microsoft,2025-04-25T16:50:16.140Z,0.77,,,,,,,,orlando,False
94594117-a89e-455f-a2ef-21435ace97fe,HCA Florida Casselberry Emergency,emergency_room,['health_and_medical'],FL,Casselberry,32707.0,2560 S Us-Hwy 17-92,28.6832399,-81.3342942,Microsoft,2025-04-25T16:11:53.007Z,0.77,,,,,,,,orlando,False
1e557443-c30a-4ada-8f8e-44555083f955,HCA Florida Women's Health Group - Oviedo,hospital,"['womens_health_clinic', 'health_and_medical']",FL,Oviedo,32765.0,8400 Red Bug Lake Rd Ste 1040,28.6570792,-81.2267206,Microsoft,2025-04-25T16:21:42.290Z,0.77,1ca76058-8f7e-428d-97c9-a0b11279f168,,commercial,commercial,OpenStreetMap,2018-05-11T00:53:23.000Z,,orlando,False
321eaa58-7fe1-4ae7-9af0-4c7ce1f56ac1,HCA Florida Oviedo Surgical Specialists,surgical_center,['health_and_medical'],FL,Oviedo,32765.0,"8400 Red Bug Lake Rd, Ste 1010-A",28.6570812,-81.2267291,Microsoft,2025-04-25T16:21:34.807Z,0.77,1ca76058-8f7e-428d-97c9-a0b11279f168,,commercial,commercial,OpenStreetMap,2018-05-11T00:53:23.000Z,,orlando,False
cb4fdcc1-f78b-4c85-82cb-2b3cde42968b,HCA Florida Oviedo Surgical Specialists,surgical_center,['health_and_medical'],FL,Oviedo,32765.0,"8400 Red Bug Lake Road, Suite 1010-A",28.6578951,-81.2280852,Microsoft,2025-05-20T19:02:15.690Z,0.77,28e503fd-94d2-45ae-83b0-894978404871,,medical,hospital,OpenStreetMap,2018-05-11T00:53:28.000Z,,orlando,False
70d52574-4f2a-47ed-9e4f-4aaa993ee059,HCA Florida Lake Mary Primary Care,doctor,"['hospital', 'health_and_medical']",FL,Lake Mary,32746.0,4106 Lake Mary Blvd Ste 100,28.756237,-81.3501741,Microsoft,2025-04-25T16:31:23.053Z,0.77,,,,,,,,orlando,False
44adc4cc-97f2-49cf-b6af-3fcbe0f8cc33,HCA Florida Lake Mary Urology,urologist,"['doctor', 'hospital', 'health_and_medical']",FL,Lake Mary,32746.0,1071 S Sun Dr Ste 1003,28.7527514,-81.3475992,Microsoft,2025-04-25T16:31:29.833Z,0.77,,,,,,,,orlando,False
0a07af13-abd7-4483-9d6c-57ebb7b8ba94,HCA Florida Lake Mary Family Physicians,doctor,"['hospital', 'health_and_medical']",FL,Lake Mary,32746.0,910 Williston Park Pt,28.772941,-81.348544,Microsoft,2025-05-20T19:02:15.690Z,0.77,6e16a979-edeb-48f1-8c0e-af1a901a8f25,,medical,,OpenStreetMap,2024-10-22T04:56:52.000Z,,orlando,False
f0001896-8664-4032-9c41-e79ddf4af2f2,HCA Florida Heathrow Emergency,emergency_medicine,"['doctor', 'hospital', 'emergency_service', 'health_and_medical']",FL,Sanford,32771.0,4525 International Pkwy,28.8019103,-81.3466945,Microsoft,2025-04-25T16:49:31.283Z,0.77,d51e3b22-391e-4403-a19f-4a661a2a44a7,,,,Microsoft ML Buildings,2023-09-01T00:00:00.000Z,1.0,orlando,False
2770c996-ee53-4874-9fe4-dc16b33447b9,HCA Florida North Seminole Family and Sports Medicine,family_practice,"['doctor', 'professional_services']",FL,Sanford,32771.0,5300 SR-46,28.8118618,-81.3540647,meta,2025-06-02T07:00:00.000Z,0.9784508333782836,39ed456e-b758-4232-b30d-dafef7fc8391,,,,OpenStreetMap,2020-04-22T03:18:48.000Z,,orlando,False
f7179e67-be5d-4cbf-87af-6854a0defc57,HCA Florida North Seminole Family and Sports Medicine,family_practice,"['doctor', 'professional_services']",FL,Sanford,32771.0,2209 S French Ave,28.7912333,-81.2727864,meta,2025-06-02T07:00:00.000Z,0.9784508333782836,,,,,,,,orlando,False
d07263ed-7346-47d1-a583-2bf89d27cd4c,HCA Florida Lake Monroe Internal Medicine,internal_medicine,"['doctor', 'health_and_medical']",FL,Sanford,32771.0,1403 Medical Plaza Dr Ste 102,28.8130173,-81.2840445,Microsoft,2025-05-20T19:02:31.203Z,0.77,947355da-3ba7-43d7-a11e-b7188d357d50,,commercial,commercial,OpenStreetMap,2015-01-26T20:57:05.000Z,,orlando,False
7f06e13e-0eda-4a31-b8e2-05b697439a7e,HCA Florida Lake Monroe Hospital,hospital,['health_and_medical'],FL,Sanford,32771.0,1401 W Seminole Blvd,28.8138165,-81.2838615,Microsoft,2025-05-20T19:02:15.690Z,0.77,2f5905cd-4998-4b83-91c7-ccec43789fe0,Lake Monroe Hospital,medical,hospital,OpenStreetMap,2025-01-06T08:54:22.000Z,,orlando,False
96a04491-2b84-4089-bc65-adfe444e8505,HCA Florida Orlando Allergy and ENT,ear_nose_and_throat,"['doctor', 'health_and_medical']",FL,Sanford,32771.0,200 N Mangoustine Ave,28.8130609,-81.2826617,Microsoft,2025-04-25T16:49:29.283Z,0.77,,,,,,,,orlando,False
8a797953-fe6c-4180-af1d-c216dc5b8261,HCA Florida Lake Monroe Hospital,hospital,"['health_and_medical', 'medical_service_organizations']",,,0.0,,28.8142421,-81.2836155,meta,2025-06-02T07:00:00.000Z,0.9879256218304756,2f5905cd-4998-4b83-91c7-ccec43789fe0,Lake Monroe Hospital,medical,hospital,OpenStreetMap,2025-01-06T08:54:22.000Z,,orlando,False
40f1cbd3-f04b-4a4b-8a52-5446a169bd86,HCA Florida Heart and LungÂ - Sanford,cardiovascular_and_thoracic_surgeon,"['cardiologist', 'surgeon', 'doctor', 'hospital', 'health_and_medical']",FL,Sanford,32771.0,1718 Lexington Green Lane Ste B-1,28.81381,-81.28242,Microsoft,2025-05-20T19:02:18.527Z,0.77,9c759f68-ddb0-4540-89b4-f60a3c07ae94,,commercial,commercial,OpenStreetMap,2015-01-26T20:57:06.000Z,,orlando,False
88872ba7-279a-4639-8273-683803156fe8,HCA Florida Lake Monroe Stroke Specialists,neurologist,"['doctor', 'health_and_medical']",FL,Sanford,32771.0,305 N Mangoustine Ave Ste 100,28.8140096,-81.2826686,Microsoft,2025-04-25T16:49:40.253Z,0.77,,,,,,,,orlando,False
26fe72af-9575-4f24-95d6-f27a4384a8ce,HCA Florida Seminole Neurosurgery,neurologist,"['doctor', 'hospital', 'health_and_medical']",FL,Sanford,32771.0,305 N Mangoustine Ave Ste 100-B,28.8140206,-81.2826687,Microsoft,2025-04-25T16:49:30.350Z,0.77,,,,,,,,orlando,False
a04eacdc-2397-4475-b73b-23dfbf7578fc,HCA Florida Seminole Surgical Specialists,hospital,['health_and_medical'],FL,Sanford,32771.0,305 N Mangoustine Ave,28.8140175,-81.2823718,meta,2025-06-02T07:00:00.000Z,0.9297091412742382,9c759f68-ddb0-4540-89b4-f60a3c07ae94,,commercial,commercial,OpenStreetMap,2015-01-26T20:57:06.000Z,,orlando,False
a028dda2-9c4c-4b1d-9225-533110134d22,HCA Florida Heart and Lung - Sanford,cardiovascular_and_thoracic_surgeon,"['cardiologist', 'surgeon', 'doctor', 'hospital', 'health_and_medical']",FL,Sanford,32771.0,1718 Lexington Green Lane Ste B-1,28.8133568,-81.2821895,Microsoft,2025-04-25T16:49:30.820Z,0.77,,,,,,,,orlando,False
5d928f8b-f47c-4693-9191-4d52218747eb,HCA Florida Seminole Neurosurgery,neurologist,"['doctor', 'hospital', 'health_and_medical']",FL,Sanford,32771.0,305 N Mangoustine Ave Ste 100B,28.8139993,-81.2822077,Microsoft,2025-05-20T19:02:18.527Z,0.77,9c759f68-ddb0-4540-89b4-f60a3c07ae94,,commercial,commercial,OpenStreetMap,2015-01-26T20:57:06.000Z,,orlando,False
68a3af03-ca02-4788-b9ee-88e8c93ff3ea,HCA Florida Lake Monroe Stroke Specialists,neurologist,"['doctor', 'health_and_medical']",FL,Sanford,32771.0,305 N Mangoustine Ave Ste 100,28.8139993,-81.2822077,Microsoft,2025-05-20T19:02:27.007Z,0.77,9c759f68-ddb0-4540-89b4-f60a3c07ae94,,commercial,commercial,OpenStreetMap,2015-01-26T20:57:06.000Z,,orlando,False
49e20311-becf-4341-85e0-25204d41b357,HCA Florida West Primary Care - West Pensacola,doctor,['health_and_medical'],FL,Pensacola,32504.0,4910 N 12th Ave Ste B,30.4073493,-87.3181823,Microsoft,2023-08-23T11:58:39.843Z,0.77,83ce536c-cf24-4e3f-b92c-d5bc63f8683d,,,,Microsoft ML Buildings,2022-03-26T00:00:00.000Z,,pensacola,False
4110d637-4341-4842-8829-9f2ce1fd4fd1,HCA Florida West Cardiology Specialists - W Pensacola,pediatric_cardiology,"['cardiologist', 'pediatrician', 'doctor', 'health_and_medical']",FL,Pensacola,32506.0,321 S Fairfield Dr,30.4073346,-87.3176731,Microsoft,2025-04-25T18:01:32.037Z,0.77,,,,,,,,pensacola,False
b5947dac-83e8-4f2e-b623-e822d6854934,HCA Florida West Primary Care - W Street,doctor,"['hospital', 'health_and_medical']",FL,Pensacola,32505.0,6431 N W St,30.4791075,-87.2574443,Microsoft,2025-04-25T18:01:36.797Z,0.77,,,,,,,,pensacola,False
e81888b8-de73-491f-9ea6-10e5b3855d72,HCA Florida West Primary Care - 12th Ave,doctor,['health_and_medical'],FL,Pensacola,32504.0,4910 N 12th Ave,30.4676149,-87.2024518,Microsoft,2025-04-25T18:01:32.590Z,0.77,,,,,,,,pensacola,False
942e7431-bd47-4ea8-b49a-5d3bc7b34450,HCA Florida West Primary Care - 12th Ave,doctor,['health_and_medical'],FL,Pensacola,32504.0,4910 N 12th Ave,30.4696114,-87.2008246,Microsoft,2025-05-20T20:57:02.427Z,0.77,,,,,,,,pensacola,False
7e38059c-bc3c-4452-8f5a-f0a36327c4e7,HCA Florida West Primary Care - Pine Forest,doctor,['health_and_medical'],FL,Pensacola,32526.0,7458 Pine Forest Rd,30.5036174,-87.3057036,Microsoft,2025-04-25T18:01:35.847Z,0.77,,,,,,,,pensacola,False
02798bdf-5954-4334-b139-5bf2d3824358,HCA Florida West Cardiology Specialists - Nine Mile Rd,pediatric_cardiology,"['cardiologist', 'pediatrician', 'doctor', 'health_and_medical']",FL,Pensacola,32514.0,1190 E Nine Mile Rd,30.533323,-87.240559,Microsoft,2022-10-13T16:43:35.063Z,0.77,4c4fd720-1ca3-40b2-8256-f2840f969607,West Florida Medical Group,medical,,OpenStreetMap,2021-05-28T16:08:14.000Z,,pensacola,False
f693ab09-b9fb-4430-b131-ce0181642f30,HCA Florida West Primary Care Nine Mile,family_practice,"['doctor', 'hospital']",FL,Pensacola,32514.0,1190 E Nine Mile Rd,30.5332803,-87.2403448,meta,2025-06-02T07:00:00.000Z,0.9784508333782836,4c4fd720-1ca3-40b2-8256-f2840f969607,West Florida Medical Group,medical,,OpenStreetMap,2021-05-28T16:08:14.000Z,,pensacola,False
81b1edf8-751a-4155-a8da-a65aefd5c90d,HCA Florida West GYN Oncology,oncologist,"['doctor', 'health_and_medical']",FL,Pensacola,32514.0,8333 N Davis Highway 7TH Floor,30.514084,-87.219589,Microsoft,2024-04-13T20:22:14.277Z,0.77,,,,,,,,pensacola,False
d2d6dff1-8258-4dcb-838e-380d02bc335f,HCA Florida Heart and Lung - Pensacola,cardiovascular_and_thoracic_surgeon,"['cardiologist', 'surgeon', 'doctor', 'hospital', 'health_and_medical']",FL,Pensacola,32514.0,8333 N Davis Hwy Fl 9,30.5148405,-87.2197448,Microsoft,2025-05-20T19:02:25.867Z,0.77,7aafa0f7-295a-4334-920d-a1e73db9782f,,,,OpenStreetMap,2023-10-18T06:31:12.000Z,,pensacola,False
eae535e7-cd86-4719-b135-14da45e8a243,HCA Florida West Cardiology Specialists,doctor,"['cardiologist', 'hospital']",FL,Pensacola,32514.0,8333 N Davis Hwy,30.5158089,-87.2184023,meta,2025-06-02T07:00:00.000Z,0.9784508333782836,8a3b1d71-8bfb-4576-9772-a936974f25f0,,medical,hospital,OpenStreetMap,2023-10-18T06:31:12.000Z,,pensacola,False
d56c3b13-25cf-4298-ab20-d6e37b074eaf,HCA Florida West Women's Health - Davis Hwy,obstetrician_and_gynecologist,"['doctor', 'health_and_medical']",FL,Pensacola,32514.0,8333 N Davis Hwy,30.5158982,-87.2179859,Microsoft,2025-05-20T19:02:15.690Z,0.77,8a3b1d71-8bfb-4576-9772-a936974f25f0,,medical,hospital,OpenStreetMap,2023-10-18T06:31:12.000Z,,pensacola,False
59cf72f5-8de2-4131-96a4-4ffec01d5927,HCA Florida West Hospital,hospital,"['emergency_room', 'medical_service_organizations']",FL,Pensacola,32514.0,8383 N Davis Hwy,30.5159053,-87.2183735,meta,2025-06-02T07:00:00.000Z,0.9879256218304756,8a3b1d71-8bfb-4576-9772-a936974f25f0,,medical,hospital,OpenStreetMap,2023-10-18T06:31:12.000Z,,pensacola,False
9d560866-92ea-4813-841e-3bff9c5ed1e4,HCA Florida West Maternal Fetal Medicine - Pensacola,maternity_centers,['health_and_medical'],FL,Pensacola,32514.0,2120 E Johnson Ave Ste 102,30.5172927,-87.2177601,Microsoft,2025-04-25T16:24:01.237Z,0.77,,,,,,,,pensacola,False
e4f3d168-53df-4378-bca4-cf552202e23d,HCA Florida West GYN Oncology,oncologist,"['doctor', 'health_and_medical']",FL,Pensacola,32514.0,8333 N Davis Highway 7th Floor,30.5180641,-87.2177438,Microsoft,2024-04-07T11:33:33.830Z,0.77,786a8af7-0b98-49dc-a88f-bdac2b745cf6,,,,OpenStreetMap,2015-06-18T20:55:39.000Z,,pensacola,False
50cf4c25-e356-461b-b7f8-a9d442b87384,HCA Florida West Neurology,neurologist,['professional_services'],FL,Pensacola,32514.0,2120 E Johnson Ave,30.5180633,-87.2177422,meta,2025-06-02T07:00:00.000Z,0.9415384615384615,786a8af7-0b98-49dc-a88f-bdac2b745cf6,,,,OpenStreetMap,2015-06-18T20:55:39.000Z,,pensacola,False
b093ff97-c6ec-4a33-974e-cd417eeb6603,HCA Florida West Surgical Specialists,hospital,"['surgical_center', 'health_and_medical']",FL,Pensacola,32514.0,2130 E Johnson Ave Ste 130,30.5172836,-87.2164816,Microsoft,2025-04-25T18:01:24.420Z,0.77,,,,,,,,pensacola,False
1898ec14-d0de-4fd0-80f7-41af6aeb9f50,HCA Florida West Orthopedic Specialists,orthopedist,"['doctor', 'hospital', 'health_and_medical']",FL,Pensacola,32514.0,2130 E Johnson Ave Ste 130-C,30.5180098,-87.2164949,Microsoft,2025-05-20T20:57:02.427Z,0.77,4da73ea9-8aad-4551-b44c-2c68d4dba411,,,,OpenStreetMap,2015-06-18T20:55:39.000Z,,pensacola,False
3cdc7216-8962-4bcd-a524-4ed8a40c4c1a,HCA Florida Fawcett Surgical Specialists - Englewood,surgeon,"['doctor', 'health_and_medical']",FL,Englewood,34223.0,1861 Placida Rd Ste 203,26.9323879,-82.3361786,Microsoft,2023-09-12T17:29:57.750Z,0.77,eef43b03-34ac-4092-b4c3-6d4b8010c687,,,,Microsoft ML Buildings,2021-01-21T00:00:00.000Z,,sarasota-bradenton,False
33b0b973-e596-4d23-9ad4-0eaaa4dc6014,HCA Florida Neurosurgery - Englewood,neurologist,"['doctor', 'hospital', 'health_and_medical']",FL,Englewood,34223.0,"1861 Placida Road, Suite 203-B",26.9323879,-82.3361786,Microsoft,2025-05-20T19:02:29.520Z,0.77,eef43b03-34ac-4092-b4c3-6d4b8010c687,,,,Microsoft ML Buildings,2021-01-21T00:00:00.000Z,,sarasota-bradenton,False
3eee5a10-5edd-4889-8119-727da3341d8e,HCA Florida Englewood Hospital,hospital,"['medical_service_organizations', 'ambulance_and_ems_services']",FL,Englewood,34223.0,700 Medical Blvd,26.9505683,-82.3264672,meta,2025-06-02T07:00:00.000Z,0.9879256218304756,584ac29c-4d18-4e73-97be-1162121d4713,,,,OpenStreetMap,2021-01-18T04:45:27.000Z,,sarasota-bradenton,False
f5e4b889-0701-42a1-a384-98ef250eedfe,HCA Florida Heart Institute - Venice,cardiologist,"['doctor', 'hospital', 'health_and_medical']",FL,Venice,34285.0,600 Bird Bay Dr W,27.0480437,-82.3210675,Microsoft,2024-08-29T13:08:33.290Z,0.77,909f41b1-810b-4456-b054-09151f27f273,,,,OpenStreetMap,2020-12-20T18:12:34.000Z,,sarasota-bradenton,False
93196e7f-906e-4435-95bd-b75bbbd5cdc9,HCA Florida Neurosurgery - Wellen Park,neurologist,"['doctor', 'hospital', 'health_and_medical']",FL,Venice,34293.0,12169 Mercado Dr Ste B6,27.0480437,-82.3210675,Microsoft,2025-05-20T19:02:29.520Z,0.77,909f41b1-810b-4456-b054-09151f27f273,,,,OpenStreetMap,2020-12-20T18:12:34.000Z,,sarasota-bradenton,False
8d30fa5c-0632-4107-a68c-df4ebe70a0f3,HCA Florida Heart Institute - Venice,cardiologist,"['doctor', 'hospital', 'health_and_medical']",FL,Venice,34285.0,600 Bird Bay Dr W,27.108803,-82.44105,Microsoft,2024-08-29T14:34:52.127Z,0.77,5c703038-6c2a-40da-9fd3-700717a33698,,,,Microsoft ML Buildings,2019-02-14T00:00:00.000Z,,sarasota-bradenton,False
4c7aac1f-35f1-48e2-83f6-b9eb0c0ef82c,HCA Florida Thoracic Surgery - Venice,surgeon,"['doctor', 'health_and_medical']",FL,Venice,34285.0,600 Bird Bay Dr W,27.108813,-82.4410577,Microsoft,2025-04-25T16:55:59.613Z,0.77,5c703038-6c2a-40da-9fd3-700717a33698,,,,Microsoft ML Buildings,2019-02-14T00:00:00.000Z,,sarasota-bradenton,False
b7091331-eb0e-4654-be22-323f8662f313,HCA Florida Sarasota Doctors Hospital Preadmission Services,medical_center,['health_and_medical'],FL,Venice,34292.0,1740 E Venice Ave Ste 15,27.1004058,-82.4030177,Microsoft,2025-05-20T19:02:23.503Z,0.77,a157a251-346b-4934-ae6b-98392b1cf6f8,,commercial,retail,OpenStreetMap,2021-03-01T17:16:22.000Z,,sarasota-bradenton,False
b12ca307-b4be-4a1f-93e2-e75431f6011b,HCA Florida Sarasota Doctors Hospital Preadmission Services,medical_center,['health_and_medical'],FL,Venice,34292.0,1740 E Venice Ave Ste 15,27.1005764,-82.4028826,Microsoft,2025-04-25T16:56:00.577Z,0.77,a157a251-346b-4934-ae6b-98392b1cf6f8,,commercial,retail,OpenStreetMap,2021-03-01T17:16:22.000Z,,sarasota-bradenton,False
75638525-808f-4334-bd1c-48cb24b42bbb,HCA Florida Healthcare at Home - Sarasota,home_health_care,"['personal_care_service', 'health_and_medical']",FL,Sarasota,34238.0,5989 Approach Rd,27.2673076,-82.4563153,Microsoft,2025-04-25T16:49:47.267Z,0.77,,,,,,,,sarasota-bradenton,False
341b7cee-37ad-4730-add7-7a444b62211d,HCA Florida Neurosurgery - Sarasota,neurologist,"['doctor', 'hospital', 'health_and_medical']",FL,Sarasota,34233.0,5741 Bee Ridge Rd Ste 110,27.3018693,-82.454532,Microsoft,2025-05-20T19:02:29.520Z,0.77,bdc29f1c-31de-4c24-9956-7668884f6f45,,transportation,parking,OpenStreetMap,2017-09-13T18:27:33.000Z,,sarasota-bradenton,False
c83754d5-0c94-4254-9a2e-08f3e97dde51,HCA Florida Thoracic Surgery - Venice,surgeon,"['doctor', 'health_and_medical']",FL,Venice,34285.0,600 Bird Bay Dr W,27.3018693,-82.454532,Microsoft,2025-05-20T19:02:27.007Z,0.77,bdc29f1c-31de-4c24-9956-7668884f6f45,,transportation,parking,OpenStreetMap,2017-09-13T18:27:33.000Z,,sarasota-bradenton,False
0c645f8a-b984-4dff-b3ba-9605ee6e5617,HCA Florida Sarasota Doctors Hospital,hospital,"['health_and_medical', 'emergency_room']",FL,Sarasota,34233.0,5731 Bee Ridge Rd,27.3016828,-82.4534138,meta,2025-06-02T07:00:00.000Z,0.9879256218304756,30857eef-ece0-4ae4-b88b-b917c1f67256,,medical,hospital,OpenStreetMap,2017-09-13T18:27:33.000Z,,sarasota-bradenton,False
d2959d92-0a31-41ad-957d-c8d40fb747c9,HCA Florida Fawcett Surgical Specialists - Sarasota,surgeon,"['doctor', 'hospital', 'health_and_medical']",FL,Sarasota,34233.0,5741 Bee Ridge Rd Ste 320,27.3019167480473,-82.452434894499,Microsoft,2023-06-04T03:00:48.570Z,0.77,30857eef-ece0-4ae4-b88b-b917c1f67256,,medical,hospital,OpenStreetMap,2017-09-13T18:27:33.000Z,,sarasota-bradenton,False
90c435d7-ad63-4254-b228-bc7f93f7e57c,HCA Florida Healthcare at Home - Sarasota,home_health_care,"['personal_care_service', 'health_and_medical']",FL,Sarasota,34238.0,5989 Approach Rd,27.3092212,-82.4489601,Microsoft,2025-05-20T19:02:31.203Z,0.77,ddfb1269-1b4f-4f63-9b16-1e705d9a8ba9,,,,Microsoft ML Buildings,2020-02-24T00:00:00.000Z,,sarasota-bradenton,False
b1fc3584-0218-406f-8c80-a3094c99b8ce,HCA Florida Blake Primary Care,doctor,"['hospital', 'health_and_medical']",FL,Bradenton,34210.0,7005 Cortez Rd W,27.4625903,-82.6322307,Microsoft,2025-04-25T16:05:11.243Z,0.77,,,,,,,,sarasota-bradenton,False
d74f8671-a3b2-405c-a281-8365d903da43,HCA Florida Blake Medical Specialists - Cortez Rd - Neurological Care,neurologist,"['doctor', 'health_and_medical']",FL,Bradenton,34210.0,7005 Cortez Rd W,27.4625903,-82.6322307,Microsoft,2025-04-25T16:05:10.633Z,0.77,,,,,,,,sarasota-bradenton,False
7c99cd59-bdb8-4ba8-8f14-918f1d9d2e06,HCA Florida Blake Hospital,hospital,"['emergency_room', 'doctor']",FL,Bradenton,34209.0,2020 59th St W,27.4822289,-82.6228059,meta,2025-06-02T07:00:00.000Z,0.9879256218304756,,,,,,,,sarasota-bradenton,False
fbf7303b-a149-45f3-b6a2-3c266bb523fa,HCA Florida Blake Hospital,hospital,['health_and_medical'],FL,Bradenton,34209.0,2020 59th St W,27.4822758,-82.6226447,Microsoft,2025-05-20T19:02:19.833Z,0.77,,,,,,,,sarasota-bradenton,False
e816767d-0849-4012-afc7-f67ecfc7173d,HCA Florida Blake Trauma Specialists,surgeon,"['doctor', 'health_and_medical']",FL,Bradenton,34209.0,2010 59th St W Ste 1600-A,27.4831226,-82.6236419,Microsoft,2025-04-25T16:06:05.643Z,0.77,,,,,,,,sarasota-bradenton,False
7b51c2b0-0062-4b74-89bf-98873391512f,HCA Florida Heart Institute - Bradenton,cardiologist,"['doctor', 'health_and_medical']",FL,Bradenton,34209.0,2010 59th St W Ste 4200,27.4831892,-82.6233469,Microsoft,2025-05-20T19:02:23.503Z,0.77,af546b11-2d98-4071-888e-d1321b86af79,,medical,hospital,OpenStreetMap,2020-01-20T01:55:57.000Z,,sarasota-bradenton,False
e69d8e55-632c-4820-91ef-d336b2731b00,HCA Florida Blake Medical Specialists - 75th Street - Primary Care & Specialties,doctor,"['hospital', 'health_and_medical']",FL,Bradenton,34209.0,315 75th St W Ste B,27.497799,-82.636553,Microsoft,2025-04-25T16:05:11.793Z,0.77,,,,,,,,sarasota-bradenton,False
fab0ab4b-df99-45bd-be50-07d44e7c04de,HCA Florida Blake Urgent Care,urgent_care_clinic,['health_and_medical'],FL,Bradenton,34209.0,315 75th St W,27.498026,-82.6361,Microsoft,2024-01-29T19:59:58.740Z,0.77,671e8b77-b4bc-4507-9d9b-29fcd48f5128,Pinacle Medical Clinic,medical,,OpenStreetMap,2019-07-08T18:16:32.000Z,,sarasota-bradenton,False
64333b52-d912-4562-bf79-662194ce30d1,HCA Florida Thoracic Surgery - Bradenton,medical_center,"['public_health_clinic', 'health_and_medical']",FL,Bradenton,34209.0,315 75th St W Ste D,27.4980705,-82.635901,Microsoft,2025-05-20T19:02:23.503Z,0.77,671e8b77-b4bc-4507-9d9b-29fcd48f5128,Pinacle Medical Clinic,medical,,OpenStreetMap,2019-07-08T18:16:32.000Z,,sarasota-bradenton,False
552f7052-c74a-4add-af9d-0c151707f5e8,HCA Florida Blake Surgical Specialists - 75th Street,surgeon,"['doctor', 'hospital', 'health_and_medical']",FL,Bradenton,34209.0,315 75th St W Ste E,27.4980705,-82.635901,Microsoft,2025-05-20T19:02:27.007Z,0.77,671e8b77-b4bc-4507-9d9b-29fcd48f5128,Pinacle Medical Clinic,medical,,OpenStreetMap,2019-07-08T18:16:32.000Z,,sarasota-bradenton,False
54b2904c-d724-4f21-8467-8ccd9c4009dd,Kenneth H. Hca Florida Rheumatology,hospital,"['doctor', 'health_and_medical']",FL,Bradenton,34209.0,315 75th St W,27.4982896,-82.6359634,meta,2025-06-02T07:00:00.000Z,0.4929396662387676,671e8b77-b4bc-4507-9d9b-29fcd48f5128,Pinacle Medical Clinic,medical,,OpenStreetMap,2019-07-08T18:16:32.000Z,,sarasota-bradenton,False
455e6268-f926-4ba7-91d7-cfdec4605204,HCA Florida Blake Medical Specialists - 26th Street - Family Medicine,doctor,"['hospital', 'health_and_medical']",FL,Bradenton,34207.0,6033 26th St W,27.433825,-82.587708,Microsoft,2025-01-30T17:41:08.920Z,0.77,,,,,,,,sarasota-bradenton,False
552bd671-c8ba-4c58-8469-314d257a72ff,HCA Florida Healthcare at Home - Bradenton,home_health_care,"['personal_care_service', 'health_and_medical']",FL,Bradenton,34205.0,100 3rd Ave W Ste 200,27.497535,-82.563618,Microsoft,2023-09-20T00:03:10.663Z,0.77,a7fe558c-f914-4478-a4b1-07c0aa5b95ba,,residential,apartments,OpenStreetMap,2021-10-09T23:38:08.000Z,,sarasota-bradenton,False
01589678-d103-4d65-b119-1bbb0bd104f7,HCA Florida Sarasota Doctors North Emergency,hospital,"['emergency_room', 'central_government_office']",FL,Bradenton,34202.0,8500 E State Road 70,27.4384713,-82.4532907,meta,2025-06-02T07:00:00.000Z,0.9784508333782836,34ce90ef-f119-4fb2-a7d1-b65805c0500f,Doctors Hospital of Sarasota ER in Lakewood Ranch,medical,hospital,OpenStreetMap,2020-09-26T21:08:34.000Z,,sarasota-bradenton,False
418ad6ec-7ac5-49c9-aac1-fcfc7b9a1fff,HCA Asset Management,professional_services,['event_photography'],FL,Bradenton,34208.0,5214 4th Ave Cir E,27.495849,-82.4959458,meta,2025-06-02T07:00:00.000Z,0.909823677581864,41a8b45e-907c-481d-8522-e28da3d8d70d,,,,OpenStreetMap,2022-04-20T18:15:14.000Z,,sarasota-bradenton,False
bc3ad035-2f5f-48de-9f09-1849dd21197d,HCA Riverside Family Medicine Residency,family_practice,"['medical_service_organizations', 'health_and_medical']",CA,Riverside,92501.0,4445 Magnolia Ave,33.9765773,-117.3808294,meta,2025-06-02T07:00:00.000Z,0.3961437335670464,e48685c2-fb72-4c88-8616-ab54de752019,Main Hospital Building,medical,hospital,OpenStreetMap,2023-01-30T01:04:32.000Z,,riverside-san-bernardino,False
7f2d420d-5fd5-47a5-bd40-6eb51498de23,NID HCA Riverside and San Bernardino Counties,housing_authorities,"['educational_services', 'real_estate_agent']",CA,Moreno Valley,92553.0,23945 Sunnymead Blvd,33.9378687,-117.2451955,meta,2025-06-02T07:00:00.000Z,0.8148148148148148,4eba87c4-d806-4745-9351-0f660849763f,Our Place,commercial,retail,OpenStreetMap,2021-02-25T11:58:26.000Z,,riverside-san-bernardino,False
7f2d420d-5fd5-47a5-bd40-6eb51498de23,NID HCA Riverside and San Bernardino Counties,housing_authorities,"['educational_services', 'real_estate_agent']",CA,Moreno Valley,92553.0,23945 Sunnymead Blvd,33.9378687,-117.2451955,meta,2025-06-02T07:00:00.000Z,0.8148148148148148,1dc4fc98-921d-40a0-8642-ac53f2cba7ae,,,,OpenStreetMap,2019-04-13T21:52:44.000Z,,riverside-san-bernardino,False
e0fa9c23-703d-49dc-b293-b09b3b0b7c96,HCA MidAmerica - Delta Region,hospital,['health_and_medical'],LA,New Orleans,70112.0,1440 Canal St #1860,29.9556368,-90.07585,Microsoft,2023-05-26T22:25:46.587Z,0.77,9f41bba0-7ee8-4c27-a975-8a319026edb9,Tulane Medical Center,medical,hospital,OpenStreetMap,2019-04-11T15:40:55.000Z,,new-orleans,False
386615a1-f744-48b4-b765-87eaa588ad49,HCA Park,park,"['attractions_and_activities', 'public_plaza']",,,7463.0,,41.0105937,-74.1007499,meta,2025-06-02T07:00:00.000Z,0.5662921348314607,9a906f0a-8416-4827-8fca-fd2523c457c4,,,,OpenStreetMap,2019-03-17T02:15:11.000Z,,new-york,False
099144eb-bfdf-46ab-99f7-821aa8628756,HCA Florida Darwin Square Emergency,emergency_medicine,"['doctor', 'emergency_service', 'health_and_medical']",FL,Port Saint Lucie,34953.0,3275 SW Darwin Blvd,27.2500467,-80.3755785,Microsoft,2025-04-25T18:02:31.257Z,0.77,,,,,,,,port-st-lucie,False
ca923a31-a3e4-422b-b320-b7918167db29,HCA Florida St. Lucie Medical Specialists - St. Lucie West,medical_center,['health_and_medical'],FL,Port St. Lucie,34986.0,293 N W Peacock Blvd,27.3175751,-80.4069203,Microsoft,2025-04-25T18:02:27.700Z,0.77,,,,,,,,port-st-lucie,False
faeea714-54d4-45c7-aeea-3d2299476b5e,HCA Florida Minimally Invasive Urogynecology - Port St. Lucie,obstetrician_and_gynecologist,"['doctor', 'health_and_medical']",FL,Port St Lucie,34986.0,293 NW Peacock Blvd Ste 202,27.3175751,-80.4069203,Microsoft,2025-04-25T18:02:38.230Z,0.77,,,,,,,,port-st-lucie,False
82b0651d-99b0-4f19-9855-35ae7ca5c83f,HCA Florida St. Lucie Cosmetic and Reconstructive Surgery,hospital,"['surgical_center', 'doctor']",FL,Port St Lucie,34986.0,293 NW Peacock Blvd,27.3176042,-80.4065036,meta,2025-06-02T07:00:00.000Z,0.9415384615384615,,,,,,,,port-st-lucie,False
7337973c-1156-416f-84db-4cf2c7fad727,HCA Florida Healthcare at Home - Port St. Lucie,home_health_care,"['personal_care_service', 'health_and_medical']",FL,Fort Pierce,34981.0,4638 S 25th St,27.3268251,-80.4083959,Microsoft,2023-09-20T00:03:10.663Z,0.77,c7ad91cc-5b6b-4e4a-a606-602be9225072,,,,OpenStreetMap,2021-10-25T21:11:53.000Z,,port-st-lucie,False
5667ced1-b229-4d2d-8f70-99cbe59ded00,HCA Florida Fort Pierce Surgical Specialists - Port St. Lucie,hospital,"['surgical_center', 'health_and_medical']",FL,Port St Lucie,34952.0,1943 SE Port St Lucie Blvd,27.2711843,-80.2921755,Microsoft,2025-04-25T18:02:39.650Z,0.77,,,,,,,,port-st-lucie,False
d68ab637-a904-4caa-8796-5a10cd6f38ad,HCA Florida Treasure Coast Surgical Specialists,hospital,"['medical_center', 'surgical_center', 'health_and_medical']",FL,Port St. Lucie,34952.0,1400 S E Goldtree Dr Ste 103,27.2839718,-80.295023,Microsoft,2025-04-25T18:02:30.750Z,0.77,,,,,,,,port-st-lucie,False
4a65f5ba-586a-474a-ad2e-7173cfb40926,HCA Florida Treasure Coast Surgical Specialists,hospital,"['medical_center', 'surgical_center', 'health_and_medical']",FL,Port St. Lucie,34952.0,1400 S E Goldtree Dr Ste 103,27.2836221,-80.2948684,Microsoft,2025-05-20T19:02:15.690Z,0.77,df94f4ab-8e7d-4418-bb0b-5bbd80b8b0dc,,,,OpenStreetMap,2020-02-20T03:48:38.000Z,,port-st-lucie,False
cd09789a-462a-45c6-997d-2867aca57ce7,HCA Florida St. Lucie Medical Specialists - Diagnostics,diagnostic_imaging,"['medical_sciences_schools', 'education', 'health_and_medical']",FL,Port St. Lucie,34952.0,1700 SE Hillmoor Dr Ste 101,27.2865605,-80.2956915,Microsoft,2025-04-25T18:02:44.067Z,0.77,,,,,,,,port-st-lucie,False
e2b59711-2760-4c3e-9b06-bb3da982a5ae,HCA Florida St Lucie Hospital Emergency Room,hospital,"['health_and_medical', 'medical_service_organizations']",FL,Port St Lucie,34952.0,1800 SE Tiffany Ave,27.288449,-80.2939769,meta,2025-06-02T07:00:00.000Z,0.9784508333782836,7970c8e0-4873-4d9f-bfd9-a93f7ef2c33a,,,,OpenStreetMap,2024-02-20T13:26:50.000Z,,port-st-lucie,False
96ba1399-752f-4562-b7af-d73f175f2b2a,The Advanced Wound Care Center at HCA Florida St. Lucie Hospital,medical_center,"['public_health_clinic', 'health_and_medical']",FL,Port St. Lucie,34952.0,1871 SE Tiffany Ave Ste 210,27.2918325,-80.29493,Microsoft,2025-05-20T19:02:27.007Z,0.77,a4e1ddcf-18b7-4f45-a5ff-2652c26e4c5e,,,,OpenStreetMap,2020-02-20T03:48:38.000Z,,port-st-lucie,False
27984cd8-3b8b-47d9-960d-9651fdfab643,HCA Florida St. Lucie Medical Specialists - Hillmoor,doctor,"['medical_center', 'public_health_clinic', 'health_and_medical']",FL,Port St. Lucie,34952.0,1881 SE Tiffany Ave Ste 200,27.2919962,-80.2938534,Microsoft,2025-04-25T18:02:27.103Z,0.77,,,,,,,,port-st-lucie,False
3ec1b7af-a28d-406f-851c-7d83610e6b6f,Hca Healthtrust,health_and_medical,"['hospital', 'insurance_agency']",TN,Brentwood,37027.0,155 Franklin Rd,36.034552,-86.788286,meta,2025-06-02T07:00:00.000Z,0.296943231441048,a15f1e9e-dc85-4a5f-aa28-2eee9d608e92,,,,OpenStreetMap,2023-08-28T07:00:52.000Z,,nashville-davidson,False
1860ee17-8cfc-4f71-bec2-bdc80f241fd4,HCA Physician Services IT&S,event_planning,,TN,Brentwood,37027.0,104 Continental Pl,36.038295,-86.809334,meta,2025-06-02T07:00:00.000Z,0.296943231441048,3124918d-bfba-4186-a30b-956e398a4584,,residential,house,OpenStreetMap,2019-12-08T19:25:31.000Z,,nashville-davidson,True
14fca0ec-a0ba-41ff-81ab-15c44348ca53,HCA Healthcare TriStar Division Office,commercial_real_estate,"['corporate_office', 'private_establishments_and_corporates']",TN,Brentwood,37027.0,1000 Health Park Dr Bldg 3,36.0415312,-86.7727718,Microsoft,2025-04-25T16:07:08.547Z,0.77,,,,,,,,nashville-davidson,True
c106014b-1f92-40b0-bdac-3468dc0da600,Hca Healthpark,hospital,"['health_and_medical', 'doctor']",TN,Brentwood,37027.0,2000 Health Park Dr,36.0441532,-86.7752259,meta,2025-06-02T07:00:00.000Z,0.5662921348314607,,,,,,,,nashville-davidson,False
aa9bef72-3d28-4382-8ec0-0b0345d78859,HCA Metroplex,event_planning,"['professional_services', 'fast_food_restaurant']",TN,Nashville,37211.0,490 Metroplex Dr,36.090765,-86.700735,meta,2025-06-02T07:00:00.000Z,0.3376623376623376,4d26efad-e484-4c3b-9c8c-a6e882b368c7,,,,OpenStreetMap,2022-07-20T20:36:02.000Z,,nashville-davidson,True
07d003f6-3b54-4c2c-8dec-c47b99bad674,Hca Information Services,hospital,"['health_and_medical', 'professional_services']",TN,Nashville,37203.0,2555 Park Plz,36.14934,-86.819485,meta,2025-06-02T07:00:00.000Z,0.7548172757475083,cf64c7b1-361c-4611-9e22-21fe308bb306,,commercial,office,OpenStreetMap,2022-04-24T16:52:11.000Z,,nashville-davidson,True
7f4c1e58-99ed-45ae-92c8-de182612a837,HCA Centennial Development,day_care_preschool,"['social_service_organizations', 'home_service']",TN,Nashville,37209.0,2606 Charlotte Ave,36.1544985,-86.8163963,meta,2025-06-02T07:00:00.000Z,0.9459263554653524,d5e73a76-e657-4578-8f91-f1b2b478a2d1,,,,OpenStreetMap,2020-02-18T13:34:00.000Z,,nashville-davidson,False
3ea00bfb-5473-41bd-9a9b-a4b6a9812e91,HCA Healthcare,health_and_medical,"['event_planning', 'hospital']",TN,Nashville,37203.0,2515 Park Plz,36.1534075,-86.8140626,meta,2025-06-02T07:00:00.000Z,0.93,d118b372-93c5-43e2-92d4-91ee78922a40,,,,OpenStreetMap,2023-01-19T17:31:30.000Z,,nashville-davidson,True
bf079801-852e-40a1-a0f9-261107584965,HCA Healthcare,medical_center,"['commercial_real_estate', 'corporate_office', 'health_and_medical', 'private_establishments_and_corporates']",TN,Nashville,37203.0,1 Park Plz,36.1536774,-86.8138175,Microsoft,2025-05-20T19:02:12.250Z,0.77,d118b372-93c5-43e2-92d4-91ee78922a40,,,,OpenStreetMap,2023-01-19T17:31:30.000Z,,nashville-davidson,True
495f4c68-0990-4e46-973b-5961a8e43b84,HCA - Capitol View,shared_office_space,,TN,Nashville,37203.0,1100 Charlotte Ave,36.1619142,-86.7910618,Microsoft,2025-04-25T16:45:24.960Z,0.77,,,,,,,,nashville-davidson,True
4abb56df-dc66-429a-afaa-9b16d5d28d1d,HCA Mid America Supply Chain,health_and_medical,"['medical_service_organizations', 'hardware_store']",TN,Nashville,37228.0,245 Great Circle Rd,36.194933,-86.7906162,meta,2025-06-02T07:00:00.000Z,0.9459263554653524,,,,,,,,nashville-davidson,False
3730db61-f9a8-42d4-97ba-4c62b97654a2,HCA Human Resources,health_and_medical,"['health_department', 'hospital']",TN,Nashville,37214.0,811 Royal Pkwy,36.144676,-86.660416,meta,2025-06-02T07:00:00.000Z,0.5662921348314607,8c50ebe8-c7cd-4344-bbfc-9b67f7740335,,,,OpenStreetMap,2023-01-14T17:15:24.000Z,,nashville-davidson,False
2536c727-16de-48e8-872b-6adbc8301043,HCA TriStar Division Center for Clinical Advancement,medical_sciences_schools,['education'],TN,Antioch,37013.0,5380 Hickory Hollow Pkwy Ste 200,36.0449581,-86.6517307,Microsoft,2025-04-25T15:59:14.947Z,0.77,,,,,,,,nashville-davidson,False
53ac7875-946e-4e02-8159-7dfaa5f7e290,HCA Simulation Learning Center,specialty_school,"['driving_school', 'computer_coaching']",TN,Antioch,37013.0,5380 Hickory Hollow Pkwy,36.0452939,-86.651357,meta,2025-06-02T07:00:00.000Z,0.7548172757475083,3188810c-74b8-4126-81f3-21d6b95d9729,,,,OpenStreetMap,2019-12-27T08:58:13.000Z,,nashville-davidson,False
47897e73-4a89-4aa5-8263-0155e8eaafcc,Hca Tristar Medline,hospital,"['laboratory_testing', 'doctor']",TN,Madison,37115.0,510 Hospital Dr,36.252487,-86.682491,meta,2025-06-02T07:00:00.000Z,0.3376623376623376,ac41a7eb-7a37-4f48-a1c0-a7d6db930cea,,,,Esri Community Maps,2024-10-15T00:00:00.000Z,,nashville-davidson,False
f8c0c999-8cdc-45f4-8300-1219fb641d5c,HCA TriStar Division,health_department,['home_health_care'],TX,McAllen,78503.0,1809 S Cynthia St,26.18472,-98.21928,meta,2025-06-02T07:00:00.000Z,0.5662921348314607,9c182dab-b39d-4c7f-9249-62bae2c4f8d5,,,,OpenStreetMap,2023-04-21T16:06:17.000Z,,mcallen,False
f5c1ed8e-84dd-4f7d-82d6-7e39072f4eae,HCA South Atlantic Division,hospital,"['doctor', 'medical_center']",GA,Savannah,31404.0,4700 Waters Ave,32.03095,-81.08803,meta,2025-06-02T07:00:00.000Z,0.4929396662387676,259f814b-9bf7-4b8b-8d65-50b3500a50c1,,,,OpenStreetMap,2023-09-19T20:57:08.000Z,,savannah,False
46da50d4-ddbd-44a3-a555-1e4c684de3d4,"Usa Health Hca Providence Hospital, Llc",hospital,"['blood_and_plasma_donation_center', 'physical_therapy']",AL,Mobile,36608.0,6801 Airport Blvd,30.6789122,-88.1987845,meta,2025-06-02T07:00:00.000Z,0.9784508333782836,00c843c4-2628-4ae3-be21-ffb7285fbf3b,Providence Hospital,medical,hospital,OpenStreetMap,2017-09-23T20:19:31.000Z,,mobile,False
dd6db041-8a73-4163-b7b9-0fc3dd5021ff,HCA Florida General and Weight Loss Surgery - South Pasadena,weight_loss_center,['health_and_medical'],FL,South Pasadena,33707.0,1609 Pasadena Ave S Ste 3M,27.752363,-82.7408285,Microsoft,2023-11-07T12:54:19.190Z,0.77,c14a3881-8972-4874-81f2-411c4245e096,,transportation,parking,OpenStreetMap,2021-10-18T18:52:13.000Z,,st-petersburg,False
b51a5074-2eeb-4953-bcf3-799ba5971fea,HCA Florida Pasadena Hospital Outpatient Rehabilitation Center,emergency_room,"['hospital', 'health_and_medical']",FL,St. Petersburg,33707.0,"1609 Pasadena Avenue, Suite 2E",27.752344010635863,-82.74080704232789,Microsoft,2025-04-26T06:42:49.173Z,0.77,c14a3881-8972-4874-81f2-411c4245e096,,transportation,parking,OpenStreetMap,2021-10-18T18:52:13.000Z,,st-petersburg,False
07dfbf16-f821-4bc8-a670-1ba3e58f3b9e,HCA Florida Heart Institute - South Pasadena,diagnostic_imaging,"['cardiologist', 'doctor', 'health_and_medical']",FL,Saint Petersburg,33707.0,1615 Pasadena Ave S Ste 300,27.7526527,-82.7413308,Microsoft,2025-05-20T19:02:19.833Z,0.77,8499ed12-58a3-4856-bcbb-a6b6a8921804,,medical,hospital,OpenStreetMap,2017-10-25T15:09:28.000Z,,st-petersburg,False
daae2cae-e681-448e-b9e4-26d07cfdd319,HCA Florida Pasadena Surgical Specialists,hospital,"['surgical_center', 'health_and_medical']",FL,South Pasadena,33707.0,"1609 Pasadena Ave S., 3M",27.7526527,-82.7413308,Microsoft,2025-05-20T19:02:19.833Z,0.77,8499ed12-58a3-4856-bcbb-a6b6a8921804,,medical,hospital,OpenStreetMap,2017-10-25T15:09:28.000Z,,st-petersburg,False
eaae31d1-9ad2-42c7-838c-8dede1b8908d,HCA Florida Pasadena Primary Care,doctor,"['hospital', 'health_and_medical']",FL,South Pasadena,33707.0,1615 Pasadena Ave S Ste 430,27.752794,-82.7412358,Microsoft,2025-04-25T16:52:48.637Z,0.77,8499ed12-58a3-4856-bcbb-a6b6a8921804,,medical,hospital,OpenStreetMap,2017-10-25T15:09:28.000Z,,st-petersburg,False
6559d6fd-1a3a-46f5-8b97-267b6b8dc553,HCA Florida Pasadena Surgical Specialists,hospital,"['surgical_center', 'health_and_medical']",FL,South Pasadena,33707.0,1609 Pasadena Ave S Unit 3M,27.7515405,-82.7404558,Microsoft,2025-04-25T16:52:52.323Z,0.77,,,,,,,,st-petersburg,False
cd023677-1a34-418c-b6cd-5679694701fc,HCA Florida Pasadena Hospital,hospital,"['emergency_room', 'surgical_center']",FL,South Pasadena,33707.0,1501 Pasadena Ave S,27.7525929,-82.7394521,meta,2025-06-02T07:00:00.000Z,0.9879256218304756,0f2dcb4f-35ea-465d-a098-6760a535aab6,,medical,hospital,OpenStreetMap,2017-10-25T15:09:29.000Z,,st-petersburg,False
cd023677-1a34-418c-b6cd-5679694701fc,HCA Florida Pasadena Hospital,hospital,"['emergency_room', 'surgical_center']",FL,South Pasadena,33707.0,1501 Pasadena Ave S,27.7525929,-82.7394521,meta,2025-06-02T07:00:00.000Z,0.9879256218304756,e51100f0-8839-412d-952f-09b08b6152b5,,medical,hospital,OpenStreetMap,2021-10-18T18:52:13.000Z,,st-petersburg,False
6b6e0a74-5414-453d-91b9-b9564948c400,HCA Florida Largo West Hospital,hospital,['health_and_medical'],FL,Largo,33774.0,2025 Indian Rocks Rd,27.898837,-82.825587,Microsoft,2025-04-25T16:32:38.830Z,0.77,,,,,,,,st-petersburg,False
58ce56a6-0193-40e9-ba27-8eb39a0bdd78,ER at HCA Florida Largo West Hospital,emergency_room,['health_and_medical'],FL,Largo,33774.0,2025 Indian Rocks Rd,27.8988725068648,-82.824313119573,Microsoft,2025-05-20T19:02:23.503Z,0.77,ee842af4-e67a-421d-9ce9-d8aaf2d38b57,,medical,hospital,OpenStreetMap,2022-03-29T22:27:43.000Z,,st-petersburg,False
ac04fc58-9174-46be-8808-b71ec4c4a37c,HCA Florida Advanced Cardiothoracic Surgery,doctor,"['hospital', 'health_and_medical']",FL,Largo,33770.0,1551 W Bay Dr,27.9155488,-82.8043284,meta,2025-06-02T07:00:00.000Z,0.9784508333782836,bb28bd25-1ef7-4517-b697-758d3a3ed577,,,,OpenStreetMap,2019-12-23T08:02:32.000Z,,st-petersburg,False
d4a76b3e-1f7a-4c72-b8ab-29607e148f7b,HCA Florida Thoracic Surgery - Largo,cardiovascular_and_thoracic_surgeon,"['cardiologist', 'surgeon', 'doctor', 'health_and_medical']",FL,Largo,33770.0,1551 W Bay Dr Ste 101-B,27.915376,-82.8042192,Microsoft,2025-05-20T19:02:33.507Z,0.77,bb28bd25-1ef7-4517-b697-758d3a3ed577,,,,OpenStreetMap,2019-12-23T08:02:32.000Z,,st-petersburg,False
70b56715-5e03-4eee-b6a5-5c718c5ff149,HCA Florida Largo Hospital,hospital,"['health_and_medical', 'emergency_room']",FL,Largo,33770.0,201 14th St SW,27.9141204,-82.8033883,meta,2025-06-02T07:00:00.000Z,0.9879256218304756,3da59cac-898c-47c6-9225-2006e18f015c,,,,OpenStreetMap,2024-04-13T09:20:55.000Z,,st-petersburg,False
7c17f72e-3f50-4820-bcb0-3c409e2802e6,HCA Florida Cardiac Surgical Specialists,surgical_center,"['medical_center', 'hospital']",FL,Largo,33770.0,1345 W Bay Dr,27.9162969,-82.8019202,meta,2025-06-02T07:00:00.000Z,0.9459263554653524,ed6d3636-9276-42d5-a529-8159a44c8fce,,,,OpenStreetMap,2017-09-09T02:18:33.000Z,,st-petersburg,False
bdf37d47-de9c-4ecd-a575-649957c9bae7,HCA Florida Advanced Cardiothoracic Surgery - Largo,surgeon,"['doctor', 'surgical_center', 'health_and_medical']",FL,Largo,33770.0,1551 W Bay Dr Ste 101-A,27.9163595,-82.8020122,Microsoft,2025-05-20T19:02:19.833Z,0.77,ed6d3636-9276-42d5-a529-8159a44c8fce,,,,OpenStreetMap,2017-09-09T02:18:33.000Z,,st-petersburg,False
cc16a3ad-ecf9-411b-b7c3-a6075430c294,HCA Florida Largo Orthopedic Specialists,orthopedist,"['doctor', 'health_and_medical']",FL,Largo,33770.0,1345 W Bay Dr Ste 301,27.9167638,-82.8020293,Microsoft,2025-04-25T16:33:25.557Z,0.77,,,,,,,,st-petersburg,False
4f6051d7-b87b-465f-9539-625c5e3901f7,HCA Florida Healthcare at Home - Clearwater,home_health_care,"['personal_care_service', 'health_and_medical']",FL,Clearwater,33759.0,380 Park Pl Blvd Ste 100,27.916985,-82.7992931,Microsoft,2023-09-20T00:03:10.663Z,0.77,428adc62-345a-4e15-8ff9-dd20aed4aa12,,,,OpenStreetMap,2017-09-09T21:11:48.000Z,,st-petersburg,False
f67a612e-8f43-4e1c-8da9-e014619d9ea0,HCA Florida St. Petersburg Hospital Emergency Room,emergency_room,['health_and_medical'],FL,St Petersburg,33710.0,6500 38th Ave N Fl 1,27.8056870206302,-82.727349271163,Microsoft,2025-05-20T19:02:19.833Z,0.77,a399fd8d-2f80-4211-ae70-4fb0ae3b4d2b,,medical,hospital,OpenStreetMap,2024-07-27T12:42:32.000Z,,st-petersburg,False
dc6a3291-0023-4c5f-a41b-298a09f447fd,HCA Florida St. Petersburg Hospital,hospital,"['emergency_room', 'health_and_medical']",FL,St Petersburg,33710.0,6500 38th Ave N,27.805648,-82.7262311,meta,2025-06-02T07:00:00.000Z,0.9784508333782836,a399fd8d-2f80-4211-ae70-4fb0ae3b4d2b,,medical,hospital,OpenStreetMap,2024-07-27T12:42:32.000Z,,st-petersburg,False
13649458-60f8-44e2-9c6b-6b2d241f60a1,HCA Florida St. Petersburg Colorectal Surgery,surgeon,"['doctor', 'hospital', 'health_and_medical']",FL,St. Petersburg,33709.0,6450 38th Ave N Ste 310,27.8057621,-82.7253987,Microsoft,2025-05-20T19:02:27.007Z,0.77,a399fd8d-2f80-4211-ae70-4fb0ae3b4d2b,,medical,hospital,OpenStreetMap,2024-07-27T12:42:32.000Z,,st-petersburg,False
ca296b90-5eeb-4131-a935-321cf9e4772d,HCA Florida Breast Care Surgical Specialists,hospital,"['health_and_medical', 'surgeon']",FL,St Petersburg,33710.0,6450 38th Ave N,27.8058458,-82.7253671,meta,2025-06-02T07:00:00.000Z,0.9784508333782836,a399fd8d-2f80-4211-ae70-4fb0ae3b4d2b,,medical,hospital,OpenStreetMap,2024-07-27T12:42:32.000Z,,st-petersburg,False
3adbde35-e786-413e-abd1-01c8a5d84a75,Hca,health_and_medical,"['bar', 'business']",FL,St Petersburg,33710.0,6300 38th Ave N,27.806119,-82.722623,meta,2025-06-02T07:00:00.000Z,0.3961437335670464,190e7d67-967e-4911-9efb-4e171a9e098b,,,,OpenStreetMap,2017-09-09T02:40:01.000Z,,st-petersburg,False
f2522321-076b-41ef-a4f7-0455ad254c6c,Hca Florida Northside Hospital,hospital,"['health_and_medical', 'medical_service_organizations']",FL,St Petersburg,33709.0,6000 49th St N,27.8257926,-82.7023401,meta,2025-06-02T07:00:00.000Z,0.9879256218304756,ce425ea7-c515-4186-96d1-4491c95378ef,Northside Hospital,medical,hospital,OpenStreetMap,2025-03-11T19:05:08.000Z,,st-petersburg,False
369a89bc-18ff-4627-9747-5ee84700f656,HCA Florida Pasadena Surgical Specialists - 49th Street North,surgical_center,['health_and_medical'],FL,St Petersburg,33709.0,6006 49th St N Ste 310,27.8264008,-82.7011579,Microsoft,2023-11-07T13:04:29.363Z,0.77,a127291d-2957-46fd-8be1-9a86d1c99561,,medical,hospital,OpenStreetMap,2017-09-12T14:53:35.000Z,,st-petersburg,False
d0f39f88-9191-47f9-b725-7dbb1b134cab,HCA Florida Cardiac Surgical Specialists - Northside,surgical_center,['health_and_medical'],FL,St. Petersburg,33709.0,6006 49th St N Ste 310,27.826571,-82.7009849,Microsoft,2022-10-03T15:50:00.183Z,0.77,a127291d-2957-46fd-8be1-9a86d1c99561,,medical,hospital,OpenStreetMap,2017-09-12T14:53:35.000Z,,st-petersburg,False
0f6c6e59-bc0b-4e5c-a11b-c6af06807c03,HCA Florida Heart Institute - Northside,diagnostic_imaging,"['cardiologist', 'doctor', 'hospital', 'medical_center', 'health_and_medical']",FL,St. Petersburg,33709.0,6006 49th St N Ste 200,27.826571,-82.7009849,Microsoft,2025-04-25T16:55:28.117Z,0.77,a127291d-2957-46fd-8be1-9a86d1c99561,,medical,hospital,OpenStreetMap,2017-09-12T14:53:35.000Z,,st-petersburg,False
cddfe9bc-977e-4c1b-b561-d4d1d4560444,HCA Florida Northside Surgical Specialists,surgical_center,['health_and_medical'],FL,St Petersburg,33709.0,"6006 49th St N, Ste 310-B",27.826571,-82.7009849,Microsoft,2025-04-25T16:53:35.483Z,0.77,a127291d-2957-46fd-8be1-9a86d1c99561,,medical,hospital,OpenStreetMap,2017-09-12T14:53:35.000Z,,st-petersburg,False
f73c9b73-4dc5-4f42-bd58-ce02c1fd53a9,HCA Florida Clearwater Emergency,emergency_medicine,"['doctor', 'emergency_service', 'health_and_medical']",FL,Clearwater,33765.0,2339 Gulf To Bay Blvd,27.9604565,-82.7413836,Microsoft,2025-04-25T16:17:43.403Z,0.77,,,,,,,,st-petersburg,False
99aa7f33-dfd0-4ac0-89ba-fe02e1411470,HCA Florida Healthcare at Home - Clearwater,home_health_care,"['personal_care_service', 'health_and_medical']",FL,Clearwater,33759.0,380 Park Pl Blvd Ste 100,27.9639002,-82.7275883,Microsoft,2024-04-06T07:09:34.670Z,0.77,4f27648d-c8c5-4b7e-ab3e-092e08d32c26,,,,OpenStreetMap,2017-09-19T05:29:46.000Z,,st-petersburg,False
50f2058f-e5e0-48d8-9f6e-d3e1712008e2,Hca the Healthcare Company,hospital,"['health_and_medical', 'real_estate_agent']",FL,Palm Harbor,34684.0,31975 US-19 N,28.061638,-82.737957,meta,2025-06-02T07:00:00.000Z,0.3376623376623376,55336d2e-6d6f-41b7-ad65-3cf887f98891,,,,OpenStreetMap,2022-10-18T14:43:57.000Z,,st-petersburg,True
82bde583-3653-4a40-9ac8-1e93fd04f9ac,HCA Florida Lake Tarpon Emergency,emergency_medicine,"['doctor', 'emergency_room', 'health_and_medical']",FL,Palm Harbor,34684.0,35750 US 19 N,28.097645,-82.7398098,Microsoft,2025-04-25T16:22:28.810Z,0.77,,,,,,,,st-petersburg,False
47d249c2-43ff-435b-b9c3-c6e30d63f70a,HCA Florida Surgical Specialists - Palm Harbor,hospital,"['surgical_center', 'health_and_medical']",FL,Palm Harbor,34685.0,3488 E Lake Rd Ste 403,28.062686,-82.705046,Microsoft,2024-08-01T14:06:50.133Z,0.77,080175a2-e31e-438b-a342-4a3a4163815c,Eastlake Professional Center,,,OpenStreetMap,2020-07-16T18:02:18.000Z,,st-petersburg,False
c483efa5-6d9c-4532-954a-42bf937f8d17,HCA Florida Trinity Breast Care and Surgery,hospital,"['womens_health_clinic', 'health_and_medical']",FL,Trinity,34655.0,9332 State Road 54 Ste 400,28.19535777,-82.64175256,Microsoft,2025-04-25T16:55:38.570Z,0.77,,,,,,,,st-petersburg,False
19018378-ccd2-45c9-b6e4-221600ecc1b4,Wound Care and Hyperbaric Medicine at HCA Florida Trinity Hospital,medical_center,"['public_health_clinic', 'health_and_medical']",FL,Trinity,34655.0,"9332 State Road 54, Ste 302",28.19758713,-82.64437292,Microsoft,2025-04-25T16:55:39.197Z,0.77,,,,,,,,st-petersburg,False
aa744a2b-01b8-48d9-96ee-64c72309e6b4,Rehabilitation Services at HCA Florida Trinity Hospital,doctor,['health_and_medical'],FL,Trinity,34655.0,"9332 State Road 54, Ste 302",28.19758713,-82.64437292,Microsoft,2025-04-25T16:55:54.217Z,0.77,,,,,,,,st-petersburg,False
ef8998bd-49da-4386-9ba2-f1acb19119cc,HCA Florida Surgical Specialists - Trinity,hospital,"['surgical_center', 'health_and_medical']",FL,Trinity,34655.0,"9332 State Road 54, Ste 303",28.19758713,-82.64437292,Microsoft,2025-04-25T16:55:43.377Z,0.77,,,,,,,,st-petersburg,False
9eb30324-04ef-4291-8a07-53bb9dce95dd,HCA Florida Trinity Hospital Emergency Room,hospital,"['emergency_room', 'ambulance_and_ems_services']",FL,New Port Richey,34655.0,9330 State Road 54,28.2032566,-82.6599581,meta,2025-06-02T07:00:00.000Z,0.9415384615384615,b48e70bc-42b0-4177-a7ad-56897a46c987,,medical,hospital,OpenStreetMap,2022-10-02T20:17:07.000Z,,st-petersburg,False
05927d0d-e4c9-453c-82f0-092f4ff3570e,HCA Florida Cardiac Surgical Specialists - Trinity,cardiologist,"['doctor', 'health_and_medical']",FL,Trinity,34655.0,"9332 FL-54, Ste 209",28.2038776,-82.6596617,Microsoft,2023-06-27T12:43:43.740Z,0.77,b48e70bc-42b0-4177-a7ad-56897a46c987,,medical,hospital,OpenStreetMap,2022-10-02T20:17:07.000Z,,st-petersburg,False
7f85ae85-6c3d-4927-b2fd-ff772ec875fd,Wound Care and Hyperbaric Medicine at HCA Florida Trinity Hospital,medical_center,"['public_health_clinic', 'health_and_medical']",FL,Trinity,34655.0,9332 State Road 54 Ste 302,28.204316,-82.659724,Microsoft,2025-05-20T19:02:19.833Z,0.77,bfe51628-ff3e-47b9-8326-8f0685677f25,,,,OpenStreetMap,2022-10-02T20:17:07.000Z,,st-petersburg,False
cac22f59-90fd-4552-abbd-c2945fd3f9eb,HCA Florida Trinity Breast Care and Surgery,hospital,"['womens_health_clinic', 'health_and_medical']",FL,Trinity,34655.0,9332 State Road 54 Ste 400,28.2043923,-82.6597102,Microsoft,2025-05-20T19:02:19.833Z,0.77,bfe51628-ff3e-47b9-8326-8f0685677f25,,,,OpenStreetMap,2022-10-02T20:17:07.000Z,,st-petersburg,False
26c207fc-704c-4ae5-bafa-9cedb7a5e131,Women's Imaging Center at HCA Florida Trinity Hospital,diagnostic_imaging,['health_and_medical'],FL,Trinity,34655.0,9332 State Road 54 Ste 401,28.2043923,-82.6597102,Microsoft,2025-05-20T19:02:19.833Z,0.77,bfe51628-ff3e-47b9-8326-8f0685677f25,,,,OpenStreetMap,2022-10-02T20:17:07.000Z,,st-petersburg,False
c00a8d7f-9de3-4401-8d42-20933524d4a6,HCA Florida Maternal Fetal Medicine,maternity_centers,['health_and_medical'],FL,Trinity,34655.0,"9332 State Road 54, Ste 407",28.204379,-82.659608,Microsoft,2024-04-13T16:35:27.567Z,0.77,bfe51628-ff3e-47b9-8326-8f0685677f25,,,,OpenStreetMap,2022-10-02T20:17:07.000Z,,st-petersburg,False
1a5fc09f-a904-4809-a275-76f14d4953fd,HCA Florida Surgical Specialists,doctor,"['medical_center', 'surgical_center']",FL,New Port Richey,34655.0,9332 State Road 54,28.204516,-82.6596476,meta,2025-06-02T07:00:00.000Z,0.9784508333782836,bfe51628-ff3e-47b9-8326-8f0685677f25,,,,OpenStreetMap,2022-10-02T20:17:07.000Z,,st-petersburg,False
780c50db-04c0-40ec-8f5a-dcc722882ecc,HCA Florida Thoracic Surgery - Trinity,hospital,"['surgical_center', 'health_and_medical']",FL,Trinity,34655.0,"9332 State Route 54, Ste 405",28.2046544,-82.659633,Microsoft,2025-04-25T16:55:40.223Z,0.77,89167919-bfe0-4d13-bfd2-cecda82f7019,,outbuilding,roof,OpenStreetMap,2022-10-02T20:17:07.000Z,,st-petersburg,False
eba640e7-40df-460b-b55b-ff98ca97a332,Women's Imaging Center at HCA Florida Trinity Hospital,diagnostic_imaging,['health_and_medical'],FL,Trinity,34655.0,"9332 State Road 54, Ste 401",28.19437,-82.6390535,Microsoft,2025-04-25T16:55:39.720Z,0.77,,,,,,,,st-petersburg,False
687d235e-9820-43b2-94b6-fce9d07f34b8,"HCA Florida Trinity West Hospital, A part of HCA Florida Trinity Hospital",health_and_medical,,FL,New Port Richey,34652.0,5637 Marine Pkwy,28.234679,-82.720642,Microsoft,2024-03-09T20:07:33.497Z,0.77,,,,,,,,st-petersburg,False
65952d27-4122-475d-a81f-9c8ca84e9ea4,HCA Florida Healthcare at Home - Port Richey,home_health_care,"['personal_care_service', 'health_and_medical']",FL,Port Richey,34668.0,6709 Ridge Rd Ste 208,28.2767071,-82.7191275,Microsoft,2025-05-20T19:02:31.203Z,0.77,22f43507-ff64-4167-a356-547bc6b028ea,,,,OpenStreetMap,2021-11-22T23:00:57.000Z,,st-petersburg,False
abb4c91a-92bf-46a4-b2e3-0632c1c7430d,HCA Florida Healthcare at Home - Port Richey,home_health_care,"['personal_care_service', 'health_and_medical']",FL,Port Richey,34668.0,6709 Ridge Rd Ste 208,28.280899,-82.70392,Microsoft,2024-04-06T07:09:34.670Z,0.77,baa288a1-2ca8-444b-859d-3b4e09e3e630,,,,OpenStreetMap,2022-01-25T19:48:04.000Z,,st-petersburg,False
a5ea2cc9-a784-49c0-8010-f6bef1d59632,HCA Florida Behavioral Health Specialists - Trinity,health_and_medical,,FL,Trinity,34655.0,9332 State Road 54 Ste 400,28.3595718,-82.6900179,Microsoft,2023-11-02T13:43:26.723Z,0.77,538eba86-ee81-4638-bf36-84e1eb613f86,,,,OpenStreetMap,2020-07-28T19:39:48.000Z,,st-petersburg,False
7a397228-07f5-4418-9ae8-f1436fb8e436,HCA Florida Bayonet Point Internal Medicine,internal_medicine,"['doctor', 'health_and_medical']",FL,Hudson,34667.0,13740 Office Park Ct Ste B,28.3575348,-82.6883552,Microsoft,2025-04-25T16:16:41.067Z,0.77,,,,,,,,st-petersburg,False
8d52fcb6-7997-41f3-911a-2a4afc3baca4,HCA Florida Bayonet Point Internal Medicine,internal_medicine,"['doctor', 'health_and_medical']",FL,Hudson,34667.0,13740 Office Park Ct Ste B,28.3577806,-82.6879691,Microsoft,2025-05-20T19:02:31.203Z,0.77,770ea2f0-86c3-4219-9a2e-05384d08a26b,Fivay Professional Center,medical,,OpenStreetMap,2020-07-28T19:39:48.000Z,,st-petersburg,False
297d7bf1-8b72-42cb-b563-c42bcc12cd71,The Heart Institute at HCA Florida Bayonet Point Hospital,cardiologist,"['doctor', 'health_and_medical']",FL,Hudson,34667.0,14000 Fivay Rd,28.36128,-82.688977,Microsoft,2024-12-13T10:44:21.863Z,0.77,ddd30294-1c2b-41d5-be63-077decb9e41f,,medical,hospital,OpenStreetMap,2022-05-10T15:25:12.000Z,,st-petersburg,False
355630bd-ae15-462e-ba4f-caff7ebdb2ee,HCA Florida Bayonet Point Hospital,emergency_room,"['hospital', 'health_and_medical']",FL,Hudson,34667.0,14000 Fivay Rd,28.3613145,-82.6890326,Microsoft,2025-05-20T19:02:19.833Z,0.77,ddd30294-1c2b-41d5-be63-077decb9e41f,,medical,hospital,OpenStreetMap,2022-05-10T15:25:12.000Z,,st-petersburg,False
720e4a60-d40f-4ffa-a88b-dfaea4bb773f,HCA Florida Bayonet Point Hospital,hospital,"['doctor', 'medical_service_organizations']",FL,Hudson,34667.0,14000 Fivay Rd,28.3614892,-82.6883025,meta,2025-06-02T07:00:00.000Z,0.9784508333782836,ddd30294-1c2b-41d5-be63-077decb9e41f,,medical,hospital,OpenStreetMap,2022-05-10T15:25:12.000Z,,st-petersburg,False
4a009094-0566-4bb4-9d6c-be2958741d5a,HCA Florida Surgical Specialists - Hudson,cardiologist,"['surgeon', 'vascular_medicine', 'doctor', 'surgical_center', 'health_and_medical']",FL,Hudson,34667.0,14100 Fivay Rd Ste 300,28.3619752,-82.6875786,Microsoft,2025-05-20T19:02:31.203Z,0.77,7b53fca0-a4a9-484d-9c61-f46f0c2cba20,Bayonet Point Medical Plaza,medical,,OpenStreetMap,2021-01-12T18:50:00.000Z,,st-petersburg,False
e15d7679-6bc6-4d30-9848-112a9be0dc66,HCA Florida Cardiac Surgical Specialists - Fivay Road Hudson,cardiovascular_and_thoracic_surgeon,"['cardiologist', 'surgeon', 'doctor', 'health_and_medical']",FL,Hudson,34667.0,14100 Fivay Rd Ste 300,28.3619752,-82.6875786,Microsoft,2025-05-20T19:02:29.520Z,0.77,7b53fca0-a4a9-484d-9c61-f46f0c2cba20,Bayonet Point Medical Plaza,medical,,OpenStreetMap,2021-01-12T18:50:00.000Z,,st-petersburg,False
c0c85580-2b7e-4b7e-b08d-73f50595668d,HCA Florida Bayonet Point Palliative Care,doctor,"['hospital', 'health_and_medical']",FL,Hudson,34667.0,14100 Fivay Rd Ste 340,28.3622541,-82.6875853,Microsoft,2025-04-25T16:16:26.893Z,0.77,,,,,,,,st-petersburg,False
396f2b85-20a1-43f0-a434-3d9c367fed61,HCA Houston ER 24/7 - Mission Bend,emergency_room,"['hospital', 'urgent_care_clinic', 'health_and_medical']",TX,Houston,77083.0,8910 Highway 6 S,29.681633,-95.6436862,Microsoft,2025-04-25T16:14:45.430Z,0.77,,,,,,,,houston,False
d2280988-4b43-4019-a9dc-e8339aed325d,HCA Houston ER 24/7,emergency_room,"['ambulance_and_ems_services', 'hospital']",TX,Cypress,77433.0,9645 Barker Cypress Rd,29.9176561,-95.6867685,meta,2025-06-02T07:00:00.000Z,0.9415384615384615,0ae392a5-ddfe-411c-82c2-38ce08bdc94c,Blades Wellness and Aesthetics - Dr. Carrie Blades,,,OpenStreetMap,2022-06-20T01:07:17.000Z,,houston,False
81f7bf50-583a-415b-a4c6-3dc2753984fc,HCA North Cypress Radiation Oncology,oncologist,"['hospital', 'doctor']",TX,Cypress,77429.0,21216 Northwest Fwy,29.9256551,-95.6327488,meta,2025-06-02T07:00:00.000Z,0.9784508333782836,ed7a11cc-1d5f-4c1e-b5c9-182a05997748,,medical,hospital,OpenStreetMap,2023-07-12T18:43:29.000Z,,houston,False
21444dd2-1678-4029-a897-81a3ecb55a93,Emergency Room at HCA Houston North Cypress,emergency_room,['health_and_medical'],TX,Cypress,77429.0,21214 Northwest Fwy,29.9257621,-95.6315018,Microsoft,2025-05-20T19:02:23.503Z,0.77,ed7a11cc-1d5f-4c1e-b5c9-182a05997748,,medical,hospital,OpenStreetMap,2023-07-12T18:43:29.000Z,,houston,False
2669bf97-eb55-40a4-96ac-dacf3f30bd9a,HCA Houston Healthcare North Cypress,hospital,"['health_and_medical', 'medical_service_organizations']",TX,Cypress,77429.0,21214 Northwest Fwy,29.9260731,-95.6311039,meta,2025-06-02T07:00:00.000Z,0.9784508333782836,ed7a11cc-1d5f-4c1e-b5c9-182a05997748,,medical,hospital,OpenStreetMap,2023-07-12T18:43:29.000Z,,houston,False
5d076c02-e431-4cd5-b89b-665dfd79028b,HCA Houston North Cypress Outpatient Rehab - Main Campus,hospital,['health_and_medical'],TX,Cypress,77429.0,"21208 NW Freeway, Ste 105",29.9239949,-95.6296082,Microsoft,2025-02-27T01:33:49.940Z,0.77,,,,,,,,houston,True
fb8ac6aa-3926-4920-9d3a-3adcb29ac242,HCA Houston ER 24/7 - Fry Road,emergency_room,"['hospital', 'ambulance_and_ems_services']",TX,Cypress,77429.0,26271 Northwest Fwy,29.973368,-95.7013161,meta,2025-06-02T07:00:00.000Z,0.9784508333782836,e25e4960-7d1d-44cc-9b57-e58ed40a0d8c,,,,OpenStreetMap,2021-06-05T00:05:22.000Z,,houston,False
84c48a0d-da44-4121-9efb-e76a6231a953,HCA Houston ER 24/7,emergency_medicine,"['doctor', 'hospital', 'health_and_medical']",TX,Magnolia,77354.0,18230 Fm 1488 Rd,30.218438,-95.746108,Microsoft,2022-05-31T16:53:47.687Z,0.77,a3183c1c-e86a-47ed-981f-047cd92bdaf8,,,,OpenStreetMap,2018-06-17T21:11:00.000Z,,houston,False
93c187ab-71cd-4d3a-a8a4-98f5432426f3,HCA Houston ER 24/7 - Friendswood,emergency_room,['health_and_medical'],TX,Friendswood,77546.0,225 E Parkwood Ave,29.5110573,-95.1864008,Microsoft,2025-04-25T16:09:41.653Z,0.77,,,,,,,,houston,False
c8074ea3-7ea0-4624-9a40-eba2f90bb3af,HCA Houston ER 24/7 - Fort Bend Parkway,emergency_room,['health_and_medical'],TX,Houston,77085.0,14476 Hillcroft Ave,29.6156191,-95.4938621,Microsoft,2025-05-20T19:02:31.203Z,0.77,,,,,,,,houston,False
cc1364d4-e684-4c28-a7f6-6732ca0ad50b,HCA Houston ER 24/7 - Fort Bend Parkway,emergency_room,['health_and_medical'],TX,Houston,77085.0,14476 Hillcroft Ave,29.6166202,-95.4928661,Microsoft,2025-04-25T16:15:01.343Z,0.77,,,,,,,,houston,False
4dc14866-fd70-4462-a7d7-bef2dfacaafb,Hca Health Care,hospital,"['health_and_medical', 'pharmacy']",TX,Sugar Land,77478.0,12610 W Airport Blvd,29.648278,-95.603226,meta,2025-06-02T07:00:00.000Z,0.4929396662387676,d48b1637-7c89-4ae5-8e5e-8150625d4ef8,,industrial,industrial,OpenStreetMap,2014-06-03T01:57:09.000Z,,houston,False
0c776c5e-a67b-4f9b-ba30-f2b119127889,HCA Houston ER 24/7 - Stafford,emergency_room,['health_and_medical'],TX,Stafford,77477.0,3531 S Main St,29.619343,-95.5658096,Microsoft,2025-04-25T16:55:47.540Z,0.77,,,,,,,,houston,False
544ad880-d8dc-4346-9b2e-391c579ea2c0,HCA Patient Account Services,hospital,"['accountant', 'health_and_medical']",TX,Houston,77072.0,8101 W Sam Houston Pkwy S,29.6919054,-95.5560573,meta,2025-06-02T07:00:00.000Z,0.9459263554653524,8a61a86b-4811-47e0-abb3-b89ba586749d,,,,OpenStreetMap,2017-09-05T01:00:16.000Z,,houston,False
d7f818b1-6ce4-46e0-8ca1-72c792a0a378,HCA Healthcare Center for Clinical Advancement,school,['elementary_school'],TX,Pearland,77584.0,11200 Broadway St,29.5532148,-95.39531,meta,2025-06-02T07:00:00.000Z,0.9459263554653524,08b8b24e-37c5-4051-acdd-99da8b0e3f39,,,,OpenStreetMap,2023-01-12T04:24:44.000Z,,houston,False
097b9d74-ea51-48c1-9ce4-ab7bfd475f11,HCA Houston Healthcare Pearland,hospital,"['medical_center', 'health_and_medical']",TX,Pearland,77584.0,11100 Shadow Creek Pkwy,29.5772333,-95.390408,Microsoft,2025-05-20T19:02:15.690Z,0.77,,,,,,,,houston,False
03773f50-f061-45f4-ad67-220d790920d3,"Solis Mammography, a department of HCA Houston Healthcare Pearland",diagnostic_imaging,"['ultrasound_imaging_center', 'health_and_medical']",TX,Pearland,77584.0,10970 Shadow Creek Pkwy Ste 190,29.577218321253,-95.3888511193606,Microsoft,2020-05-13T22:47:33.553Z,0.77,f2443e0c-2ecb-4b7f-bbc3-47ca691d15c3,,,,OpenStreetMap,2022-08-11T05:51:21.000Z,,houston,False
42624b1d-82a2-46fe-899b-bdf900448f53,Emergency Room at HCA Houston Pearland,hospital,"['health_and_medical', 'doctor']",TX,Pearland,77584.0,11100 Shadow Creek Pkwy,29.5777813,-95.389981,meta,2025-06-02T07:00:00.000Z,0.9784508333782836,652997d2-1cc5-4110-a4bb-513b1942e565,Pearland Medical Center,,,OpenStreetMap,2020-05-26T17:46:44.000Z,,houston,False
1e236822-8fc3-4b8b-83f9-53a0bc2534d9,HCA Fitness Center,gym,"['active_life', 'sports_and_recreation_venue']",TX,Houston,77054.0,7400 Fannin St,29.694495,-95.401194,meta,2025-06-02T07:00:00.000Z,0.4929396662387676,957e8bb5-5be3-4f48-93c0-4768437b8ca3,One Fannin Professional Building,,,OpenStreetMap,2024-11-11T05:59:55.000Z,,houston,False
1f5430ab-e3ff-4379-a687-55f60ae2e2a3,HCA Gulf Coast Careers,hospital,"['health_and_medical', 'nurse_practitioner']",TX,Houston,77054.0,7400 Fannin St,29.6946,-95.40115,meta,2025-06-02T07:00:00.000Z,0.3376623376623376,957e8bb5-5be3-4f48-93c0-4768437b8ca3,One Fannin Professional Building,,,OpenStreetMap,2024-11-11T05:59:55.000Z,,houston,False
cb1e1120-9f9d-4bf9-8ddf-6367f4148bce,HCA Houston Healthcare West,hospital,"['physical_therapy', 'health_and_medical']",TX,Houston,77082.0,12141 Richmond Ave,29.7281633,-95.5938955,meta,2025-06-02T07:00:00.000Z,0.9784508333782836,,,,,,,,houston,False
89e952f4-f3eb-4431-b900-ad772f149cc4,Emergency Room at HCA Houston West,emergency_room,['health_and_medical'],TX,Houston,77082.0,12141 Richmond Aveneue,29.7294486,-95.5947219,Microsoft,2025-05-20T19:02:23.503Z,0.77,455d0fa6-1fda-4dcb-8302-9aebd35852ed,,medical,hospital,OpenStreetMap,2018-08-30T15:35:01.000Z,,houston,False
b31f6c40-c3c0-4565-a01d-beb5e93e2070,HCA Houston ER 24/7 - Westchase,emergency_room,['health_and_medical'],TX,Houston,77042.0,11103 Westheimer Rd,29.7366736,-95.5721578,Microsoft,2025-04-25T16:14:44.850Z,0.77,,,,,,,,houston,False
1eee28a7-c653-4235-a61b-af750ee62fba,HCA Houston ER 24/7 - Bellaire,emergency_room,['health_and_medical'],TX,Houston,77081.0,5413 S Rice Ave,29.7232407,-95.4681505,Microsoft,2025-04-25T16:15:00.767Z,0.77,,,,,,,,houston,False
53c12684-3796-4daf-a7ae-880482fb6b3b,HCA Houston ER 24/7 - Memorial City,emergency_room,"['emergency_service', 'health_and_medical']",TX,Houston,77055.0,1014 Wirt Rd Ste 200,29.7853536,-95.4832845,Microsoft,2025-04-25T16:14:53.050Z,0.77,,,,,,,,houston,False
fc729d10-0b4e-4e78-bb3d-6023216320b4,HCA Gulf Coast Division,hospital,"['commercial_real_estate', 'corporate_office', 'health_and_medical', 'private_establishments_and_corporates']",TX,Houston,77098.0,"3737 Buffalo Speedway, Ste 1400",29.73286,-95.4288225,Microsoft,2025-04-25T16:37:24.663Z,0.77,,,,,,,,houston,True
6575fa9e-39e4-44c2-b53d-cf50d2b3caf1,HCA Houston Healthcare,hospital,"['medical_service_organizations', 'health_and_medical']",,,0.0,,29.7330805,-95.4283453,meta,2025-06-02T07:00:00.000Z,0.9688311688311688,985edec4-2849-49ef-9780-0dd34ba6002a,,,,OpenStreetMap,2024-04-25T20:54:09.000Z,,houston,False
6fc17cfa-fae2-4f91-be1f-bd99276ff3b7,HCA Houston Gastroenterology,gastroenterologist,"['doctor', 'health_and_medical']",TX,Houston,77004.0,1213 Hermann Dr Ste 278,29.7228576,-95.3888461,Microsoft,2025-04-25T16:37:55.297Z,0.77,,,,,,,,houston,False
24fc9ad8-df1c-44cb-9b28-c1d41be347ab,HCA Houston Brain & Spine - Med Center,medical_center,['health_and_medical'],TX,Houston,77004.0,1213 Hermann Dr Ste 278,29.7228576,-95.3888461,Microsoft,2025-04-25T16:13:59.747Z,0.77,,,,,,,,houston,False
d764f487-042d-422d-980e-8e26cebb3d56,HCA Houston Healthcare Medical Center,hospital,"['medical_service_organizations', 'health_and_medical']",TX,Houston,77004.0,1313 Hermann Dr,29.7227157,-95.3877125,meta,2025-06-02T07:00:00.000Z,0.9784508333782836,15f7d9db-474c-475b-a7fc-11c1e238ee03,,,,OpenStreetMap,2016-06-17T02:43:40.000Z,,houston,False
4fd7a549-24b6-4c99-9c61-d2272ae521b8,HCA Houston Brain & Spine - Med Center,medical_center,['health_and_medical'],TX,Houston,77004.0,1213 Hermann Dr Ste 278,29.7230421,-95.3884747,Microsoft,2025-05-20T19:02:23.503Z,0.77,2d6006a8-89cc-4ca6-82e8-636f021ce0e4,,commercial,commercial,OpenStreetMap,2024-12-22T16:05:14.000Z,,houston,False
2309e758-54ba-47b4-8d7f-a4a0d051dc91,HCA Houston Gastroenterology,gastroenterologist,"['doctor', 'health_and_medical']",TX,Houston,77004.0,1213 Hermann Dr Ste 278,29.723971,-95.3878203,Microsoft,2025-05-20T19:02:19.833Z,0.77,,,,,,,,houston,False
05d1b3c8-e8ce-418c-b69c-15e30805a51a,HCA Houston ER 24/7 - Montrose,emergency_room,['health_and_medical'],TX,Houston,77006.0,3209 Montrose Blvd,29.7442015,-95.3912023,Microsoft,2025-04-25T16:14:53.633Z,0.77,,,,,,,,houston,False
65685aff-13a7-479a-82fe-e0644c6cc822,HCA Houston ER 24/7 - Heights,emergency_room,['health_and_medical'],TX,Houston,77008.0,1925 E Tc Jester,29.801354,-95.4251192,Microsoft,2025-04-25T16:14:52.497Z,0.77,,,,,,,,houston,False
bbd0539a-67e2-423e-aff2-eec9cd709d85,HCA Houston ER 24/7 Pearland,hospital,['emergency_room'],TX,Pearland,77581.0,2906 Broadway St,29.5566215,-95.2662284,meta,2025-06-02T07:00:00.000Z,0.909823677581864,60b1965b-5d23-441d-abbf-1b6c8838a4ab,,,,Microsoft ML Buildings,2022-03-25T00:00:00.000Z,,houston,False
cbf67346-5a4c-41da-9998-4cbfa3035f14,Hca,hospital,['lake'],TX,Webster,77598.0,502 W Medical Center Blvd,29.5406296,-95.1284395,meta,2025-06-02T07:00:00.000Z,0.3961437335670464,ec146b9f-6422-4cd9-b82b-dff4719f78b5,HCA Houston Healthcare: Clear Lake,medical,hospital,OpenStreetMap,2023-09-11T22:48:35.000Z,,houston,False
f45e1b6a-c29f-460a-bfb3-93976dc96ca2,HCA Houston Healthcare Clear Lake,hospital,"['professional_services', 'emergency_room']",TX,Webster,77598.0,500 W Medical Center Blvd,29.5409979,-95.1280227,meta,2025-06-02T07:00:00.000Z,0.9784508333782836,ec146b9f-6422-4cd9-b82b-dff4719f78b5,HCA Houston Healthcare: Clear Lake,medical,hospital,OpenStreetMap,2023-09-11T22:48:35.000Z,,houston,False
ad7c90fb-3bd9-4fa9-8371-d462097d94bc,The Heart Hospital at HCA Houston Clear Lake,cardiologist,"['doctor', 'health_and_medical']",TX,Webster,77598.0,495 Medical Center Blvd,29.5404113,-95.1269313,Microsoft,2025-04-25T16:57:08.920Z,0.77,,,,,,,,houston,False
387f2e43-66bc-48a1-8bb3-d5de640e592b,HCA Houston Brain & Spine - Clear Lake,neurologist,"['doctor', 'health_and_medical']",TX,Webster,77598.0,450 Medical Center Blvd Ste 420,29.541258,-95.1260116,Microsoft,2025-04-25T16:57:17.280Z,0.77,,,,,,,,houston,False
156b91c5-fd5c-4d1b-8889-a8124b50201a,Advanced Wound Treatment Center at HCA Houston Clear Lake,medical_center,"['public_health_clinic', 'health_and_medical']",TX,Webster,77598.0,450 W Medical Center Blvd Ste 305,29.541258,-95.1260116,Microsoft,2025-04-25T16:57:09.907Z,0.77,,,,,,,,houston,False
f183afe6-7cad-4369-99f6-5dad45a3d093,Advanced Wound Treatment Center at HCA Houston Clear Lake,medical_center,"['public_health_clinic', 'health_and_medical']",TX,Webster,77598.0,450 W Medical Center Blvd Ste 305,29.545958,-95.12802,Microsoft,2025-05-20T19:02:15.690Z,0.77,c48c2930-bb36-4b8e-9d18-2f9e091c200c,,,,OpenStreetMap,2021-04-05T18:50:34.000Z,,houston,False
948043f5-8c5b-41b7-b2f4-807f7e6f3528,HCA Houston Rehabilitation Hospital Southeast,rehabilitation_center,['health_and_medical'],TX,Pasadena,77505.0,4801 E Sam Houston Pkwy,29.6380022,-95.1608633,Microsoft,2025-04-25T16:40:36.080Z,0.77,,,,,,,,houston,False
10856ad7-5ba5-4896-8805-80f62206a017,Emergency Room at HCA Houston Southeast,emergency_room,['health_and_medical'],TX,Pasadena,77504.0,4000 Spencer Hwy,29.6608337,-95.1835358,Microsoft,2025-05-20T19:02:15.690Z,0.77,13aef18a-e199-4f69-a6c6-423d91af8976,,medical,hospital,OpenStreetMap,2019-06-30T18:12:06.000Z,,houston,False
b2da38d1-da73-40b8-97c9-54a2f5d54a21,HCA Houston Healthcare Southeast,hospital,"['health_and_medical', 'emergency_room']",TX,Pasadena,77504.0,4000 Spencer Hwy,29.6616248,-95.1839992,meta,2025-06-02T07:00:00.000Z,0.9784508333782836,13aef18a-e199-4f69-a6c6-423d91af8976,,medical,hospital,OpenStreetMap,2019-06-30T18:12:06.000Z,,houston,False
f91bceea-c029-4469-989b-26564b5ace33,HCA Houston ER,hospital,"['emergency_room', 'laboratory_testing']",TX,Pasadena,77505.0,6002 Fairmont Pkwy,29.6491643,-95.1480464,meta,2025-06-02T07:00:00.000Z,0.9784508333782836,,,,,,,,houston,False
90183a99-eec6-40ab-8e9b-cc97a913ea2e,Imaging Center at HCA Houston ER 24/7,diagnostic_imaging,['health_and_medical'],TX,Pasadena,77505.0,6002 Fairmont Pkwy,29.6494694,-95.1479879,Microsoft,2025-05-20T19:02:15.690Z,0.77,,,,,,,,houston,False
be82388e-0b5e-4421-b2c0-2a6b7850449f,Hca Houston,hospital,['emergency_room'],TX,Houston,77049.0,6191 E Sam Houston Pkwy N,29.8155077,-95.1652912,meta,2025-06-02T07:00:00.000Z,0.9784508333782836,8390844e-7eff-44f2-929b-bd9654aab79d,,,,OpenStreetMap,2020-09-19T19:22:19.000Z,,houston,False
5d5b6a26-a057-4dc6-be9f-55d53bdbc31f,HCA Houston ER 24/7 - Cypress Fairbanks,emergency_room,"['hospital', 'ambulance_and_ems_services']",TX,Houston,77065.0,10655 Steepletop Dr,29.9275953,-95.5896065,meta,2025-06-02T07:00:00.000Z,0.9784508333782836,7eba17d7-5763-4621-b176-d74f9e569dd1,,medical,hospital,OpenStreetMap,2018-06-15T20:53:56.000Z,,houston,False
52225cfb-45d6-486c-a84e-03c665630471,HCA Houston ER 24/7 - Fallbrook,emergency_room,['health_and_medical'],TX,Houston,77086.0,13338 Tomball Pkwy,29.9149089,-95.4859063,Microsoft,2025-04-25T16:14:16.640Z,0.77,,,,,,,,houston,False
825fa505-3ddb-4094-becb-9ea05b123095,Emergency Room at HCA Houston North Cypress,hospital,"['physical_therapy', 'doctor']",TX,Houston,77070.0,22475 State Highway 249,30.008718,-95.589077,meta,2025-06-02T07:00:00.000Z,0.7548172757475083,59f08c97-6c0a-4571-8efb-26b6e64e9a3c,,,,OpenStreetMap,2021-09-25T06:42:07.000Z,,houston,False
862c9d05-f8ed-4eb7-80f9-356fb25dba7c,HCA Houston ER 24/7 - Willowbrook,hospital,"['doctor', 'emergency_room']",TX,Houston,77070.0,22475 Tomball Pkwy,30.0088293,-95.5890283,meta,2025-06-02T07:00:00.000Z,0.9415384615384615,59f08c97-6c0a-4571-8efb-26b6e64e9a3c,,,,OpenStreetMap,2021-09-25T06:42:07.000Z,,houston,False
ce9f1676-8371-4fff-8610-4cbe87da3753,HCA Houston ER 24/7 - Cypress / FM 1960,emergency_room,['health_and_medical'],TX,Houston,77069.0,5003 Cypress Creek Pkwy,29.9837984,-95.5055487,Microsoft,2025-04-25T16:14:38.060Z,0.77,,,,,,,,houston,False
eb562477-7642-467f-a5b6-73075e3cdf56,HCA Houston ER 24/7 - Cypress / FM 1960,emergency_room,['health_and_medical'],TX,Houston,77069.0,5003 Cypress Creek Pkwy,29.9833771,-95.5051873,Microsoft,2025-05-20T19:02:31.203Z,0.77,c5959d72-76bd-40e1-a68c-92a5911d112c,,,,OpenStreetMap,2019-02-21T08:43:46.000Z,,houston,False
5e62f4dc-bc9c-4de7-96d2-db1467d71abd,HCA Houston Hospice & Family Care,assisted_living_facility,"['hospice', 'health_and_medical']",TX,Houston,77090.0,"15425 N Freeway, Ste 160",29.9918344,-95.4255653,Microsoft,2023-09-20T00:03:10.663Z,0.77,2fe848a7-f010-439f-90bb-1eadfa88d003,,,,OpenStreetMap,2015-05-18T07:11:37.000Z,,houston,False
2e5af96e-765c-4ff6-bb69-7db96b5fb05b,Emergency Room at HCA Houston Northwest,emergency_room,['health_and_medical'],TX,Houston,77090.0,710 Cypress Creek Pkwy,30.0204601,-95.4425602,Microsoft,2025-05-20T19:02:23.503Z,0.77,8114cb8a-3ba4-47d9-99fa-d0023d55a1bc,,medical,hospital,OpenStreetMap,2018-07-05T21:30:49.000Z,,houston,False
a33c5c27-1bdc-4fd2-a0c5-50c52078edb8,HCA Houston Healthcare Northwest,hospital,"['health_and_medical', 'emergency_room']",TX,Houston,77090.0,710 Cypress Creek Pkwy,30.0210022,-95.4428415,meta,2025-06-02T07:00:00.000Z,0.9784508333782836,8114cb8a-3ba4-47d9-99fa-d0023d55a1bc,,medical,hospital,OpenStreetMap,2018-07-05T21:30:49.000Z,,houston,False
25a6ede8-0a5f-4fbb-ae18-1162b5dd4bd9,HCA Houston Northwest Emergency Room,hospital,"['health_and_medical', 'emergency_room']",TX,Houston,77090.0,710 Cypress Creek Pkwy,30.0205111,-95.4417509,meta,2025-06-02T07:00:00.000Z,0.9459263554653524,8114cb8a-3ba4-47d9-99fa-d0023d55a1bc,,medical,hospital,OpenStreetMap,2018-07-05T21:30:49.000Z,,houston,False
4f047b39-1a02-4d46-9e79-e1af89815f74,Emergency Room at HCA Houston Tomball,emergency_room,['health_and_medical'],TX,Tomball,77375.0,605 Holderrieth Blvd,30.0874048,-95.6236173,Microsoft,2025-05-20T19:02:23.503Z,0.77,f57bb825-57c3-4d43-a533-5270735802dd,,medical,hospital,OpenStreetMap,2024-08-02T04:55:18.000Z,,houston,False
1c462059-c2a9-4f38-a8c0-c6c049e09d75,HCA Houston Healthcare Tomball,hospital,"['health_and_medical', 'doctor']",TX,Tomball,77375.0,605 Holderrieth Blvd,30.0876951,-95.623925,meta,2025-06-02T07:00:00.000Z,0.9784508333782836,f57bb825-57c3-4d43-a533-5270735802dd,,medical,hospital,OpenStreetMap,2024-08-02T04:55:18.000Z,,houston,False
f24f4563-6d4c-4e98-abbc-3234e570d871,HCA Houston ER 24/7 - Spring,emergency_room,['health_and_medical'],TX,Spring,77386.0,621 Rayford Rd,30.127501,-95.4323119,Microsoft,2025-04-25T16:53:08.097Z,0.77,,,,,,,,houston,False
558cda4b-059f-4797-87e2-570bbff39092,HCA Houston ER,hospital,"['doctor', 'emergency_room']",TX,Humble,77396.0,9711 N Sam Houston Pkwy E,29.935602,-95.244729,meta,2025-06-02T07:00:00.000Z,0.9459263554653524,3706fa3e-d396-4752-8654-9fe07e71a0ed,HealthOne Emergency Care,medical,,OpenStreetMap,2019-09-24T01:29:31.000Z,,houston,False
49ab642c-698c-4417-bb5f-2e763e216ed8,HCA Houston ER 24/7 - Atascocita,emergency_room,['health_and_medical'],TX,Humble,77346.0,5324 Atascocita Rd Ste T,29.9879519,-95.194254,Microsoft,2025-04-25T16:17:20.480Z,0.77,,,,,,,,houston,False
f1601f24-d06c-4cf1-85c7-6bc702d89bea,HCA Houston Gastroenterology - Kingwood,gastroenterologist,"['doctor', 'health_and_medical']",TX,Kingwood,77339.0,22751 Professional Dr Ste 120,30.049824,-95.259383,Microsoft,2025-01-24T10:13:07.783Z,0.77,,,,,,,,houston,False
0187883c-9b2c-4812-8598-24b08b2e13c7,HCA Houston Healthcare Kingwood,hospital,"['emergency_room', 'medical_service_organizations']",TX,Kingwood,77339.0,22999 US-59,30.0486936,-95.2561501,meta,2025-06-02T07:00:00.000Z,0.9784508333782836,,,,,,,,houston,False
989f166c-d93c-4807-812e-d7f1b91c8d0d,Pediatric Emergency Room at HCA Houston Kingwood,emergency_room,"['hospital', 'pediatrician']",TX,Kingwood,77339.0,22999 US-59,30.0494495,-95.2550855,meta,2025-06-02T07:00:00.000Z,0.9784508333782836,033383cd-1e95-4798-bb12-4d638435689a,HCA Houston Healthcare Kingwood,medical,hospital,OpenStreetMap,2020-06-18T03:41:33.000Z,,houston,False
ef956aa6-e074-4ea9-8fd3-744368b9a8f3,Inpatient Rehabilitation Center at HCA Houston Kingwood,hospital,"['abuse_and_addiction_treatment', 'physical_therapy']",TX,Houston,77339.0,22999 US-59,30.0500419,-95.2552634,meta,2025-06-02T07:00:00.000Z,0.9459263554653524,033383cd-1e95-4798-bb12-4d638435689a,HCA Houston Healthcare Kingwood,medical,hospital,OpenStreetMap,2020-06-18T03:41:33.000Z,,houston,False
8e75f39d-20a6-4965-ba07-020cd3e3f12d,Emergency Room at HCA Houston Kingwood,emergency_room,['health_and_medical'],TX,Kingwood,77339.0,22999 Highway 59 N,30.0500599,-95.2552222,Microsoft,2025-05-20T19:02:23.503Z,0.77,033383cd-1e95-4798-bb12-4d638435689a,HCA Houston Healthcare Kingwood,medical,hospital,OpenStreetMap,2020-06-18T03:41:33.000Z,,houston,False
8d54b09e-1686-4e1c-aee4-d84ad48f5832,"Solis Mammography, a department of HCA Houston Healthcare Kingwood",diagnostic_imaging,"['radiologist', 'doctor', 'health_and_medical']",TX,Kingwood,77339.0,"22999 Eastex Fwy, Ste 240 U.S. 59",30.0500971,-95.2550398,Microsoft,2025-04-14T21:11:42.793Z,0.77,033383cd-1e95-4798-bb12-4d638435689a,HCA Houston Healthcare Kingwood,medical,hospital,OpenStreetMap,2020-06-18T03:41:33.000Z,,houston,False
a86cacec-e42c-4614-8724-457aa3e64156,Inpatient Rehabilitation Center at HCA Houston Kingwood,rehabilitation_center,['health_and_medical'],TX,Kingwood,77339.0,"22999 Highway 59N, Entrance A",30.0500887,-95.2546382,Microsoft,2025-05-20T19:02:15.690Z,0.77,033383cd-1e95-4798-bb12-4d638435689a,HCA Houston Healthcare Kingwood,medical,hospital,OpenStreetMap,2020-06-18T03:41:33.000Z,,houston,False
c4d28a40-12e9-47a3-a6c7-a77ae87dd298,The Women and Children's Center at HCA Houston Kingwood,hospital,"['doctor', 'health_and_medical']",TX,Kingwood,77339.0,22999 US-59,30.049578,-95.2541604,meta,2025-06-02T07:00:00.000Z,0.9300613496932516,033383cd-1e95-4798-bb12-4d638435689a,HCA Houston Healthcare Kingwood,medical,hospital,OpenStreetMap,2020-06-18T03:41:33.000Z,,houston,False
05424c01-8685-4101-9029-7a8bb6b310fd,HCA Houston Healthcare Kingwood,hospital,['health_and_medical'],TX,Kingwood,77339.0,22999 Highway 59 N,30.0496015,-95.2540939,Microsoft,2025-04-25T16:30:08.220Z,0.77,033383cd-1e95-4798-bb12-4d638435689a,HCA Houston Healthcare Kingwood,medical,hospital,OpenStreetMap,2020-06-18T03:41:33.000Z,,houston,False
cbef5f69-e7c0-44f5-b72c-22634e75fba0,HCA Houston Healthcare Kingwood,hospital,['health_and_medical'],TX,Kingwood,77339.0,22999 Highway 59 N,30.0505412,-95.2553969,Microsoft,2025-05-20T19:02:15.690Z,0.77,,,,,,,,houston,False
20fd206d-c5f6-4665-bba6-0db46e86c8b1,HCA Florida Lakeland Emergency,emergency_medicine,"['doctor', 'emergency_service', 'health_and_medical']",FL,Lakeland,33803.0,3526 S Florida Ave,27.9994228,-81.9564255,Microsoft,2025-04-25T16:32:01.597Z,0.77,,,,,,,,lakeland,False
7067a427-ea16-42e2-bb66-4a7d7f5305ce,HCA Florida Surgical Weight Loss Specialists - Lakeland,surgeon,"['doctor', 'health_and_medical']",FL,Lakeland,33805.0,2304 Lakeland Hills Blvd,28.0739331,-81.9535852,Microsoft,2022-05-23T23:07:16.527Z,0.77,04cb0e34-6b07-49aa-ba62-fda1c488b38c,,,,Microsoft ML Buildings,2022-03-21T00:00:00.000Z,,lakeland,False
1cfb1f27-b416-4c19-ae8d-838a1faae55e,HCA Overland Park Regional Freestanding,hospital,"['health_and_medical', 'pharmacy']",KS,Olathe,66062.0,13505 S Alden St,38.8829756,-94.7558073,meta,2025-06-02T07:00:00.000Z,0.9459263554653524,dded84a9-a0fe-4c34-a987-46e52b817516,Overland Park Regional Medical Center ER of Olathe,medical,,OpenStreetMap,2020-12-25T02:46:09.000Z,,kansas-city,False
f04d88fe-1642-4828-af91-cff3aa5d73d4,HCA Midwest Healthcare at Home - Overland Park,home_health_care,"['personal_care_service', 'health_and_medical']",KS,Overland Park,66213.0,7304 W 130th St Ste 200,38.893461,-94.6703056,Microsoft,2023-09-20T00:03:10.663Z,0.77,10c19797-454f-4cfc-a0de-245723f2a867,,commercial,office,OpenStreetMap,2019-08-19T19:14:09.000Z,,kansas-city,True
a58e8dba-f5b5-45af-aed1-890cebc9a075,HCA Midwest Hospice & Family Care,assisted_living_facility,"['hospice', 'health_and_medical']",KS,Leawood,66211.0,11111 Nall Ave Ste 220,38.926095,-94.6482031,Microsoft,2023-09-20T00:03:10.663Z,0.77,09e9e759-ce66-46a5-9c7a-e4b40154b3f9,,,,Microsoft ML Buildings,2019-09-25T00:00:00.000Z,,kansas-city,False
0686df41-8d04-4b5b-9841-c9dec28b9d5a,HCA Midwest Health,hospital,['health_and_medical'],KS,Overland Park,66211.0,5440 W 110th St Ste 400,38.9294119,-94.6482493,Microsoft,2025-05-20T19:02:15.690Z,0.77,,,,,,,,kansas-city,False
4036d8e8-b125-45bc-b266-028eb22a70db,HCA Midwest Health,hospital,['health_and_medical'],KS,Overland Park,66211.0,5440 W 110th St Ste 400,38.9294139,-94.6468629,Microsoft,2025-04-25T16:50:45.553Z,0.77,,,,,,,,kansas-city,False
6562e306-bab8-421a-b0e6-33f1033953ae,HCA Midwest Health Careers,hospital,"['health_and_medical', 'doctor']",KS,Overland Park,66211.0,5440 W 110th St,38.9300711,-94.6470427,meta,2025-06-02T07:00:00.000Z,0.9879256218304756,7235b184-c766-41f1-a497-a46fafa4a816,,,,OpenStreetMap,2020-12-05T03:01:26.000Z,,kansas-city,False
1ecbe9d2-2a9a-400d-a71d-e3cffc5d951b,Hca Midwest Health Emergency Room of Shawnee,hospital,"['emergency_room', 'health_and_medical']",KS,Shawnee,66203.0,10310 Shawnee Mission Pkwy,39.0154769,-94.7061006,meta,2025-06-02T07:00:00.000Z,0.7548172757475083,cae31804-eb05-4af2-9b52-8ebff4caa030,ER of Shawnee,medical,,OpenStreetMap,2023-11-03T04:02:43.000Z,,kansas-city,False
895c13ca-4ba7-4159-93d7-4ecdd6ef0213,HCA Midwest Health,hospital,"['medical_service_organizations', 'doctor']",MO,Kansas City,64131.0,903 E 104th St,38.93889,-94.578063,meta,2025-06-02T07:00:00.000Z,0.8980891719745223,dc43b3ad-4315-4fc4-96c2-6c9fc36635e4,,transportation,parking,OpenStreetMap,2018-04-25T17:34:26.000Z,,kansas-city,False
8c9d3e04-56e7-43df-a05e-884831ffcc2a,HCA Midwest Healthcare at Home - Kansas City,home_health_care,"['personal_care_service', 'health_and_medical']",MO,Kansas City,64131.0,"800 E 101st Terrace, Ste 140",38.9440547,-94.5809021,Microsoft,2023-09-20T00:03:10.663Z,0.77,1e1adb53-adc8-4986-92ca-6a95174f75f1,,,,Microsoft ML Buildings,2019-09-25T00:00:00.000Z,,kansas-city,False
3ed2f255-6f20-46a7-8c27-0e7df45edd87,Hca Midwest Health System,hospital,['professional_services'],MO,Kansas City,64132.0,6420 Prospect Ave,39.00944,-94.557026,meta,2025-06-02T07:00:00.000Z,0.5662921348314607,1f829b65-008e-4fa8-bf2b-542f602e1019,,transportation,parking,OpenStreetMap,2024-09-19T07:47:57.000Z,,kansas-city,False
68f4e0c7-0493-4469-94f0-ea5dcc870486,HCA Midwest Hospice & Family Care,assisted_living_facility,"['hospice', 'health_and_medical']",MO,Independence,64057.0,19550 E 39th St S Ste 322,39.0615607,-94.3717295,Microsoft,2023-09-20T00:03:10.663Z,0.77,f406b0cd-313f-412d-a22e-4fa3fed0a50f,,,,Esri Community Maps,2024-10-15T00:00:00.000Z,,kansas-city,False
4ebce4f7-461c-4acc-82b6-a0dafb4b943f,HCA Midwest Hospice & Family Care,assisted_living_facility,"['hospice', 'health_and_medical']",MO,Independence,64057.0,19550 E 39th St S Ste 322,39.049484,-94.3500957,Microsoft,2024-04-06T07:07:53.103Z,0.77,a13f8845-8f3a-4fd1-b099-00a3b2b5a0ef,Centerpoint Medical Center,medical,hospital,OpenStreetMap,2020-04-16T04:56:21.000Z,,kansas-city,False
338c43e4-256a-47b4-ab24-ff75e3875d36,HCA Virginia Health System,hospital,"['health_and_medical', 'family_practice']",VA,Richmond,23225.0,7300 Beaufont Springs Dr,37.505974,-77.528138,meta,2025-06-02T07:00:00.000Z,0.9879256218304756,fe23f5c7-2862-48c1-8223-6cec6a715f09,,commercial,office,OpenStreetMap,2019-08-29T06:44:01.000Z,,richmond,True
f5f35554-37e7-48bd-ad44-5401c57eda20,HCA Capital Division,hospital,,VA,Richmond,23225.0,7300 Beaufont Springs Dr,37.506023,-77.528185,meta,2025-06-02T07:00:00.000Z,0.3376623376623376,fe23f5c7-2862-48c1-8223-6cec6a715f09,,commercial,office,OpenStreetMap,2019-08-29T06:44:01.000Z,,richmond,False
42613b8a-3fed-4dea-8ea7-47331cf02352,HCA Virginia Sports Medicine,doctor,"['hospital', 'medical_center']",VA,Richmond,23225.0,1200 Boulder Creek Rd,37.5144361,-77.5299994,meta,2025-06-02T07:00:00.000Z,0.9784508333782836,62b23aaf-aaaa-4c04-9588-873064a95269,,commercial,office,OpenStreetMap,2021-04-09T16:53:05.000Z,,richmond,False
830b9c20-5eaa-4a02-bdd5-104145c0cf43,Hca Chippenham Hospital,hospital,"['health_and_medical', 'pharmacy']",VA,Henrico,23229.0,1602 Skipwith Rd,37.6045,-77.53913,meta,2025-06-02T07:00:00.000Z,0.4929396662387676,d148c975-b71b-4136-bf63-62be8751bb4c,,medical,hospital,OpenStreetMap,2021-11-20T02:41:34.000Z,,richmond,False
36f134b3-e09d-4918-90ca-7bbeccfddf74,HCA Healthcare - Capital Division,commercial_real_estate,"['corporate_office', 'private_establishments_and_corporates']",VA,Richmond,23219.0,901 E Cary St Ste 2100,37.536814,-77.437209,Microsoft,2025-05-20T19:02:19.833Z,0.77,820bf060-cbac-461b-8d5a-b757eb7903b3,One James Center,,,OpenStreetMap,2025-03-23T02:14:53.000Z,,richmond,True
4cd8d827-2cea-4135-a050-2114cd6111d0,HCA Healthcare - Capital Division,commercial_real_estate,"['corporate_office', 'private_establishments_and_corporates']",VA,Richmond,23219.0,901 E Cary St Ste 2100,37.5371387,-77.4367694,Microsoft,2025-04-25T16:34:11.700Z,0.77,,,,,,,,richmond,True
ceba0ce1-af3f-4705-800c-1fcb96a63892,HCA Virginia Healthcare at Home,home_health_care,"['assisted_living_facility', 'personal_care_service', 'community_center', 'health_and_medical']",VA,Richmond,23227.0,2112 W Laburnum Ave Ste 100C,37.5847747,-77.4728346,Microsoft,2024-04-06T07:11:13.553Z,0.77,c372e508-cf3f-4f62-ab98-1fdd6d8da996,,,,OpenStreetMap,2025-03-23T02:14:56.000Z,,richmond,False
badcdef3-8939-4cfb-901f-7bc3f971adea,Hca Health Service Of Virginia,hospital,"['health_and_medical', 'retirement_home']",VA,Mechanicsville,23116.0,9275 Chamberlayne Rd,37.651943,-77.399167,meta,2025-06-02T07:00:00.000Z,0.5662921348314607,fd078ed0-8bf2-480d-ab09-2f7205151bad,Hanover Emergency Center,medical,,OpenStreetMap,2024-03-30T16:21:08.000Z,,richmond,False
df7d1ab4-c480-409c-8072-45b5b61500e9,HCA Florida Osceola Urology - Kissimmee,urologist,"['doctor', 'hospital', 'health_and_medical']",FL,Kissimmee,34741.0,591 Oak Commons Blvd,28.299516,-81.412347,Microsoft,2025-05-20T19:02:15.690Z,0.77,ce094eb8-e452-4aa8-8a9d-c9027ee3caeb,,,,OpenStreetMap,2021-04-17T17:50:47.000Z,,kissimmee,False
8f87f3a0-5d56-4f4e-9f25-2cb9e7137c48,HCA Florida Behavioral Health Specialists - Moss Park,health_and_medical,,FL,Orlando,32832.0,10920 Moss Park Rd Ste 100,28.300568,-81.41221,Microsoft,2025-05-20T19:02:23.503Z,0.77,381612b8-efae-4bfb-9965-5a3b3a25e717,,,,OpenStreetMap,2021-04-17T17:50:47.000Z,,kissimmee,False
31f86e9a-aad3-46cb-8e39-e2c1d7589657,HCA Florida Osceola Hospital Emergency Room,emergency_room,['health_and_medical'],FL,Kissimmee,34741.0,700 W Oak St,28.2992383,-81.4097569,Microsoft,2025-05-20T19:02:15.690Z,0.77,c910abd2-a1bc-40bd-8cbd-a7df9c3680e5,,medical,hospital,OpenStreetMap,2022-01-31T05:31:29.000Z,,kissimmee,False
8b005c97-5d18-436b-be8e-164d231e19b9,HCA Florida Heart and Lung - Kissimmee,cardiologist,"['doctor', 'hospital', 'health_and_medical']",FL,Kissimmee,34741.0,720 W Oak St Ste 360,28.2996337,-81.4105097,Microsoft,2025-04-25T16:31:37.460Z,0.77,,,,,,,,kissimmee,False
c24e52bb-9d9c-4a92-88a0-7676f969445e,HCA Florida Osceola GYN Oncology,oncologist,"['doctor', 'health_and_medical']",FL,Kissimmee,34741.0,720 W Oak St Ste 370,28.2996337,-81.4105097,Microsoft,2025-04-25T16:32:09.157Z,0.77,,,,,,,,kissimmee,False
695a8007-5b8d-4904-b020-92347d9c746b,HCA Florida Osceola Imaging Center,hospital,"['diagnostic_services', 'laboratory_testing']",FL,Kissimmee,34741.0,730 W Oak St,28.3004623,-81.4113653,meta,2025-06-02T07:00:00.000Z,0.9784508333782836,1414667b-2fb5-4549-b216-f2f9af1e5861,,,,OpenStreetMap,2021-04-17T17:50:47.000Z,,kissimmee,False
f1b0dba0-adae-4152-aa71-84c473ae2b01,Heart and Vascular Institute of HCA Florida Osceola Hospital,cardiologist,"['doctor', 'health_and_medical']",FL,Kissimmee,34741.0,700 W Oak St,28.2996231,-81.4097325,Microsoft,2025-05-20T19:02:15.690Z,0.77,c910abd2-a1bc-40bd-8cbd-a7df9c3680e5,,medical,hospital,OpenStreetMap,2022-01-31T05:31:29.000Z,,kissimmee,False
f2be5ddd-560d-4281-a259-e60e68b89db5,HCA Florida Osceola Hospital,hospital,"['health_and_medical', 'health_department']",FL,Kissimmee,34741.0,700 W Oak St,28.2996398,-81.4094679,meta,2025-06-02T07:00:00.000Z,0.9879256218304756,c910abd2-a1bc-40bd-8cbd-a7df9c3680e5,,medical,hospital,OpenStreetMap,2022-01-31T05:31:29.000Z,,kissimmee,False
ca32e794-e133-4487-8eae-f97b44c78c5d,Behavioral Health Center of HCA Florida Osceola Hospital,medical_center,['health_and_medical'],FL,Kissimmee,34741.0,700 W Oak St,28.2999764,-81.4094914,Microsoft,2025-04-25T16:31:15.030Z,0.77,,,,,,,,kissimmee,False
289ecd3d-a688-47a2-8d58-de8ad6b49c90,HCA Florida Behavioral Health Specialists - W Oak St,health_and_medical,,FL,Kissimmee,34741.0,700 W Oak St,28.299745,-81.409219,Microsoft,2025-03-28T10:23:30.413Z,0.77,c910abd2-a1bc-40bd-8cbd-a7df9c3680e5,,medical,hospital,OpenStreetMap,2022-01-31T05:31:29.000Z,,kissimmee,False
ab7cb376-9ba8-4a0b-b45e-f0532b69438d,HCA Florida Poinciana Gastroenterology - Monument Ave,gastroenterologist,"['doctor', 'health_and_medical']",FL,Kissimmee,34741.0,210 E Monument Ave Ste A,28.2917834,-81.405491,Microsoft,2025-04-25T16:32:31.623Z,0.77,,,,,,,,kissimmee,False
bf1247be-4f3c-4bb3-88cb-2e462be626dd,HCA Florida Osceola Surgical Associates,surgeon,"['doctor', 'hospital', 'medical_center', 'surgical_center', 'health_and_medical']",FL,Kissimmee,34741.0,320 W Bass St Ste 320,28.2988314,-81.4071989,Microsoft,2025-04-25T16:31:38.553Z,0.77,,,,,,,,kissimmee,False
1c83a909-7c49-4e42-bd0a-780063b86f5a,HCA Florida Osceola Neurosurgical Specialists,neurologist,"['doctor', 'hospital', 'health_and_medical']",FL,Kissimmee,34741.0,905 N Central Ave,28.3000247,-81.4078113,Microsoft,2025-04-25T16:31:38.007Z,0.77,,,,,,,,kissimmee,False
3f8e3ded-1cde-4989-9dc8-7396ddd7c245,HCA Florida Osceola Primary Care,hospital,['health_and_medical'],FL,Kissimmee,34741.0,806 W Oak St,28.3009013,-81.4122387,Microsoft,2025-04-25T16:31:52.897Z,0.77,,,,,,,,kissimmee,False
ccb4dd6f-cd07-444b-9c8c-bb434a8a843a,HCA Florida Osceola Neurology Specialists,neurologist,"['doctor', 'hospital', 'health_and_medical']",FL,Kissimmee,34741.0,802 W Oak St,28.3009014,-81.412227,Microsoft,2025-04-25T16:32:08.093Z,0.77,,,,,,,,kissimmee,False
b97c1242-9e5c-48be-a1d8-8cb5c02ff608,HCA Florida Osceola Urology - Kissimmee,urologist,"['doctor', 'hospital', 'health_and_medical']",FL,Kissimmee,34741.0,591 Oak Commons Blvd,28.3012351,-81.4099558,Microsoft,2025-04-25T16:31:45.347Z,0.77,,,,,,,,kissimmee,False
edbb6b79-ee73-41d0-a643-7073dc7c0947,HCA Florida Osceola Hospital Physical Therapy Center,physical_therapy,"['health_and_medical', 'hospital']",FL,Kissimmee,34744.0,1000 N Main St,28.3012101,-81.4040821,meta,2025-06-02T07:00:00.000Z,0.9459263554653524,35cf71cd-e038-4890-8eaa-1de10312823d,,,,OpenStreetMap,2021-04-17T17:40:30.000Z,,kissimmee,False
1acc8609-d8c5-425a-8289-f1a56fdf067b,HCA Florida Lake Nona Bariatric and Metabolic Surgery,surgeon,"['doctor', 'hospital', 'public_health_clinic', 'health_and_medical']",FL,Kissimmee,34741.0,3288 Greenwald Way N Ste B,28.3458162,-81.4189415,Microsoft,2023-12-13T18:20:14.560Z,0.77,9f3eb748-3de8-453f-a4df-031e2046b981,,,,OpenStreetMap,2018-01-08T08:39:02.000Z,,kissimmee,False
0fe74a05-9217-487d-88b0-e64c494bd4d8,HCA Florida Osceola ENT,ear_nose_and_throat,"['doctor', 'hospital', 'health_and_medical']",FL,Kissimmee,34741.0,3288 Greenwald Way N,28.3458162,-81.4189415,Microsoft,2025-05-20T19:02:23.503Z,0.77,9f3eb748-3de8-453f-a4df-031e2046b981,,,,OpenStreetMap,2018-01-08T08:39:02.000Z,,kissimmee,False
f67a6ecc-6921-4b01-8ef2-f0ff331d566a,HCA Florida Plastic and Maxillofacial Surgery,plastic_surgeon,"['doctor', 'health_and_medical']",FL,Orlando,32837.0,14050 Town Loop Blvd Ste 204,28.3615491,-81.4208816,Microsoft,2025-04-25T16:50:15.617Z,0.77,,,,,,,,kissimmee,False
19e5731d-f497-405c-bee6-b29702bd8a9e,HCA Florida Hunter's Creek Emergency,emergency_medicine,"['doctor', 'hospital', 'emergency_service', 'health_and_medical']",FL,Orlando,32837.0,12100 S John Young Pkwy,28.3908095,-81.4251644,Microsoft,2025-04-25T16:50:15.120Z,0.77,,,,,,,,kissimmee,False
c9cae58e-265b-4fdf-9446-221868ab3e97,HCA Florida Cutler Bay Emergency,emergency_medicine,"['doctor', 'emergency_room', 'health_and_medical']",FL,Cutler Bay,33157.0,19605 S Dixie Highway,25.5857707,-80.3626341,Microsoft,2025-04-25T16:13:12.330Z,0.77,,,,,,,,miami,False
0c024bb5-e04e-48fb-9d63-acb5f015175a,HCA Florida Town and Country Emergency,emergency_room,"['hospital', 'ambulance_and_ems_services']",FL,Miami,33183.0,11800 Sherri Ln,25.6870522,-80.3850273,meta,2025-06-02T07:00:00.000Z,0.9784508333782836,,,,,,,,miami,False
bbae0ad5-2109-4cb5-a176-af731ebf8034,HCA Florida Dadeland Emergency,emergency_medicine,"['doctor', 'emergency_room', 'health_and_medical']",FL,Miami,33176.0,9100 SW 87th Ave,25.6851556,-80.3359773,Microsoft,2023-11-13T10:57:50.157Z,0.77,efbdb67b-8d21-41f8-90a2-0f0af9c95778,,medical,hospital,OpenStreetMap,2025-02-23T03:04:20.000Z,,miami,False
2ed77d41-2754-4eb6-a574-58d4120f84ff,HCA Florida Neurosurgical Specialists - Kendall,neurologist,"['doctor', 'health_and_medical']",FL,Miami,33176.0,9100 SW 87th Ave,25.6849646,-80.335326,Microsoft,2025-04-25T16:42:55.630Z,0.77,,,,,,,,miami,False
56b4f962-b70f-447b-bd35-acc23648708f,HCA Florida Neurosurgical Specialists - Kendall,neurologist,"['doctor', 'health_and_medical']",FL,Miami,33176.0,9100 SW 87th Ave,25.6872588,-80.3347577,Microsoft,2025-05-20T19:02:22.177Z,0.77,ef48b281-4ac2-4b3e-9835-c4c4b27b1853,,,,OpenStreetMap,2023-02-12T05:13:46.000Z,,miami,False
e5b8b78b-3ce2-407e-b68a-e2cd79174eee,HCA Florida Miami-Dade Surgical Specialists - Kendall,hospital,"['surgical_center', 'health_and_medical']",FL,Miami,33176.0,8700 N Kendall Dr Ste 208,25.6879547,-80.3341152,Microsoft,2025-04-25T16:42:37.177Z,0.77,,,,,,,,miami,False
a66db19b-f5f0-4894-82c8-46eaaa5d7f35,HCA Florida Institute for Gynecologic Oncology - Miami,oncologist,"['doctor', 'hospital', 'health_and_medical']",FL,Miami,33173.0,9408 SW 87th Ave Ste 304,25.6964799,-80.3350623,Microsoft,2025-05-20T19:02:23.503Z,0.77,9810d6f9-5f44-4ccf-8595-4a02bc7be469,,,,OpenStreetMap,2023-04-03T03:56:37.000Z,,miami,False
67538c42-97be-4dbf-a7a6-e097c34b054b,HCA Florida Kendall Urology,urologist,"['doctor', 'hospital', 'medical_center', 'health_and_medical']",FL,Miami,33175.0,11880 SW 40th St Ste 101,25.7299734,-80.3868872,Microsoft,2025-04-25T16:42:39.900Z,0.77,,,,,,,,miami,False
6f8e5f95-4478-4b35-952d-7e4af97ca361,HCA Florida Heart and Vascular Care - Kendall,cardiologist,"['doctor', 'health_and_medical']",FL,Miami,33175.0,11760 SW 40 St Ste 301,25.7305475,-80.3858095,Microsoft,2025-04-25T16:42:34.860Z,0.77,a33ccb1c-6558-4e2a-9207-fb7b2da671c9,,medical,hospital,OpenStreetMap,2024-08-17T19:36:47.000Z,,miami,False
b0cbe7b9-0d03-46d4-94bb-2ff3c868eb1b,HCA Florida Burn and Reconstructive Plastic Surgery,surgical_center,['health_and_medical'],FL,Miami,33175.0,11750 SW 40th St,25.7305475,-80.3858095,Microsoft,2025-04-25T16:43:34.623Z,0.77,a33ccb1c-6558-4e2a-9207-fb7b2da671c9,,medical,hospital,OpenStreetMap,2024-08-17T19:36:47.000Z,,miami,False
d9176277-d94f-4720-86a7-798902da072a,HCA Florida Kendall Hospital Emergency Room,emergency_room,['health_and_medical'],FL,Miami,33175.0,11750 SW 40th St,25.7305475,-80.3858095,Microsoft,2025-04-25T16:43:10.483Z,0.77,a33ccb1c-6558-4e2a-9207-fb7b2da671c9,,medical,hospital,OpenStreetMap,2024-08-17T19:36:47.000Z,,miami,False
494260b5-e693-4eed-88c4-08b1c48286ff,HCA Florida Kendall Orthopedics,orthopedist,"['doctor', 'hospital', 'health_and_medical']",FL,Miami,33175.0,11760 S W 40 St Ste 722,25.7305475,-80.3858095,Microsoft,2025-04-25T16:42:36.070Z,0.77,a33ccb1c-6558-4e2a-9207-fb7b2da671c9,,medical,hospital,OpenStreetMap,2024-08-17T19:36:47.000Z,,miami,False
c2ab79a8-4698-42e8-aca6-b4e5906c2b6e,HCA Florida Kendall Hospital Emergency Room,emergency_room,['health_and_medical'],FL,Miami,33175.0,"11750 SW 40 St, Emergency Entrance",25.730954,-80.386287,Microsoft,2025-05-20T19:02:23.503Z,0.77,a33ccb1c-6558-4e2a-9207-fb7b2da671c9,,medical,hospital,OpenStreetMap,2024-08-17T19:36:47.000Z,,miami,False
b57df27f-1af0-4b41-9c45-8fffbc6d4476,HCA Florida Heart and Vascular Care - Kendall,cardiologist,"['doctor', 'health_and_medical']",FL,Miami,33175.0,11760 SW 40 St Ste 301,25.7306823,-80.3855892,Microsoft,2025-05-20T19:02:15.690Z,0.77,a33ccb1c-6558-4e2a-9207-fb7b2da671c9,,medical,hospital,OpenStreetMap,2024-08-17T19:36:47.000Z,,miami,False
e14d570e-9b3d-45d8-9f7f-29eb0ad58ec7,HCA Florida Trauma Specialists - Kendall,surgical_center,['health_and_medical'],FL,Miami,33175.0,"11760 SW 40th St., Ste 722",25.7306823,-80.3855892,Microsoft,2025-05-20T19:02:15.690Z,0.77,a33ccb1c-6558-4e2a-9207-fb7b2da671c9,,medical,hospital,OpenStreetMap,2024-08-17T19:36:47.000Z,,miami,False
902cf3e9-8106-4afb-a47d-4218dd263308,HCA Florida Kendall Orthopedics,hospital,['health_and_medical'],FL,Miami,33175.0,11760 SW 40 St uite 722,25.7306823,-80.3855892,Microsoft,2025-05-20T19:02:15.690Z,0.77,a33ccb1c-6558-4e2a-9207-fb7b2da671c9,,medical,hospital,OpenStreetMap,2024-08-17T19:36:47.000Z,,miami,False
933f6cd2-03ff-484d-91d0-c6189bbb79e7,HCA Florida Burn and Reconstructive Plastic Surgery,surgical_center,['health_and_medical'],FL,Miami,33175.0,11750 SW 40TH St.,25.7307573,-80.3855189,Microsoft,2025-05-20T19:02:27.007Z,0.77,a33ccb1c-6558-4e2a-9207-fb7b2da671c9,,medical,hospital,OpenStreetMap,2024-08-17T19:36:47.000Z,,miami,False
dc34aace-1734-4fea-ac29-3e93dd18eb00,Hca Florida Kendall Hospital,hospital,"['health_and_medical', 'emergency_room']",FL,Miami,33175.0,11750 SW 40th St,25.7316516,-80.3858619,meta,2025-06-02T07:00:00.000Z,0.9784508333782836,,,,,,,,miami,False
97f6d701-b593-416f-a485-78cf20eb33bb,HCA Florida Kendall Pediatric Specialists,pediatrician,"['doctor', 'hospital', 'health_and_medical']",FL,Miami,33175.0,11760 SW 40 St uite 722,25.7319457,-80.3858602,Microsoft,2025-03-18T12:53:43.783Z,0.77,,,,,,,,miami,False
d6c6f194-fa4b-46a4-8728-f7c156c5b79c,HCA Florida Kendall Urology,urologist,"['doctor', 'hospital', 'medical_center', 'health_and_medical']",FL,Miami,33175.0,11880 SW 40th St Ste 101,25.7319457,-80.3858602,Microsoft,2025-05-20T19:02:15.690Z,0.77,,,,,,,,miami,False
d5c4e522-345f-4a33-9662-c0de2dc5c087,HCA Florida Doral Emergency,emergency_room,"['hospital', 'law_enforcement']",FL,Doral,33178.0,10915 NW 41st St,25.8120061,-80.3738823,meta,2025-06-02T07:00:00.000Z,0.9784508333782836,,,,,,,,miami,False
9972062d-fcb0-4757-9ed9-1b117d5f30be,HCA Florida Doral Medical Specialists,internal_medicine,"['doctor', 'hospital', 'health_and_medical']",FL,Doral,33178.0,10725 N W 58th St Ste C-7,25.8274838,-80.3701936,Microsoft,2025-04-25T16:20:40.760Z,0.77,,,,,,,,miami,False
a17f7191-314d-47c1-b47d-fa5fde06aaa0,HCA Florida Miami-Dade Surgical Specialists - Kendall,hospital,"['surgical_center', 'health_and_medical']",FL,Miami,33176.0,8700 N Kendall Dr Ste 208,25.7063357,-80.2849219,Microsoft,2025-05-20T19:02:15.690Z,0.77,433782d4-42a5-4be3-82f6-4c4741caddf3,Plaza San Remo,commercial,commercial,OpenStreetMap,2025-03-27T23:55:56.000Z,,miami,False
19b1ae21-39d6-4b6b-80d5-72cb096ee41e,HCA Florida Miami-Dade Urology,urologist,"['doctor', 'hospital', 'health_and_medical']",FL,Miami,33133.0,3641 S Miami Ave Ste 170,25.7399973,-80.2157233,Microsoft,2022-10-20T20:08:46.773Z,0.77,376659a4-e797-4bfd-be8a-bd0317f0a0cd,,,,OpenStreetMap,2025-04-06T23:05:09.000Z,,miami,False
779bc73f-ca94-466d-9065-dcf1ab0d81b3,HCA Florida Heart and Vascular Care - Mercy,cardiologist,"['doctor', 'health_and_medical']",FL,Miami,33133.0,3683 S Miami Ave Ste 500,25.7401904,-80.2158609,Microsoft,2025-04-25T16:42:35.440Z,0.77,376659a4-e797-4bfd-be8a-bd0317f0a0cd,,,,OpenStreetMap,2025-04-06T23:05:09.000Z,,miami,False
406dfee1-70eb-4e64-9133-489e15702786,HCA Florida Miami-Dade Surgical Specialists - Mercy,hospital,"['surgical_center', 'health_and_medical']",FL,Miami,33133.0,3683 S Miami Ave Ste 500,25.7401904,-80.2158609,Microsoft,2023-02-15T18:02:08.140Z,0.77,376659a4-e797-4bfd-be8a-bd0317f0a0cd,,,,OpenStreetMap,2025-04-06T23:05:09.000Z,,miami,False
d949a4b6-a42c-45a1-8ffe-ed9871e551fe,HCA Florida Neurosurgical Specialists - Mercy,neurologist,"['doctor', 'health_and_medical']",FL,Miami,33133.0,3683 S Miami Ave Ste 500,25.7401904,-80.2158609,Microsoft,2025-04-25T16:43:05.743Z,0.77,376659a4-e797-4bfd-be8a-bd0317f0a0cd,,,,OpenStreetMap,2025-04-06T23:05:09.000Z,,miami,False
b6a1bc46-c71c-40ab-a503-5f061175d4e2,HCA Florida Miami Electrophysiology - Cardiovascular Group,cardiologist,"['doctor', 'hospital', 'health_and_medical']",FL,Miami,33133.0,3683 S Miami Ave Ste 500,25.7401904,-80.2158609,Microsoft,2025-04-25T16:43:35.760Z,0.77,376659a4-e797-4bfd-be8a-bd0317f0a0cd,,,,OpenStreetMap,2025-04-06T23:05:09.000Z,,miami,False
1c6f36e8-09e8-4c97-b9ff-d5e81d31e1e7,HCA Florida Hematology and Oncology,oncologist,"['doctor', 'hospital', 'health_and_medical']",FL,Miami,33133.0,3663 S Miami Ave,25.7395427,-80.2126704,Microsoft,2025-04-25T16:42:36.653Z,0.77,,,,,,,,miami,False
9b54d327-fae5-4052-b939-0d10e42decfb,The Heart Center at HCA Florida Mercy Hospital,cardiologist,"['doctor', 'health_and_medical']",FL,Miami,33133.0,3663 S Miami Ave,25.7400472,-80.2138245,Microsoft,2025-05-20T19:02:12.250Z,0.77,63fb0643-120a-4a65-a4e6-d15b7ba903f9,,medical,hospital,OpenStreetMap,2025-04-06T23:05:09.000Z,,miami,False
