id_left,primary_name_left,primary_category,alternate_category,region,locality,zipcode,address,latitude,longitude,plc_source_dataset,plc_source_update_time,plc_source_confidence,id_right,primary_name_right,subtype,class,bldg_dataset,bldg_update_time,bldg_confidence,source_city,is_office_by_pipeline
25a83442-0764-4166-b201-3e5523134b6f,Hartford HealthCare Medical Group Primary Care,doctor,"['medical_center', 'health_and_medical']",CT,Cheshire,6410.0,765 W Johnson Ave Ste 201,41.5567028,-72.9216024,Microsoft,2025-04-20T13:52:46.830Z,0.77,882c16d9-97b2-4cf7-9fe1-abf9da82a69a,,,,OpenStreetMap,2025-04-29T15:37:09.000Z,,hartford,False
acd79fe4-5ad7-4265-817e-876957a46128,Hartford HealthCare Medical Group,medical_center,['health_and_medical'],CT,Cheshire,6410.0,1781 Highland Ave 106,41.551895,-72.8920953,Microsoft,2018-05-07T15:34:12.423Z,0.77,7fb58bb5-9d58-4377-bd4c-e2b743feddcf,,,,OpenStreetMap,2021-07-04T01:49:22.000Z,,hartford,False
1d2f8b85-42f2-4bba-b24c-d338eb949c9f,Hartford HealthCare Medical Group,doctor,"['health_and_medical', 'endocrinologist']",CT,Meriden,6451.0,435 Lewis Ave,41.5494466,-72.8012864,meta,2025-06-02T07:00:00.000Z,0.909823677581864,fa50f4a9-5b70-457c-81d8-a4e3f17ca4ce,,medical,hospital,OpenStreetMap,2022-07-07T18:43:29.000Z,,hartford,False
291205aa-770c-452b-9b9e-5bbdc15ffdb3,Hartford HealthCare Cancer Institute Breast Care Center at MidState Medical Center,plastic_surgeon,"['surgeon', 'doctor', 'health_and_medical']",CT,Meriden,6451.0,435 Lewis Ave # 104,41.5493063,-72.8011451,Microsoft,2025-05-03T16:33:14.860Z,0.77,fa50f4a9-5b70-457c-81d8-a4e3f17ca4ce,,medical,hospital,OpenStreetMap,2022-07-07T18:43:29.000Z,,hartford,False
53853ffd-9655-461b-b40d-0955acdc53e6,Hartford HealthCare Center for Healthy Aging,social_service_organizations,"['community_services_non_profits', 'senior_citizen_services']",CT,Meriden,6451.0,435 Lewis Ave,41.5493577,-72.8007751,meta,2025-06-02T07:00:00.000Z,0.9415384615384615,fa50f4a9-5b70-457c-81d8-a4e3f17ca4ce,,medical,hospital,OpenStreetMap,2022-07-07T18:43:29.000Z,,hartford,False
5406bde7-d68c-4598-91ff-f5af6745c904,Hartford County Tattoo,tattoo_and_piercing,['beauty_salon'],CT,Plantsville,6479.0,991 S Main St,41.580413,-72.893595,meta,2025-06-02T07:00:00.000Z,0.5662921348314607,9a00ea21-17e2-47b0-a8b6-7c3a99d02222,,,,OpenStreetMap,2021-07-04T01:49:24.000Z,,hartford,False
ce56db81-af83-4f89-9ebd-7d2aee4e607b,Hartford HealthCare-GoHealth Urgent Care,emergency_room,"['hospital', 'ambulance_and_ems_services']",CT,Southington,6489.0,99 Executive Blvd,41.6139198,-72.9006929,meta,2025-06-02T07:00:00.000Z,0.9784508333782836,8dfecf22-03f4-40ad-a7f4-43021b4910e2,,commercial,retail,OpenStreetMap,2023-09-06T15:32:00.000Z,,hartford,False
3a44da91-91d4-47c5-82e8-75f9ab100404,Hartford HealthCare Medical Group Primary Care,internal_medicine,"['doctor', 'medical_center', 'health_and_medical']",CT,Southington,6489.0,70 Meriden Ave,41.5949234,-72.876662,Microsoft,2025-05-06T16:58:23.503Z,0.77,6c6f7ecf-e7bf-4749-8934-cedd44b583de,,,,OpenStreetMap,2016-12-12T22:12:28.000Z,,hartford,False
702eff88-3d76-4e23-a76a-a665c1ff192b,Hartford HealthCare Independence at Home,home_health_care,"['personal_care_service', 'health_and_medical']",CT,Southington,6489.0,81 Meriden Ave Ste 314,41.5946528,-72.8758067,Microsoft,2023-10-20T15:54:18.520Z,0.77,,,,,,,,hartford,False
f15f25d1-74ea-4c4b-9e81-88a3e044cf70,Hartford HealthCare Rehabilitation Network,hospital,"['medical_center', 'physical_therapy']",CT,Southington,6489.0,81 Meriden Ave,41.5946956,-72.8758105,meta,2025-06-02T07:00:00.000Z,0.9784508333782836,,,,,,,,hartford,False
be5431d7-014a-4c45-9471-3a2130450a36,Hartford HealthCare Center for Healthy Aging,social_service_organizations,"['community_services_non_profits', 'home_improvement_store']",CT,Southington,6489.0,81 Meriden Ave,41.5949136,-72.8759022,meta,2025-06-02T07:00:00.000Z,0.9300613496932516,,,,,,,,hartford,False
82bf8d39-612d-4b1f-bcfd-6ab4f9fd3f69,Hartford HealthCare Rehabilitation Network,occupational_therapy,"['physical_therapy', 'rehabilitation_center', 'health_and_medical']",CT,Southington,6489.0,"81 Meriden Ave, Rehab Suite",41.595083,-72.875883,Microsoft,2025-05-06T15:04:17.830Z,0.77,,,,,,,,hartford,False
e94a19e3-9427-4c7e-b6a8-5813afd1cbc6,Hartford HealthCare Medical Group Primary Care,hospital,['doctor'],CT,Southington,6489.0,98 Main St,41.6004975,-72.8787609,meta,2025-06-02T07:00:00.000Z,0.9459263554653524,7db74d16-031b-43f2-a0fe-2de97cef14bc,,,,Microsoft ML Buildings,2019-10-15T00:00:00.000Z,,hartford,False
e94a19e3-9427-4c7e-b6a8-5813afd1cbc6,Hartford HealthCare Medical Group Primary Care,hospital,['doctor'],CT,Southington,6489.0,98 Main St,41.6004975,-72.8787609,meta,2025-06-02T07:00:00.000Z,0.9459263554653524,eb959302-0e50-427d-9d34-bb2db170df2a,,,,OpenStreetMap,2021-07-04T21:10:52.000Z,,hartford,False
7ccc29b6-ea0b-4c3f-a860-a1ca6ceadfce,Hartford Healthcare At Home,hospital,"['health_and_medical', 'laboratory_testing']",CT,Southington,6489.0,300 Queen St,41.624707,-72.874503,meta,2025-06-02T07:00:00.000Z,0.3376623376623376,,,,,,,,hartford,False
bc4d3097-d9e9-40f6-94fd-3bf3ab74855d,Hartford HealthCare Center for Healthy Aging,social_service_organizations,"['community_services_non_profits', 'senior_citizen_services']",CT,Southington,6489.0,462 Queen St,41.6289775,-72.8755054,meta,2025-06-02T07:00:00.000Z,0.9300613496932516,,,,,,,,hartford,False
9daad95e-a9c5-4455-9470-ac919004bbd3,Hartford HealthCare Rehabilitation Network,occupational_therapy,"['physical_therapy', 'health_and_medical']",CT,Southington,6489.0,462 Queen St #202,41.62896,-72.87495,Microsoft,2025-05-05T18:32:41.117Z,0.77,15a92a55-356a-4a2e-81d9-7334be6df0c8,,,,OpenStreetMap,2022-03-29T01:01:22.000Z,,hartford,False
a133d1c6-72a1-486c-8e9b-3d752032a4b7,Hartford HealthCare Neuroscience Institute Seizure and Epilepsy Clinic,medical_center,['health_and_medical'],CT,Southington,6489.0,462 Queen St #201,41.6289603,-72.8749478,Microsoft,2025-05-03T18:02:56.423Z,0.77,15a92a55-356a-4a2e-81d9-7334be6df0c8,,,,OpenStreetMap,2022-03-29T01:01:22.000Z,,hartford,False
b0e9ddb0-dadc-42f9-b99b-4b723a4f5f5f,Hartford HealthCare Medical Group,family_practice,"['doctor', 'health_and_medical']",CT,Southington,6489.0,462 Queen St,41.6289644,-72.8749427,meta,2025-06-02T07:00:00.000Z,0.9784508333782836,15a92a55-356a-4a2e-81d9-7334be6df0c8,,,,OpenStreetMap,2022-03-29T01:01:22.000Z,,hartford,False
d5274f1e-1263-44d0-801f-57b2991abd1c,AAA Hartford,insurance_agency,['travel_services'],CT,Southington,6489.0,755 Queen St,41.6374069,-72.8735272,meta,2025-06-02T07:00:00.000Z,0.9784508333782836,4d8d7ce0-b9fc-43dd-b7cb-4d1ef5bdd9d9,,,,OpenStreetMap,2021-06-05T01:47:50.000Z,,hartford,False
83ef2105-6e3c-44ff-ad11-e004beba5d78,Hartford HealthCare-GoHealth Urgent Care,hospital,"['health_and_medical', 'emergency_room']",CT,Southington,6489.0,775 Queen St,41.6375921,-72.8735318,meta,2025-06-02T07:00:00.000Z,0.9784508333782836,4f8133dd-57cb-4c0c-a528-baabd6fdae23,,medical,,OpenStreetMap,2022-01-08T19:54:54.000Z,,hartford,False
2699ccb1-5c19-4d9f-8a77-0e6bf292287d,Hartford Hypnosis Center,naturopathic_holistic,"['counseling_and_mental_health', 'doctor']",CT,New Britain,6052.0,86 Brookside Rd,41.6542736,-72.8005938,meta,2025-06-02T07:00:00.000Z,0.9784508333782836,85e4d0b9-0a41-4bd2-8084-76970c26527e,,,,OpenStreetMap,2021-06-12T07:19:15.000Z,,hartford,False
a8718bed-cd95-47dc-b3d5-d3d2cb5b6ab5,"Bristol, Hartford County, Connecticut",public_and_government_association,,,,0.0,,41.6811111,-72.9405556,meta,2025-06-02T07:00:00.000Z,0.4929396662387676,f4f4b98f-4b3f-4110-afaf-a54cae34297a,,,,OpenStreetMap,2022-05-01T02:06:27.000Z,,hartford,False
3a6373a5-7df8-4d75-a483-27c2b83d2076,Hartford HealthCare Rehabilitation Network,hospital,"['family_practice', 'abuse_and_addiction_treatment']",CT,Bristol,6010.0,22 Pine St,41.6662961,-72.9212202,meta,2025-06-02T07:00:00.000Z,0.9784508333782836,f6d99c18-d037-483c-a821-a08bd8509245,Family Health Center,medical,,OpenStreetMap,2023-08-08T20:22:52.000Z,,hartford,False
cb8a2acf-58b3-472c-bdeb-54f699700e10,Hartford County Tattoo,tattoo_and_piercing,['business'],CT,Bristol,6010.0,253 W Washington St,41.677572,-72.9142741,meta,2025-06-02T07:00:00.000Z,0.9784508333782836,8204c669-3047-4b68-932a-531a922f2c85,,commercial,retail,OpenStreetMap,2023-10-26T21:16:08.000Z,,hartford,False
91315129-c116-4d2d-b788-076dce558bc9,Hartford County Oral Surgery,oral_surgeon,"['dentist', 'doctor']",CT,Bristol,6010.0,259 Farmington Ave,41.6875037,-72.9351474,meta,2025-06-02T07:00:00.000Z,0.9784508333782836,,,,,,,,hartford,False
52955992-1873-4c00-a1d7-f975293f69ac,Hartford HealthCare-GoHealth Urgent Care,hospital,"['laboratory_testing', 'emergency_room']",CT,Bristol,6010.0,1215 Farmington Ave,41.6977923,-72.9037358,meta,2025-06-02T07:00:00.000Z,0.9784508333782836,6474460f-8298-453e-98d6-246dad245bb0,,,,OpenStreetMap,2022-08-07T03:54:54.000Z,,hartford,False
c5fe963d-b9d5-4bee-b63f-2cf485af2b1f,Hartford HealthCare Medical Group Primary Care,doctor,['health_and_medical'],CT,Bristol,6010.0,1195 Farmington Ave,41.6979158,-72.9036086,Microsoft,2025-05-03T18:20:35.680Z,0.77,6474460f-8298-453e-98d6-246dad245bb0,,,,OpenStreetMap,2022-08-07T03:54:54.000Z,,hartford,False
c548463e-2199-4a48-b4e6-88949fdb2a82,Hartford Yard Goats Kiosk,sporting_goods,"['bicycle_shop', 'fast_food_restaurant']",CT,Farmington,6032.0,1500 New Britain Ave,41.7144203,-72.8622818,meta,2025-06-02T07:00:00.000Z,0.3961437335670464,59ea8cb9-d4a6-4cf1-a447-006a7c84cd70,,,,OpenStreetMap,2021-05-20T04:56:24.000Z,,hartford,False
f639e53e-f04b-4e8d-971c-ca2fa9171bae,Hartford Neuropathy & Chronic Pain Center,health_and_medical,"['pharmacy', 'professional_services']",CT,Plainville,6062.0,17 Farmington Ave,41.6755733,-72.8588583,meta,2025-06-02T07:00:00.000Z,0.9879256218304756,bbf6f011-a7a9-41ea-b815-4346be7626b7,Olde Canal Square Plaza Shopping Center,,,OpenStreetMap,2021-06-11T05:20:54.000Z,,hartford,False
c4e983b2-c596-4cba-ba8d-8c9ca0c8aa94,10th Planet Jiu Jitsu Hartford,martial_arts_club,"['active_life', 'sports_club_and_league']",CT,Plainville,6062.0,161 Woodford Ave,41.672384,-72.854406,meta,2025-06-02T07:00:00.000Z,0.242152466367713,a532a597-67b2-4e14-896f-f3439814e604,,,,OpenStreetMap,2024-11-12T23:26:19.000Z,,hartford,False
fbf313b6-f393-448e-ac6e-8ba8ec2b8684,Hartford HealthCare Rehabilitation Network,physical_therapy,"['hospital', 'laboratory_testing']",CT,Plainville,6062.0,440 New Britain Ave,41.6706765,-72.8316346,meta,2025-06-02T07:00:00.000Z,0.9459263554653524,,,,,,,,hartford,False
25d4a65b-4616-4066-bfe0-559159473ee6,Hartford HealthCare Medical Group,surgeon,"['vascular_medicine', 'doctor', 'health_and_medical']",CT,Plainville,6062.0,201 N Mountain Rd 203,41.6719177,-72.8224324,Microsoft,2018-05-14T06:14:57.383Z,0.77,,,,,,,,hartford,False
058b7df6-db4d-4c10-bfe3-d8eb429aea85,Hartford HealthCare Rehabilitation Network,physical_therapy,"['hospital', 'doctor']",CT,Plainville,6053.0,183 N Mountain Rd,41.6748078,-72.8227931,meta,2025-06-02T07:00:00.000Z,0.9300613496932516,,,,,,,,hartford,False
07ea74c5-a853-4ca4-8584-efb6d38ff102,Orthopedic Associates of Hartford,doctor,"['orthopedist', 'health_and_medical']",CT,Plainville,6062.0,201 N Mountain Rd,41.6747023,-72.8224535,meta,2025-06-02T07:00:00.000Z,0.9784508333782836,,,,,,,,hartford,False
f9725008-39bd-43af-ba6e-f21ddb759668,Hartford HealthCare Medical Group,family_practice,"['medical_center', 'doctor']",CT,Plainville,6062.0,201 N Mountain Rd,41.6747746,-72.8223296,meta,2025-06-02T07:00:00.000Z,0.9784508333782836,,,,,,,,hartford,False
daae3940-edb3-43e7-977e-9c9d79a0db89,Paint Social Art Hartford,art_gallery,"['arts_and_entertainment', 'bar']",CT,Farmington,6032.0,555 Main St,41.69332,-72.84857,meta,2025-06-02T07:00:00.000Z,0.3961437335670464,,,,,,,,hartford,False
6058b70c-a26a-4f45-add0-fdc303a3bbc3,"Raúl De Jesús Jr., Berkshire Hathaway HomeServices New England Properties Real Estate Hartford",real_estate_agent,,CT,Farmington,6032.0,340 Main St,41.7037826,-72.8436319,Microsoft,2025-05-16T16:30:23.880Z,0.77,11f0465a-7faf-4a62-9a23-6cedbf4a4dd2,,,,OpenStreetMap,2021-05-20T04:56:23.000Z,,hartford,False
57c1d1bf-92df-4925-bb1a-74eeabedc85e,Hartford Square Associates,property_management,['real_estate'],CT,New Britain,6052.0,1 Hartford Sq,41.666121,-72.8116211,meta,2025-06-02T07:00:00.000Z,0.9784508333782836,0052bb28-b578-452b-9656-49959e9fd517,,,,OpenStreetMap,2021-06-12T07:19:29.000Z,,hartford,False
61652c67-5842-4721-a3be-0c2549c2995b,Hartford Area Habitat For Humanity,social_service_organizations,"['professional_services', 'public_service_and_government']",CT,New Britain,6053.0,114 Burritt St,41.668329,-72.799227,meta,2025-06-02T07:00:00.000Z,0.3376623376623376,,,,,,,,hartford,False
f68b7068-eea1-42ee-a4d8-054ef5b16243,Hartford HealthCare Rehabilitation Network,hospital,"['physical_therapy', 'laboratory_testing']",CT,New Britain,6052.0,100 Grand St,41.6617357,-72.7867735,meta,2025-06-02T07:00:00.000Z,0.9415384615384615,70bd5731-23e9-455c-8ff4-15be120ac3c8,The Hospital of Central Connecticut,medical,hospital,OpenStreetMap,2024-11-14T05:42:27.000Z,,hartford,False
423eddb9-cd4c-4263-8b46-9eb879209e65,Hartford HealthCare Center for Healthy Aging,social_service_organizations,"['community_services_non_profits', 'senior_citizen_services']",CT,New Britain,6052.0,100 Grand St,41.6619308,-72.7866098,meta,2025-06-02T07:00:00.000Z,0.9297091412742382,70bd5731-23e9-455c-8ff4-15be120ac3c8,The Hospital of Central Connecticut,medical,hospital,OpenStreetMap,2024-11-14T05:42:27.000Z,,hartford,False
abd7639b-7126-4e2a-8729-f209ce5db93e,Hartford Healthcare,hospital,"['health_and_medical', 'doctor']",CT,New Britain,6051.0,183 Main St,41.6667392,-72.7815552,meta,2025-06-02T07:00:00.000Z,0.9459263554653524,ed77da8c-dd70-4de8-9256-ce6a654710da,,,,OpenStreetMap,2022-04-19T01:31:52.000Z,,hartford,False
bcd20402-7540-4802-8d2c-e391e6aecbe8,"New Britain, Hartford County, Connecticut",public_and_government_association,,,,0.0,,41.6735464,-72.7782946,meta,2025-06-02T07:00:00.000Z,0.5662921348314607,8fd85135-a381-4d36-83ff-76781ef47e36,,,,OpenStreetMap,2022-04-19T02:18:09.000Z,,hartford,False
5cab3ae0-42a8-4db1-ba11-9386bb343588,Greater Hartford Refugee Resettlement Coalition,community_services_non_profits,,CT,Farmington,6032.0,75 Main St,41.7212537,-72.8293186,meta,2025-06-02T07:00:00.000Z,0.242152466367713,e1d4f7e5-e71b-4f81-9074-8069055cbdf3,,,,OpenStreetMap,2021-05-20T04:56:27.000Z,,hartford,False
f246fcd0-ed37-47d8-9762-ee1ba9ebff23,Hartford Baking Co.,bakery,"['coffee_shop', 'tea_room']",CT,Farmington,6032.0,767 Farmington Ave,41.7252962,-72.8226688,meta,2025-06-02T07:00:00.000Z,0.9784508333782836,,,,,,,,hartford,False
9d7e8cf4-ee31-4a9d-b0b7-5fdde7ae696f,Hartford Connecticut Temple,religious_organization,['church_cathedral'],CT,Farmington,6032.0,2 Central Way,41.7377495,-72.844176,meta,2025-06-02T07:00:00.000Z,0.9784508333782836,e4caa187-3293-4f71-a3e9-6c221fa68388,Hartford Connecticut Temple,religious,temple,OpenStreetMap,2024-10-29T23:44:34.000Z,,hartford,False
5f2f150c-369f-4a1d-814d-617cbfb7d4dd,LDS Hartford Temple Site,religious_organization,,CT,Farmington,6032.0,2 Melrose Dr,41.737903,-72.84419,meta,2025-06-02T07:00:00.000Z,0.5662921348314607,e4caa187-3293-4f71-a3e9-6c221fa68388,Hartford Connecticut Temple,religious,temple,OpenStreetMap,2024-10-29T23:44:34.000Z,,hartford,False
d529dec2-1e58-4a1f-a03b-5e7fafba0daa,Autism Learning Partners Hartford,health_and_medical,,CT,Farmington,6032.0,1055 Farmington Ave # O6032,41.73433,-72.83933,Microsoft,2020-02-19T17:37:12.123Z,0.77,960859e9-440f-4369-b641-c86e20c7587e,,,,OpenStreetMap,2021-03-21T04:57:29.000Z,,hartford,False
c48a3b6b-0b1b-423a-921f-3a949fcec340,Hampton Inn & Suites Hartford/Farmington,hotel,"['event_planning', 'professional_services']",CT,Farmington,6032.0,301 Colt Hwy,41.7081019,-72.8164875,meta,2025-06-02T07:00:00.000Z,0.9784508333782836,92a3fd14-6821-450b-a663-7a44769ab19d,Hampton Inn & Suites Hartford/Farmington,,,OpenStreetMap,2024-03-15T10:32:03.000Z,,hartford,True
03ee0fac-6b04-4bb6-8477-983582c24908,Hartford Marriott Farmington,venue_and_event_space,"['resort', 'hotel']",CT,Farmington,6032.0,15 Farm Springs Rd,41.708058,-72.803908,Microsoft,2021-11-25T08:13:18.610Z,0.77,,,,,,,,hartford,False
fc4a5240-cdba-4f92-a595-4a44e35ca49a,Hartford Marriott Farmington,venue_and_event_space,"['resort', 'hotel']",CT,Farmington,6032.0,15 Farm Springs Rd,41.7128336,-72.8020562,Microsoft,2018-10-02T16:59:36.307Z,0.77,9b140b8b-8c46-4b98-9ba3-71abb4c7ec96,Hartford Marriott Farmington,,,OpenStreetMap,2025-05-02T09:32:43.000Z,,hartford,False
f58fc2f2-1735-4f1f-bbe0-67be5282b100,Hartford's Camp Courant,community_services_non_profits,"['youth_organizations', 'charity_organization']",CT,Farmington,6032.0,96 Batterson Park Rd,41.716385,-72.792519,meta,2025-06-02T07:00:00.000Z,0.5662921348314607,a31a6be0-4409-4c77-9adc-a4a39c17c236,,,,OpenStreetMap,2021-05-20T04:56:18.000Z,,hartford,False
d4ee2aa9-0c18-4181-8dbc-a34938064ca4,Orthopedic Associates of Hartford MRI,doctor,"['health_and_medical', 'orthopedist']",CT,Farmington,6032.0,399 Farmington Ave,41.7279844,-72.8013318,meta,2025-06-02T07:00:00.000Z,0.9784508333782836,b74db8d3-cfc7-42c4-a2c5-944123ffb48f,,commercial,commercial,OpenStreetMap,2023-10-10T20:17:56.000Z,,hartford,False
969b0c03-86d7-4e66-9575-00693a3cdf7e,Hartford Healthcare Rehabilitation Network,physical_therapy,"['hospital', 'laboratory_testing']",CT,Farmington,6032.0,406 Farmington Ave,41.7298477,-72.8011395,meta,2025-06-02T07:00:00.000Z,0.9459263554653524,,,,,,,,hartford,False
533a68ec-2517-4059-a5e5-a65e35d65739,Healthgrades Farmington/Hartford,software_development,,CT,Farmington,6032.0,308 Farmington Ave,41.73048093062632,-72.80098585061707,Microsoft,2020-05-28T17:34:11.017Z,0.77,,,,,,,,hartford,False
6c70ae90-79cb-4e35-8044-1acbebf8d9c4,Hartford HealthCare Heart & Vascular Institute,cardiologist,"['doctor', 'medical_center', 'health_and_medical']",CT,Farmington,6032.0,11 South Rd Ste 100,41.7281499,-72.79899,Microsoft,2025-05-06T16:57:31.320Z,0.77,780fa79b-ed0d-47de-ad7c-1e49cebae4cf,,commercial,commercial,OpenStreetMap,2021-03-21T04:57:34.000Z,,hartford,False
2f49e443-a18e-4f9e-9a29-bef86a225f6f,Homewood Suites by Hilton Hartford-Farmington,resort,['hotel'],CT,Farmington,6032.0,2 Farm Glen Blvd,41.7288753,-72.7999775,Microsoft,2024-05-08T01:32:58.077Z,0.77,,,,,,,,hartford,False
b6c8fa56-09c5-416f-87e2-83e11864c723,Homewood Suites by Hilton Hartford-Farmington,hotel,"['accommodation', 'travel']",CT,Farmington,6032.0,2 Farmglen Blvd,41.7304711,-72.7997841,meta,2025-06-02T07:00:00.000Z,0.9784508333782836,,,,,,,,hartford,False
4a2b2fa5-da3d-40cb-bf36-321e51edf8d8,UConn 4-H Hartford County,youth_organizations,"['community_services_non_profits', 'public_and_government_association']",CT,Farmington,6032.0,270 Farmington Ave,41.735751,-72.796734,meta,2025-06-02T07:00:00.000Z,0.5662921348314607,b8f3fe18-1e3b-45af-9926-136e1e13a2d5,,commercial,office,OpenStreetMap,2021-03-21T04:57:34.000Z,,hartford,False
3992892e-073d-435d-a81b-f3a76ca6e287,Gotcha Covered of West Hartford,home_improvement_store,,CT,West Hartford,0.0,,41.7401002,-72.807555,meta,2025-06-02T07:00:00.000Z,0.3313953488372093,49e38481-2f6d-4f38-8aca-32f61df55c6a,,,,OpenStreetMap,2021-03-21T04:57:31.000Z,,hartford,False
5a862cff-c387-4aed-8300-f9a81058a6b8,West Hartford,school,['education'],CT,Farmington,6032.0,11 Shuttle Rd,41.737492,-72.790575,meta,2025-06-02T07:00:00.000Z,0.3376623376623376,5e125507-91cd-494d-ac45-676c1589241a,Medical Examiner's Building,,,OpenStreetMap,2021-03-21T04:57:34.000Z,,hartford,False
62f0b4d4-99f6-4618-bd75-4d8bf04e4abf,Water Reservoir In West Hartford,active_life,"['structure_and_geography', 'sports_club_and_league']",CT,Farmington,0.0,,41.7478734,-72.7856045,meta,2025-06-02T07:00:00.000Z,0.4929396662387676,,,,,,,,hartford,False
45293bee-bc56-43c8-88cc-f80e3e036bd2,MDC West Hartford Reservoir,active_life,['structure_and_geography'],,,0.0,,41.7479541,-72.7851118,meta,2025-06-02T07:00:00.000Z,0.4929396662387676,,,,,,,,hartford,False
e6fb2e85-38b0-4769-97d9-9dd12d45bc81,Hartford Reservoir Number 1 Dam,park,"['structure_and_geography', 'active_life']",CT,West Hartford,6107.0,Farmington Avenue ,41.7480322,-72.7837354,meta,2025-06-02T07:00:00.000Z,0.3961437335670464,,,,,,,,hartford,False
9a1db322-2cad-4837-bb69-67139a2ee971,West Hartford Reservoir,park,"['structure_and_geography', 'hiking_trail']",CT,West Hartford,6107.0,"West Hartford Reservoir, 1420 Farmington Ave",41.7469967,-72.7798942,meta,2025-06-02T07:00:00.000Z,0.9784508333782836,,,,,,,,hartford,False
2865780f-d4f1-480a-b6cd-f24f8ab27ee6,Autumn Lake Healthcare at West Hartford,retirement_home,"['health_and_medical', 'hospital']",CT,West Hartford,6107.0,1 Emily Way,41.7426693,-72.7772988,meta,2025-06-02T07:00:00.000Z,0.9784508333782836,a09479df-5f9f-4c08-aff4-a047085d5fb0,,,,OpenStreetMap,2021-03-21T04:57:29.000Z,,hartford,False
71a0aede-aadd-46cc-8fd4-27c115e5aa01,Land Rover Hartford,automotive,,CT,Canton,6019.0,95 Albany Tpke,41.82415,-72.88359,Microsoft,2019-06-09T11:52:11.740Z,0.77,,,,,,,,hartford,False
6b1b15ed-9f7b-4fd7-be9f-3de9c20271ce,The Collinsville Antiques Co. of New Hartford,antique_store,,CT,Canton,6019.0,283 Albany Tpke,41.83051,-72.90421,meta,2025-06-02T07:00:00.000Z,0.3961437335670464,,,,,,,,hartford,False
9c61dab2-e03a-4b18-91a4-fe053185efcd,Land Rover Hartford,automotive,,CT,Canton,6019.0,95 Albany Tpke,41.82454,-72.88318,Microsoft,2025-05-24T05:13:45.630Z,0.77,13371ffc-3894-4ad7-93b0-88d4dad774cd,,,,OpenStreetMap,2021-06-12T22:53:06.000Z,,hartford,False
3472b2ce-4abc-42a8-828c-d928595acee8,Hartford Federal Credit Union,credit_union,"['bank_credit_union', 'banks']",CT,Simsbury,6092.0,29 Albany Tpke,41.8174256,-72.8695348,meta,2025-06-02T07:00:00.000Z,0.9784508333782836,2192a686-c737-41e8-8272-d4a7c6e7a04d,,,,OpenStreetMap,2021-06-12T22:53:06.000Z,,hartford,False
fc0d18de-e6f7-449f-b524-29e87f3a8f57,Hartford HealthCare-GoHealth Urgent Care,hospital,"['health_and_medical', 'emergency_room']",CT,Avon,6001.0,385 W Main St,41.8154091,-72.8644502,meta,2025-06-02T07:00:00.000Z,0.9784508333782836,7d4d8edd-9311-4d4c-96c3-5f94c5faf560,,,,OpenStreetMap,2019-12-28T14:11:22.000Z,,hartford,False
fce267fa-4a5b-4d4d-9973-48c9f43dda07,WTIC FM Hartford,radio_station,"['landmark_and_historical_building', 'broadcasting_media_production']",,,6001.0,,41.7741209,-72.8050617,meta,2025-06-02T07:00:00.000Z,0.9297091412742382,c008f2fb-1bba-4bd5-af21-9764241795ee,,,,OpenStreetMap,2021-03-04T02:47:40.000Z,,hartford,False
6c639e52-e806-4704-8039-b9b279fe889d,Hartford Area Pediatrics,pediatrician,"['doctor', 'health_and_medical']",CT,Avon,6001.0,21 Arts Center Ct,41.8127091,-72.834673,meta,2025-06-02T07:00:00.000Z,0.9784508333782836,8ea247b6-a54d-4f69-a50e-1fd4734d342c,,,,OpenStreetMap,2012-01-04T14:27:21.000Z,,hartford,False
46255d26-e7d8-4cdc-a4de-7e8c60be2222,Realtor West Hartford Erica Popick Kevrekian,real_estate_agent,"['real_estate', 'commercial_real_estate']",CT,Avon,6001.0,20 W Main St,41.810431,-72.8319945,meta,2025-06-02T07:00:00.000Z,0.9204819277108434,8aa1fed4-f93a-4c24-b2d1-86b14b87c33f,,,,OpenStreetMap,2024-11-25T01:11:51.000Z,,hartford,False
2f17d1c4-21f1-425e-a1fa-d37490bdcfa6,Residence Inn by Marriott Hartford Avon,resort,"['hotel', 'inn', 'motel']",CT,Avon,6001.0,55 Simsbury Rd,41.8122262,-72.831654,Microsoft,2018-10-02T16:59:36.307Z,0.77,,,,,,,,hartford,False
42a2a20d-73f9-43a8-afe3-4d23ec955b9f,Residence Inn by Marriott Hartford Avon,hotel,"['accommodation', 'business']",CT,Avon,6001.0,55 Simsbury Rd,41.8130125,-72.8302938,meta,2025-06-02T07:00:00.000Z,0.9784508333782836,,,,,,,,hartford,False
91813c83-b1c7-49e9-821b-737a5bd49d2c,William Pitt Sotheby's International Realty - Hartford County Regional Brokerage,real_estate_agent,,CT,Avon,6001.0,45 E Main Street,41.8074294,-72.8274159,Microsoft,2025-04-17T16:57:51.760Z,0.77,32b48fa0-97fe-4ade-8a2e-248d224e3697,,,,OpenStreetMap,2021-03-04T02:47:40.000Z,,hartford,False
c9be2d80-c7f8-47c0-945c-3d5fa280c0bf,AAA Hartford,insurance_agency,['travel_services'],CT,Avon,6001.0,70 E Main St,41.8081811,-72.8264472,meta,2025-06-02T07:00:00.000Z,0.9784508333782836,,,,,,,,hartford,False
f577c1c1-c991-40fe-8bca-6048d90b0cb3,"Radiology Associates of Hartford, P.C. - Avon Office",radiologist,"['doctor', 'medical_center', 'health_and_medical']",CT,Avon,6001.0,35 Nod Rd Ste 101,41.8073473,-72.8175535,Microsoft,2021-10-06T18:51:56.573Z,0.77,52b465c5-cfa3-4dc6-9f6a-c97f872c1714,,,,OpenStreetMap,2021-03-04T02:47:36.000Z,,hartford,True
2b908783-c1dc-4076-b69a-cd06b772cb30,Hartford HealthCare Medical Group,urologist,"['doctor', 'medical_center', 'health_and_medical']",CT,Avon,6001.0,339 W Main St,41.81451,-72.86083,Microsoft,2025-05-03T12:35:42.647Z,0.77,f6cfb6ac-064e-492a-8707-13665eb3366d,,commercial,commercial,OpenStreetMap,2024-07-30T00:08:56.000Z,,hartford,False
18c38270-5a72-4b35-9c28-065ecb173564,Hartford Specialists,naturopathic_holistic,"['health_and_medical', 'hospital']",CT,Avon,6001.0,339 W Main St,41.814551,-72.860711,meta,2025-06-02T07:00:00.000Z,0.5662921348314607,f6cfb6ac-064e-492a-8707-13665eb3366d,,commercial,commercial,OpenStreetMap,2024-07-30T00:08:56.000Z,,hartford,False
b6dc31c7-acc9-43ea-87b2-612e440412b1,Ketamine Center of Greater Hartford,hospital,"['counseling_and_mental_health', 'doctor']",CT,Avon,6001.0,302 W Main St,41.8150501,-72.856652,meta,2025-06-02T07:00:00.000Z,0.9415384615384615,,,,,,,,hartford,False
7d9c3029-ebf2-4765-a7c0-83d9d1b67c48,Hartford HealthCare Cancer Institute,hospital,"['medical_center', 'doctor']",CT,Avon,6001.0,80 Fisher Dr,41.8170135,-72.8325924,meta,2025-06-02T07:00:00.000Z,0.9784508333782836,01789542-dc1f-4a72-b125-2d9ce07b74ae,,,,OpenStreetMap,2021-03-02T17:58:09.000Z,,hartford,False
61df1a03-6c7b-4a99-a89a-7183cfdf85de,Hartford HealthCare Rehabilitation Network,physical_therapy,"['professional_services', 'hospital']",CT,Avon,6001.0,100 Simsbury Rd,41.8170124,-72.8292124,meta,2025-06-02T07:00:00.000Z,0.9204819277108434,76034a78-d5fa-482a-a35c-24f9b39e20d9,,,,OpenStreetMap,2023-07-17T04:48:52.000Z,,hartford,False
f8eebedb-888a-4cf1-a07c-cce3043b63ce,Hartford Hospital Wellness Center At Avon,gym,['hospital'],CT,Avon,6001.0,100 Simsbury Rd,41.817209,-72.829255,meta,2025-06-02T07:00:00.000Z,0.5662921348314607,76034a78-d5fa-482a-a35c-24f9b39e20d9,,,,OpenStreetMap,2023-07-17T04:48:52.000Z,,hartford,False
963dfc86-d06c-412f-842a-47b0db59fc89,Greater Hartford Wellness,health_and_medical,,CT,Avon,6001.0,40 Avon Meadow Ln,41.8209597,-72.8277266,meta,2025-06-02T07:00:00.000Z,0.9459263554653524,5a42efa9-2f1a-4817-a3e5-1c6693d21e0a,,,,OpenStreetMap,2021-03-02T17:58:12.000Z,,hartford,False
ef4b4555-c832-41ee-a09c-1a6628a9dcd3,Radiology Associates Hartford,radiologist,"['doctor', 'health_and_medical']",CT,Avon,6001.0,35 Nod Rd,41.8072243,-72.816867,meta,2025-06-02T07:00:00.000Z,0.9784508333782836,,,,,,,,hartford,False
8fe8abba-827e-4f62-9912-46612ec4f8fb,West Hartford Reservoir 6,hiking_trail,"['dog_park', 'structure_and_geography']",,,6117.0,3022 Albany Ave,41.7922712,-72.7850946,meta,2025-06-02T07:00:00.000Z,0.7548172757475083,,,,,,,,hartford,False
5858dab6-6945-417f-ae5f-64ebf3c930fa,Extended Stay America Hotel Hartford - Meriden,resort,"['hotel', 'motel']",CT,Meriden,6450.0,366 Bee St,41.53934,-72.76561,Microsoft,2019-05-25T13:22:12.190Z,0.77,d59c6a36-e558-4b19-a6b4-21aca86b18f8,,,,OpenStreetMap,2021-06-18T06:09:14.000Z,,hartford,False
5d3235d1-f619-49f9-acbb-6a12f5edd157,Hartford HealthCare-GoHealth Urgent Care,emergency_room,"['ambulance_and_ems_services', 'allergist']",CT,Middletown,6457.0,752 Washington St,41.5548236,-72.6773027,meta,2025-06-02T07:00:00.000Z,0.7548172757475083,,,,,,,,hartford,False
2112ef67-9bf8-42df-a51a-b4d59a3ad94f,Hartford HealthCare Heart & Vascular Institute,cardiologist,"['doctor', 'health_and_medical']",CT,Middletown,6457.0,420 Saybrook Rd,41.5440287,-72.6260691,Microsoft,2025-04-23T19:23:19.940Z,0.77,25fa2393-5e18-4a7f-a956-53d1dd9cd0e0,,,,OpenStreetMap,2025-04-10T12:57:33.000Z,,hartford,False
1dccf3c5-df1f-48af-9fce-f03e36c548d2,Elizabeth Park West Hartford Ct,park,"['public_plaza', 'national_park']",CT,Berlin,0.0,,41.5840645,-72.7611428,meta,2025-06-02T07:00:00.000Z,0.5662921348314607,43499447-082c-4f8d-8fc8-9e3cc43db31d,,,,OpenStreetMap,2021-07-05T22:13:46.000Z,,hartford,False
acbeb4d4-0b65-43f9-afcb-ef92dfe80749,Islamic Association of Greater Hartford,mosque,['religious_organization'],CT,Berlin,6037.0,1781 Berlin Tpke,41.6030188,-72.7515058,meta,2025-06-02T07:00:00.000Z,0.9784508333782836,de40d21a-4ffa-40a1-a007-dbaefec192ba,Islamic Association of Greater Hartford Berlin Mosque,religious,,OpenStreetMap,2021-05-18T05:10:36.000Z,,hartford,False
69cf81da-c0b6-4ff9-a5be-d632c886d217,ModSpace Hartford,building_supply_store,"['business_equipment_and_supply', 'business_to_business', 'retail']",CT,Middletown,6457.0,85 Kenneth Dooley Dr,41.5878667,-72.7271632,Microsoft,2013-10-21T18:03:08.007Z,0.77,,,,,,,,hartford,False
2a75c440-7dcb-4581-8887-6ebba2fe6237,WillScot Hartford,building_supply_store,"['machine_and_tool_rentals', 'retail']",CT,Middletown,6457.0,85 Kenneth Dooley Dr,41.58845,-72.7253,Microsoft,2019-05-22T19:40:14.217Z,0.77,be5eb135-7fda-46e3-9017-9915690d7247,,,,OpenStreetMap,2019-08-31T10:00:10.000Z,,hartford,False
65e40ab1-62ac-4153-8fe5-3c92756500bc,"Delta-T Group Hartford, Inc.",temp_agency,['employment_agencies'],CT,Middletown,6457.0,101 Centerpoint Dr Ste 109,41.5913373,-72.7126825,Microsoft,2020-02-15T12:36:11.507Z,0.77,,,,,,,,hartford,False
44326ada-121f-4a28-be72-88960be38154,Autism Learning Partners Hartford,child_psychiatrist,"['psychiatrist', 'doctor', 'health_and_medical']",CT,Middletown,6457.0,101 Centerpoint Dr Ste 243,41.59157,-72.71256,Microsoft,2020-02-19T17:38:05.420Z,0.77,9482ce95-0ba9-4f44-9e92-c0c999e7afba,,,,OpenStreetMap,2025-04-07T07:59:40.000Z,,hartford,False
e505d493-a2f5-4074-91b6-e107e7b12a3e,Hartford HealthCare Rehabilitation Network,physical_therapy,['health_and_medical'],CT,Cromwell,6416.0,136 Berlin Rd,41.60683,-72.70861,Microsoft,2025-05-03T04:55:19.407Z,0.77,,,,,,,,hartford,False
002ca9a2-56f0-4563-ae47-3f3fa8cedc70,Hartford Wolf Pack Hockey Club,sports_club_and_league,"['active_life', 'stadium_arena']",CT,Cromwell,6416.0,6 Progress Dr,41.6139843,-72.7100059,meta,2025-06-02T07:00:00.000Z,0.9204819277108434,,,,,,,,hartford,False
747fbc70-e6e7-4ba0-899d-9d024c3073d6,Springhill Suites by Marriott Hartford Cromwell,hotel,"['accommodation', 'travel_company']",CT,Cromwell,6416.0,76 Berlin Rd,41.6022167,-72.693014,meta,2025-06-02T07:00:00.000Z,0.9784508333782836,,,,,,,,hartford,False
50cefdf3-e3f6-4665-821c-2fcbc11a5b3f,Molly Maid of Farmington and Greater Hartford,home_cleaning,,CT,Cromwell,6416.0,40 Country Squire Dr 1-B,41.6029246,-72.6878439,Microsoft,2023-03-10T17:40:44.833Z,0.77,,,,,,,,hartford,False
cd00c9dd-f94e-4505-a669-3d519329db65,Molly Maid of Farmington and Greater Hartford,home_cleaning,"['home_service', 'home_improvement_store']",CT,Cromwell,6416.0,40 Country Squire Dr,41.603171,-72.6877389,meta,2025-06-02T07:00:00.000Z,0.9415384615384615,64800a60-d32c-4d87-b987-4623cca18749,,,,OpenStreetMap,2021-01-17T06:52:34.000Z,,hartford,False
e0fe2d04-0dd8-49a4-9ca6-927b044ecaa5,Courtyard by Marriott Hartford Cromwell,hotel,"['accommodation', 'travel']",CT,Cromwell,6416.0,4 Sebethe Dr,41.6070744,-72.7061923,meta,2025-06-02T07:00:00.000Z,0.9784508333782836,f6ef587d-7dce-4c6a-8749-ddac2310bef3,Courtyard Hartford Cromwell,,,OpenStreetMap,2025-04-18T19:47:37.000Z,,hartford,False
c86c1edd-685a-47c6-9824-18d9ea3e59e0,Hartford Metal Company,building_supply_store,['metal_supplier'],CT,Cromwell,6416.0,30 Sebethe Dr,41.6096376,-72.7070287,meta,2025-06-02T07:00:00.000Z,0.9784508333782836,,,,,,,,hartford,True
ff23675e-b2d7-48ca-a26b-dc23fad936a6,Hartford HealthCare-GoHealth Urgent Care,hospital,"['emergency_room', 'health_and_medical']",CT,Berlin,6037.0,175 Webster Square Rd,41.6301513,-72.7454053,meta,2025-06-02T07:00:00.000Z,0.9784508333782836,,,,,,,,hartford,False
8f2cf62b-1501-49de-824c-c04c1e98422a,Hartford HealthCare Medical Group,plastic_surgeon,"['doctor', 'hospital', 'surgical_center', 'health_and_medical']",CT,Berlin,6037.0,211 New Britain Rd Ste 206,41.6429403,-72.7696325,Microsoft,2025-05-06T16:58:11.407Z,0.77,bfedab3b-5609-457f-8fe3-aefbbce9e7fd,,,,OpenStreetMap,2024-09-02T01:30:18.000Z,,hartford,False
49566b30-ba5d-4e6f-bc78-b1273298c42d,Copart - Hartford,auto_manufacturers_and_distributors,"['b2b_autos_and_vehicles', 'car_auction', 'automotive', 'business_to_business']",CT,New Britain,6051.0,138 Christian Ln,41.6512828320265,-72.7517504990101,Microsoft,2017-12-28T19:39:24.447Z,0.77,,,,,,,,hartford,False
5f9405d9-a84d-44e3-aee7-047faa16a8e3,Cash For Cars - Hartford,towing_service,['automotive'],CT,New Britain,6051.0,138 Christian Lane Ste B,41.6505016,-72.7505764,Microsoft,2023-12-19T07:06:50.890Z,0.77,20d755b1-bc52-4734-bc0c-6f4f391e43f1,,,,OpenStreetMap,2021-06-12T07:19:47.000Z,,hartford,False
10ef0459-85f8-4334-a4ff-c32fe9dc47ba,SERVPRO of Newington / Central Hartford,fire_and_water_damage_restoration,['damage_restoration'],CT,Newington,6111.0,11 Progress Cir,41.655353,-72.7384361,Microsoft,2021-09-23T14:50:46.667Z,0.77,f30fbd86-2c1a-453d-9ab2-59dd8fb92151,,,,OpenStreetMap,2021-07-13T02:26:46.000Z,,hartford,False
3057ef87-83fe-4157-9ee4-03af99aa3207,"Delta-T Group Hartford, Inc",temp_agency,['employment_agencies'],CT,Middletown,6457.0,101 Centerpoint Dr Ste 112,41.5793434361969,-72.6724243164062,Microsoft,2024-12-10T14:35:39.913Z,0.77,,,,,,,,hartford,False
f58d35ef-f107-4fca-ac92-158b2d46a978,Greater Hartford Business Development Group,automotive_repair,"['auto_company', 'truck_repair']",CT,Middletown,6457.0,1260 Newfield St,41.5931705,-72.6749844,meta,2025-06-02T07:00:00.000Z,0.3376623376623376,286f4117-5a6e-4b46-a6be-fd54365b4271,NAPA Auto Parts,,,OpenStreetMap,2025-04-09T04:49:14.000Z,,hartford,False
81fba7bd-43fb-41f3-9e2e-cb6f8e89a9fb,Hartford HealthCare-GoHealth Urgent Care,emergency_room,"['medical_center', 'diagnostic_services']",CT,Cromwell,6416.0,28 Shunpike Rd,41.6006922,-72.6756658,meta,2025-06-02T07:00:00.000Z,0.9784508333782836,58907e5f-2e1c-43ba-b99f-670395b666d8,,commercial,commercial,OpenStreetMap,2019-05-28T10:17:55.000Z,,hartford,False
6db14357-8e71-4df5-9481-1daed09d853a,AAA Hartford,insurance_agency,['travel_services'],CT,Cromwell,6416.0,34 Shunpike Rd,41.6017398,-72.6758873,meta,2025-06-02T07:00:00.000Z,0.9784508333782836,,,,,,,,hartford,False
7340de84-62ce-496d-af11-2ae0ef18cfbf,Hartford Elevator,industrial_equipment,"['construction_services', 'professional_services']",CT,Cromwell,6416.0,51 Nooks Hill Rd,41.611847,-72.643612,meta,2025-06-02T07:00:00.000Z,0.3961437335670464,b772a91a-1ec9-4f72-9602-397d9617b008,,,,OpenStreetMap,2021-07-06T02:11:49.000Z,,hartford,False
a3469ee7-c036-489b-9d55-490cd849b69a,Hartford Elevator,elevator_service,['business'],CT,Rocky Hill,6067.0,1275 Cromwell Ave,41.6353876,-72.6770457,meta,2025-06-02T07:00:00.000Z,0.9204819277108434,,,,,,,,hartford,False
59406bb5-7241-400d-9268-309d2080e9bb,DirectBuy of Hartford,home_improvement_store,['retail'],CT,Rocky Hill,6067.0,50 Inwood Rd,41.637076,-72.678167,Microsoft,2014-12-05T17:03:22.977Z,0.77,0d602782-a3c4-4149-9702-faa7da82802c,,,,OpenStreetMap,2021-07-13T02:26:44.000Z,,hartford,False
c3710ece-ab30-446f-b1b7-03b2d46a96ab,Jani-King | Commercial Cleaning & Janitorial Services in Hartford,janitorial_services,"['home_cleaning', 'cleaning_services']",CT,Rocky Hill,6067.0,40 Cold Spring Rd,41.6426264324,-72.6795502496,Microsoft,2025-05-18T17:23:03.093Z,0.77,e190d76f-87d0-4e86-a5ff-a8f037227c0c,,,,OpenStreetMap,2021-07-13T02:26:46.000Z,,hartford,False
d70924c2-4159-4df3-89c7-b74eaf42354f,Schindler Elevators & Escalators in Hartford,business_equipment_and_supply,"['elevator_service', 'business_to_business']",CT,Rocky Hill,6067.0,850 Brook St,41.641453,-72.6763216,Microsoft,2025-02-10T17:16:20.607Z,0.77,,,,,,,,hartford,False
07d27f02-1882-4e0e-8350-9c4c5c1d117d,Hartford Orthopedic 150 Enterprise Rd Rocky Hill Ct,orthopedist,,CT,Rocky Hill,0.0,,41.6462367,-72.6660851,meta,2025-06-02T07:00:00.000Z,0.4929396662387676,b2191109-4f7b-47bc-a880-9df3583cbb6b,,,,OpenStreetMap,2021-09-27T03:31:19.000Z,,hartford,False
54d22dd8-3413-4d4a-9d9d-4e3c253b82df,Regus - Hartford South - Rocky Hill,property_management,['commercial_real_estate'],CT,Rocky Hill,6067.0,175 Capital Blvd,41.6490487,-72.6658367,meta,2025-06-02T07:00:00.000Z,0.9459263554653524,5764aaff-e726-42ca-89a1-aebeae120f59,,,,OpenStreetMap,2021-07-13T02:27:08.000Z,,hartford,False
ba6b065c-2652-4055-ac88-dec7434c98db,Hampton Inn & Suites Rocky Hill - Hartford South,resort,"['hotel', 'inn', 'motel']",CT,Rocky Hill,6067.0,685 Cromwell Ave,41.6516494,-72.6801278,Microsoft,2022-08-30T17:34:33.647Z,0.77,e7fb62db-7ecc-4ac5-b6f8-78df04b64d3a,Hampton Inn & Suites,,,OpenStreetMap,2024-03-15T10:32:03.000Z,,hartford,False
f7d949bb-5a6a-44cb-8ce8-69120f9d5364,Residence Inn by Marriott Hartford Rocky Hill,hotel,"['accommodation', 'business']",CT,Rocky Hill,6067.0,680 Cromwell Ave,41.6511634,-72.6795555,meta,2025-06-02T07:00:00.000Z,0.9784508333782836,,,,,,,,hartford,False
281fcd1b-dc4f-46d0-93e0-526cab7eb648,Hampton Inn & Suites Rocky Hill - Hartford South,hotel,"['transportation', 'accommodation']",CT,Rocky Hill,6067.0,685 Cromwell Ave,41.651695,-72.6799728,meta,2025-06-02T07:00:00.000Z,0.9784508333782836,e7fb62db-7ecc-4ac5-b6f8-78df04b64d3a,Hampton Inn & Suites,,,OpenStreetMap,2024-03-15T10:32:03.000Z,,hartford,False
e15a62f4-754e-4222-8976-1559b9027e58,Greater Hartford Women's Health,retirement_home,"['health_and_medical', 'family_practice']",CT,Rocky Hill,6067.0,546 Cromwell Ave,41.6556211,-72.6787419,meta,2025-06-02T07:00:00.000Z,0.9204819277108434,85bc1a6a-e2d0-4c60-bc53-fc5271821d46,Rocky Hill Medical Offices,commercial,office,OpenStreetMap,2025-04-08T11:24:00.000Z,,hartford,True
9b42e997-9729-421b-9020-0b8ca1d62cda,Greater Hartford Orthopedic Group,doctor,"['hospital', 'family_practice']",CT,Rocky Hill,6067.0,506 Cromwell Ave,41.656594,-72.678462,meta,2025-06-02T07:00:00.000Z,0.5662921348314607,ef47654e-58f0-40f6-b810-c8bdc309763e,Saint Francis Healthcare,medical,,OpenStreetMap,2025-04-08T11:24:00.000Z,,hartford,False
a906432c-ff97-4be6-9928-45ecd25164a3,Hartford Technologies Inc.,metal_supplier,"['industrial_company', 'commercial_industrial']",CT,Rocky Hill,6067.0,1022 Elm St,41.6554806,-72.6750221,meta,2025-06-02T07:00:00.000Z,0.9784508333782836,129f220d-6644-4904-86c3-6e4dffff284e,,,,OpenStreetMap,2021-07-13T02:26:48.000Z,,hartford,False
2418a329-e8b5-4fea-95cd-a9520c5792d8,Sheraton Hartford South Hotel,hotel,"['accommodation', 'business']",CT,Rocky Hill,6067.0,100 Capital Blvd,41.6498557,-72.6685783,meta,2025-06-02T07:00:00.000Z,0.9784508333782836,99961401-2119-4a6f-9f2f-63bd2ddf050d,Sheraton,,,OpenStreetMap,2024-02-06T05:27:23.000Z,,hartford,False
6bfac1d6-d2c7-42a2-8afc-876d3fc28b11,Hartford Yacht Club,active_life,"['marina', 'community_services_non_profits']",CT,Portland,6073.0,1210 Tryon St,41.6330389,-72.6277346,meta,2025-06-02T07:00:00.000Z,0.9784508333782836,370fe55d-d9c6-4d0e-9d70-2de801cbc200,,,,OpenStreetMap,2021-07-01T16:54:35.000Z,,hartford,False
6e4ff873-2c84-4657-8620-916fdccc411a,Hartford County 4-H Camp,campground,"['active_life', 'community_services_non_profits']",CT,Marlborough,6447.0,247 South Rd,41.5918354,-72.4256413,meta,2025-06-02T07:00:00.000Z,0.9459263554653524,212235a9-0e6b-4711-9d2d-3e5bc5741f25,,,,OpenStreetMap,2022-03-16T04:24:57.000Z,,hartford,False
9aa77d7a-1fa5-40b5-9d6b-b66abdee8480,First General Services of Hartford & Eastern Connecticut,damage_restoration,['contractor'],CT,Marlborough,6447.0,5 Austin Dr,41.646421,-72.479045,meta,2025-06-02T07:00:00.000Z,0.242152466367713,f93740eb-1e8e-412d-8c17-de062c3c250e,,,,OpenStreetMap,2021-08-01T18:40:44.000Z,,hartford,False
fedc5a8e-0028-46ec-8829-1617b8740235,Hy's Limousine Hartford,airport_terminal,"['limo_services', 'travel_agents', 'travel']",CT,New Britain,6051.0,980 Stanley St,41.674613,-72.772372,Microsoft,2013-01-29T04:03:03.453Z,0.77,,,,,,,,hartford,False
5b96fd7d-0a8c-4e9d-9f93-4ba6d024fe9a,Casa Do Benfica Hartford,social_service_organizations,['sports_club_and_league'],CT,New Britain,6051.0,30 Charles St,41.6729799,-72.7551611,meta,2025-06-02T07:00:00.000Z,0.9459263554653524,,,,,,,,hartford,False
7a0918d0-14e8-43e0-9f98-ca19124101f4,WoodSpring Suites Newington - Hartford South,hotel,['accommodation'],CT,Newington,6111.0,712 Cedar St,41.6946749,-72.7561387,meta,2025-06-02T07:00:00.000Z,0.93,,,,,,,,hartford,False
279a8e1f-f81f-4a65-b11b-9896cffeb6f0,Hartford HealthCare Rehabilitation Network,physical_therapy,"['occupational_therapy', 'hospital']",CT,Newington,6111.0,40 Fenn Rd,41.6970135,-72.7551804,meta,2025-06-02T07:00:00.000Z,0.9784508333782836,a1d589c1-72ae-46d4-90f2-661b61d3a32a,,commercial,retail,OpenStreetMap,2021-06-12T07:19:51.000Z,,hartford,False
287386f8-75ad-47e3-a544-4ce7a7659b88,Hartford HealthCare-GoHealth Urgent Care,hospital,"['emergency_room', 'family_practice']",CT,Newington,6111.0,40 Fenn Rd,41.6971667,-72.755106,meta,2025-06-02T07:00:00.000Z,0.9784508333782836,a1d589c1-72ae-46d4-90f2-661b61d3a32a,,commercial,retail,OpenStreetMap,2021-06-12T07:19:51.000Z,,hartford,False
153b0b6a-e6c3-4b8f-85f2-cba9d44bba5b,VA Regional Office Hartford,public_and_government_association,['post_office'],CT,Newington,0.0,,41.7022912,-72.7403484,meta,2025-06-02T07:00:00.000Z,0.4929396662387676,a4b23445-f4e5-43ca-b73f-d9ff578cd7d3,,,,OpenStreetMap,2019-11-01T05:27:35.000Z,,hartford,False
c0cb9083-e48e-497c-b628-fd29bf1b49c9,Hartford HealthCare-GoHealth Urgent Care,hospital,"['emergency_room', 'medical_center']",CT,Newington,6111.0,3219 Berlin Tpke,41.6607007,-72.7232077,meta,2025-06-02T07:00:00.000Z,0.9784508333782836,,,,,,,,hartford,False
2776d594-2498-4328-a2d8-b627c4a32d67,I-84 Hartford Project,public_and_government_association,['community_services_non_profits'],CT,Newington,6111.0,2800 Berlin Tpke,41.6732722,-72.7143787,meta,2025-06-02T07:00:00.000Z,0.5662921348314607,ea14ec90-b430-4721-af29-55699a05a11d,State of Connecticut Department of Transportation,,,OpenStreetMap,2022-05-15T00:50:45.000Z,,hartford,False
87e267f6-ef38-40cf-abb7-c53e3128b2e6,Holiday Inn Express Newington - Hartford,hotel,"['accommodation', 'travel_company']",CT,Newington,6111.0,2553 Berlin Tpke,41.6810347,-72.7124839,meta,2025-06-02T07:00:00.000Z,0.9784508333782836,1bd4f6d5-e6c3-4a14-b367-7db9943de438,Holiday Inn Express Newington,,,OpenStreetMap,2024-03-25T10:40:40.000Z,,hartford,False
e7521b5f-eb90-4462-9650-2bb17144332f,Hartford Therapeutic Massage & Wellness Center LLC,naturopathic_holistic,['spas'],CT,Newington,6111.0,1268 Main St,41.6946088,-72.7222137,meta,2025-06-02T07:00:00.000Z,0.7548172757475083,fd73dd21-e0ff-4cb5-be3f-c4ff4fccdcd6,,,,OpenStreetMap,2021-07-19T01:02:46.000Z,,hartford,False
566dd795-ce16-4a82-b507-62b3d69f1323,Hartford Hospital,health_and_medical,"['hospital', 'veterinarian']",CT,Newington,6111.0,1 John Stewart Dr,41.6955,-72.714865,meta,2025-06-02T07:00:00.000Z,0.5662921348314607,0094bd88-d7a6-4b4e-854d-b92709188baf,,,,OpenStreetMap,2021-07-19T01:02:43.000Z,,hartford,False
951a4d6e-30b3-414f-b303-9dfada4672bf,Hartford HealthCare,health_department,['health_and_medical'],CT,Newington,6111.0,181 Patricia M Genova Dr,41.6988088,-72.7147607,meta,2025-06-02T07:00:00.000Z,0.9297091412742382,,,,,,,,hartford,False
4b3c96e3-b30a-419e-8bba-3bfe7e95b3a8,Hartford Veterinary Hospital,veterinarian,"['pet_services', 'hospital']",CT,Newington,6111.0,2300 Berlin Tpke,41.6899479,-72.7060554,meta,2025-06-02T07:00:00.000Z,0.9784508333782836,,,,,,,,hartford,False
39dfbfda-c538-4328-9e4d-9a4575fcc6aa,"Dryer Vent Wizard of Hartford, Tolland, & Windham Counties",air_duct_cleaning_service,,CT,Wethersfield,6109.0,44 Desmond Dr,41.7011528015137,-72.6945419311523,Microsoft,2016-12-01T21:20:27.877Z,0.77,,,,,,,,hartford,False
a34cb44d-8c72-4d18-bf27-b6140926d59e,Mattress Firm Hartford Road,furniture_store,['mattress_store'],CT,New Britain,6053.0,470 Hartford Rd,41.7109506,-72.7662391,meta,2025-06-02T07:00:00.000Z,0.9204819277108434,,,,,,,,hartford,False
1a90884d-8802-4924-a15e-4f0343e8c872,Courtyard Hartford Farmington,venue_and_event_space,"['resort', 'hotel', 'motel']",CT,Farmington,6032.0,1583 Southeast Road,41.716617,-72.762955,Microsoft,2025-04-17T15:35:33.213Z,0.77,,,,,,,,hartford,False
6994dde9-41fc-4ec0-b990-b75d812e3447,"EverPresent Hartford, CT",photography_store_and_services,"['duplication_services', 'video_film_production', 'retail']",CT,West Hartford,6110.0,1500 New Britain Ave,41.7221095,-72.7627319,Microsoft,2019-06-08T09:32:30.177Z,0.77,,,,,,,,hartford,False
5a443548-becd-4247-ae91-4c4785bbabb5,Vineyard Vines West Hartford,clothing_store,"['winery', 'shopping']",CT,Farmington,6032.0,1500 New Britain Ave,41.7227776,-72.7627179,meta,2025-06-02T07:00:00.000Z,0.9784508333782836,a2028eff-ab5c-458f-94aa-d24bc9174d80,Westfarms,,,OpenStreetMap,2022-10-02T22:10:54.000Z,,hartford,False
6af96f36-e942-4130-9e62-43e7463da5bf,"EverPresent Hartford, CT",photography_store_and_services,"['duplication_services', 'video_film_production', 'retail']",CT,West Hartford,6110.0,1500 New Britain Ave,41.72318,-72.76288,Microsoft,2025-05-24T04:46:50.750Z,0.77,a2028eff-ab5c-458f-94aa-d24bc9174d80,Westfarms,,,OpenStreetMap,2022-10-02T22:10:54.000Z,,hartford,False
5967b60e-083b-423d-a307-b9bc4b78137a,Courtyard by Marriott Hartford Farmington,hotel,"['accommodation', 'travel']",CT,Farmington,6032.0,1583 Southeast Rd,41.7172058,-72.7616129,meta,2025-06-02T07:00:00.000Z,0.9784508333782836,8ce78d65-c5ef-4ef1-92c6-1c0a15217b3d,,outbuilding,roof,OpenStreetMap,2022-05-12T10:22:05.000Z,,hartford,False
5967b60e-083b-423d-a307-b9bc4b78137a,Courtyard by Marriott Hartford Farmington,hotel,"['accommodation', 'travel']",CT,Farmington,6032.0,1583 Southeast Rd,41.7172058,-72.7616129,meta,2025-06-02T07:00:00.000Z,0.9784508333782836,9c71cd55-ff55-400c-995a-a3604e94ac61,Courtyard Hartford Farmington,,,OpenStreetMap,2024-03-22T02:25:37.000Z,,hartford,False
408015bf-eb33-44c9-a4f4-6f5ccc8dac87,Peloton - West Hartford,fitness_exercise_equipment,['retail'],CT,West Hartford,6110.0,1500 New Britain Ave,41.72309,-72.76212,Microsoft,2022-10-12T22:07:13.787Z,0.77,a2028eff-ab5c-458f-94aa-d24bc9174d80,Westfarms,,,OpenStreetMap,2022-10-02T22:10:54.000Z,,hartford,False
95935986-79e1-41d7-8073-d4cab414fa86,Hartford HealthCare-GoHealth Urgent Care,medical_center,"['urgent_care_clinic', 'public_health_clinic', 'health_and_medical']",CT,West Hartford,6110.0,1445 New Britain Ave Ste 1381,41.7232377,-72.7585723,Microsoft,2025-04-30T10:25:53.183Z,0.77,3b2bf3b8-fc6e-48c0-9650-83976a7bc381,Best Buy,commercial,retail,OpenStreetMap,2024-07-28T01:44:42.000Z,,hartford,False
5b9b376e-0eee-4f5c-aef4-9fdaf344d543,"EverPresent Hartford, CT",photography_store_and_services,"['duplication_services', 'video_film_production', 'retail']",CT,West Hartford,6110.0,1500 New Britain Ave,41.725284,-72.761258,Microsoft,2018-03-16T14:46:06.537Z,0.77,,,,,,,,hartford,False
066ed643-5f12-4992-955b-6450014453eb,Hartford Hospital Eye Surgery Center,surgeon,"['doctor', 'medical_center', 'optometrist', 'surgical_center', 'health_and_medical']",CT,Newington,6111.0,505 Willard Ave Ste 3,41.7041462,-72.7353258,Microsoft,2025-05-05T01:45:01.597Z,0.77,,,,,,,,hartford,False
74caa5b4-e2e6-410d-a52e-f2ee29329570,Greater Hartford Orthodontics: Dr. Edward Cos,dentist,"['orthodontist', 'cosmetic_dentist']",CT,Newington,6111.0,365 Willard Ave,41.7082072,-72.736665,meta,2025-06-02T07:00:00.000Z,0.9784508333782836,3ccb76da-f67c-4563-a300-15d939c4117c,,,,OpenStreetMap,2021-07-19T01:02:38.000Z,,hartford,False
da0661cb-4c18-4097-a068-14a4e8d91f40,Hartford HealthCare Medical Group,medical_center,"['health_and_medical', 'business_to_business']",CT,Newington,6111.0,365 Willard Ave Ste 2D,41.70848,-72.73686,Microsoft,2025-05-06T05:52:42.120Z,0.77,3ccb76da-f67c-4563-a300-15d939c4117c,,,,OpenStreetMap,2021-07-19T01:02:38.000Z,,hartford,False
6094ef2d-bd31-4ad7-a802-6fd870521ca5,Town of West Hartford,public_service_and_government,"['public_and_government_association', 'pub']",CT,West Hartford,6110.0,71 Wolcott Rd,41.725099,-72.749325,meta,2025-06-02T07:00:00.000Z,0.5662921348314607,fdc372e9-5eba-478c-9d82-6cde893d623c,,education,school,OpenStreetMap,2022-06-06T20:48:15.000Z,,hartford,False
0b5d7502-7f5e-470e-8f20-59d1ffde7ac9,"Mr. Handyman of West Hartford, S. Windsor and Newington",contractor,"['carpenter', 'handyman']",CT,Newington,6111.0,131 Day St,41.7199511,-72.7316478,meta,2025-06-02T07:00:00.000Z,0.9300613496932516,06e226f7-250c-42df-a885-a898d43cd568,,,,OpenStreetMap,2021-07-19T01:02:31.000Z,,hartford,False
b85553d7-4067-4b3c-a624-db93eb4aafc3,West Hartford Yoga,yoga_studio,"['gym', 'sports_and_recreation_venue']",CT,West Hartford,6110.0,23 Brook St,41.7232173,-72.7343259,meta,2025-06-02T07:00:00.000Z,0.9879256218304756,9535ed2f-7a5d-4336-a15b-fe2b102a04e6,,,,OpenStreetMap,2021-03-20T15:25:57.000Z,,hartford,False
870c76d3-25ce-41fb-b3b6-ddb73eedc4d8,Hartford HealthCare-GoHealth Urgent Care,hospital,"['emergency_room', 'medical_center']",CT,West Hartford,6110.0,1445 New Britain Ave,41.7270777,-72.756502,meta,2025-06-02T07:00:00.000Z,0.9784508333782836,,,,,,,,hartford,False
d0530748-8169-4fa3-adc9-85c21009d7bd,Brookdale at Home West Hartford,home_health_care,"['assisted_living_facility', 'personal_care_service', 'health_and_medical']",CT,West Hartford,6110.0,1 Chatfield Drive,41.7277325603097,-72.7543549154724,Microsoft,2025-01-25T07:37:10.353Z,0.77,f57c9d48-0221-4559-b992-bec64ad71767,,,,OpenStreetMap,2021-03-20T22:43:13.000Z,,hartford,False
2d023d49-9fb6-4013-b6ac-be55c435857c,West Hartford Methodist Nursery School,home_service,"['day_care_preschool', 'school']",CT,West Hartford,6110.0,7 Berkshire Rd,41.730141,-72.7525558,meta,2025-06-02T07:00:00.000Z,0.9784508333782836,,,,,,,,hartford,False
b3b70734-46e9-415a-a87c-91ec8165e83e,West Hartford United Methodist Church,church_cathedral,"['community_services_non_profits', 'religious_organization']",CT,West Hartford,6110.0,1358 New Britain Ave,41.7301429,-72.752551,meta,2025-06-02T07:00:00.000Z,0.9784508333782836,,,,,,,,hartford,False
b843d251-3928-4b9e-bbf5-c88555e47b9d,West Hartford Station,fire_department,"['fire_protection_service', 'public_and_government_association']",CT,West Hartford,6107.0,51 Berkshire Rd,41.7333572,-72.7532404,meta,2025-06-02T07:00:00.000Z,0.9784508333782836,,,,,,,,hartford,False
17f2f7fe-190d-4c0c-9c6a-1da762768d54,Ideal Image West Hartford,laser_hair_removal,"['medical_spa', 'hair_removal', 'spas', 'beauty_and_spa', 'health_and_medical']",CT,West Hartford,6110.0,1245 New Britain Ave,41.73130899790784,-72.7429577297736,Microsoft,2024-12-06T17:47:44.343Z,0.77,9fef5ec7-942b-41f7-98d8-a9e8eba57382,,,,OpenStreetMap,2021-03-20T15:25:57.000Z,,hartford,False
1213b29c-bd2e-4384-a76d-4dc78187226d,Town Of West Hartford,public_and_government_association,"['retirement_home', 'public_service_and_government']",CT,West Hartford,6107.0,110 Berkshire Rd,41.736161,-72.751176,meta,2025-06-02T07:00:00.000Z,0.7548172757475083,1edc7108-a2a5-465e-b2c7-9a1bd73acf68,,education,school,OpenStreetMap,2024-10-05T23:17:56.000Z,,hartford,False
c2c0bbb4-8a3d-46e5-ac28-f66b3c2bc604,Hartford HealthCare Rehabilitation Network,physical_therapy,"['abuse_and_addiction_treatment', 'hospital']",CT,West Hartford,6110.0,445 S Main St,41.7321844,-72.7439702,meta,2025-06-02T07:00:00.000Z,0.9459263554653524,86bde0de-b750-4136-8182-98c03c1bd018,,,,OpenStreetMap,2021-03-20T15:25:57.000Z,,hartford,False
3c332e25-ee1a-4a4f-b575-0b6d5638e0bb,Hartford HealthCare Medical Group,family_practice,"['doctor', 'hospital']",CT,West Hartford,6110.0,445 S Main St,41.7321123,-72.7437265,meta,2025-06-02T07:00:00.000Z,0.9784508333782836,86bde0de-b750-4136-8182-98c03c1bd018,,,,OpenStreetMap,2021-03-20T15:25:57.000Z,,hartford,False
22fa3f70-cb1e-465f-97ae-4512cc5a8339,Investors Services of Hartford,investing,"['financial_service', 'financial_advising']",CT,West Hartford,6110.0,433 S Main St,41.7333654,-72.744889,meta,2025-06-02T07:00:00.000Z,0.9415384615384615,71782f9e-a6b4-4d07-be32-4f1e5b8b35c6,,,,OpenStreetMap,2022-05-19T09:49:22.000Z,,hartford,False
a0ca9725-8ba4-44e3-a97e-e7c351b39d02,Town Of West Hartford CT,public_and_government_association,['central_government_office'],CT,West Hartford,6110.0,38 Hall St,41.726174,-72.737641,meta,2025-06-02T07:00:00.000Z,0.5662921348314607,09566e92-5deb-418d-87f2-51ba3b8c787b,,,,OpenStreetMap,2021-03-20T15:25:56.000Z,,hartford,False
a949d14e-4224-4a8a-af4e-618743bd4ec9,Urgent Care In West Hartford,hospital,"['family_practice', 'health_and_medical']",CT,West Hartford,6110.0,1170 New Britain Ave,41.73276,-72.73617,meta,2025-06-02T07:00:00.000Z,0.7548172757475083,1bd377de-04f6-4521-82d7-fc6392f34554,,,,OpenStreetMap,2021-03-20T15:25:56.000Z,,hartford,False
32684a01-badd-4724-b11b-aa64b66a3b9c,Collins Medical Associates Pediatrics - West Hartford,doctor,['health_and_medical'],CT,West Hartford,6110.0,1162 New Britain Ave,41.73278533,-72.735471,Microsoft,2025-02-22T07:11:32.217Z,0.77,23b69e84-67cd-49e9-b50a-4158204286d3,,,,OpenStreetMap,2021-03-20T15:25:57.000Z,,hartford,False
d1f18075-6419-4c20-aacf-65a8ff154d1e,GOLFTEC West Hartford,sporting_goods,['golf_instructor'],CT,West Hartford,6110.0,1146 New Britain Ave,41.7329683,-72.7335685,meta,2025-06-02T07:00:00.000Z,0.9784508333782836,9dae0c32-55b3-442f-803e-57ae9c9b0d33,,commercial,retail,OpenStreetMap,2012-10-16T03:56:48.000Z,,hartford,False
17c65640-4685-4e2f-9528-b53915eda387,West Hartford Special Needs Leisure Services,public_and_government_association,['community_services_non_profits'],CT,West Hartford,6110.0,1106 New Britain Ave,41.7328,-72.7301,meta,2025-06-02T07:00:00.000Z,0.3961437335670464,008c8ced-bd5f-4727-835c-f9a8d813458d,Elmwood Community Center,civic,,OpenStreetMap,2021-03-20T15:25:58.000Z,,hartford,False
c082e5cd-9067-435e-8344-9a9d51829b46,West Hartford Dog Park Support Group Inc.,community_services_non_profits,,CT,West Hartford,6110.0,100 Mayflower St,41.7355166,-72.7349746,meta,2025-06-02T07:00:00.000Z,0.3376623376623376,,,,,,,,hartford,False
982b196a-cf2c-47a6-8278-af2e561ba7a6,West Hartford Gift Shop,shopping,['flowers_and_gifts_shop'],CT,West Hartford,6107.0,227 S Main St,41.7469713,-72.7458646,meta,2025-06-02T07:00:00.000Z,0.9784508333782836,fe0c8b77-16a4-411a-a65b-75153171b28f,Noah Webster House & West Hartford Historical Society,entertainment,,OpenStreetMap,2024-06-02T05:11:58.000Z,,hartford,False
44b02016-c084-4eb8-acf6-00761f1d54a8,Noah Webster House & West Hartford Historical Society,history_museum,"['museum', 'community_museum']",CT,West Hartford,6107.0,227 S Main St,41.7470022,-72.7457704,meta,2025-06-02T07:00:00.000Z,0.9784508333782836,fe0c8b77-16a4-411a-a65b-75153171b28f,Noah Webster House & West Hartford Historical Society,entertainment,,OpenStreetMap,2024-06-02T05:11:58.000Z,,hartford,False
7b9efa0b-eeb0-44a3-9ff8-c44b0447892d,West Hartford Parks,park,"['active_life', 'public_and_government_association']",CT,West Hartford,6110.0,847 S Quaker Ln,41.7371372,-72.7330646,meta,2025-06-02T07:00:00.000Z,0.9300613496932516,,,,,,,,hartford,False
bdc5e63e-1826-4070-8557-39f3a79d6fb8,University of Hartford,college_university,"['campus_building', 'hospital']",CT,West Hartford,6110.0,737 S Quaker Ln,41.73927,-72.730234,meta,2025-06-02T07:00:00.000Z,0.3376623376623376,bfbd08a9-3a19-4b18-8d44-e62ec1e73e45,,residential,house,OpenStreetMap,2021-04-08T14:49:08.000Z,,hartford,True
10f6f85d-e815-4173-9c05-b129270f0e6e,Hartford Court Clinic,public_and_government_association,"['central_government_office', 'firework_retailer']",CT,Newington,6111.0,367 Russell Rd,41.7104753,-72.7084076,meta,2025-06-02T07:00:00.000Z,0.9300613496932516,241d1aae-fcc6-4664-8008-80d23be7387e,,,,OpenStreetMap,2022-01-03T18:06:07.000Z,,hartford,False
b3c79328-f5b8-4a94-b523-d55f239a3616,West Hartford Stairs and Cabinets,contractor,"['countertop_installation', 'carpenter']",CT,Newington,6111.0,17 Main St,41.722009,-72.7273112,meta,2025-06-02T07:00:00.000Z,0.9784508333782836,0a313641-d5e7-43e4-96de-ced5dec2640d,,,,OpenStreetMap,2021-07-19T01:02:51.000Z,,hartford,False
eb86ff8f-eea7-48e9-bb60-d8dbb907fc5c,Hartford Courant Co,broadcasting_media_production,"['wholesale_store', 'print_media']",CT,West Hartford,6110.0,141 South St,41.7252744,-72.7276469,meta,2025-06-02T07:00:00.000Z,0.9415384615384615,e68cd6ca-4591-4395-995f-ce0152357e1d,,,,OpenStreetMap,2021-03-17T17:27:01.000Z,,hartford,False
6360e233-5fed-4ed4-8c94-51c3b98030cd,PGW Auto Glass - Hartford,automotive_parts_and_accessories,"['auto_glass_service', 'automotive_repair']",CT,West Hartford,6110.0,141 South St,41.7252731,-72.7270121,meta,2025-06-02T07:00:00.000Z,0.3961437335670464,e68cd6ca-4591-4395-995f-ce0152357e1d,,,,OpenStreetMap,2021-03-17T17:27:01.000Z,,hartford,False
f6e50609-a484-4a07-a9ec-d16593462fec,DHL Express Service Point West Hartford,freight_and_cargo_service,"['shipping_center', 'transportation']",CT,West Hartford,6110.0,141 South St,41.7253478,-72.7269753,meta,2025-06-02T07:00:00.000Z,0.9415384615384615,e68cd6ca-4591-4395-995f-ce0152357e1d,,,,OpenStreetMap,2021-03-17T17:27:01.000Z,,hartford,False
c647134a-a626-45f4-b51e-9945c249015a,U-Haul Moving & Storage of West Hartford,truck_rentals,['automotive'],CT,West Hartford,6110.0,164 South St,41.7243436,-72.7254203,Microsoft,2025-05-01T22:40:23.003Z,0.77,,,,,,,,hartford,False
b24f4bf8-9a4f-4e28-aff9-5ef7379b3e98,U-Haul Trailer Hitch Super Center of West Hartford,truck_rentals,['automotive'],CT,West Hartford,6110.0,160 South St,41.72440864,-72.72523445,Microsoft,2025-05-16T16:56:56.580Z,0.77,,,,,,,,hartford,False
315bd4ef-ab62-422b-8835-f407d1fe214f,West Hartford Lock,key_and_locksmith,"['hardware_store', 'home_improvement_store']",CT,West Hartford,6110.0,11 Sherman St,41.7260485,-72.72432,meta,2025-06-02T07:00:00.000Z,0.9784508333782836,5c91c1db-ddd0-4c2a-8be6-19ee4dc6eeab,,,,OpenStreetMap,2021-03-17T17:27:01.000Z,,hartford,False
ee752d38-2a4f-42f8-a674-d94c80a2b953,Hartford Boiler Repair Works,hvac_services,"['plumbing', 'automotive_repair']",CT,West Hartford,6110.0,44 Cody St,41.725808,-72.722539,meta,2025-06-02T07:00:00.000Z,0.296943231441048,718a905f-e97e-47a1-bd4b-54852ce09f29,,,,OpenStreetMap,2021-03-17T17:27:01.000Z,,hartford,False
382b563b-16b5-4421-8e91-77247bbcaee5,West Hartford Housing Authority,public_and_government_association,"['housing_authorities', 'public_service_and_government']",CT,West Hartford,6110.0,80 Shield St,41.7253268,-72.7211964,meta,2025-06-02T07:00:00.000Z,0.9784508333782836,,,,,,,,hartford,False
063aa5ce-6d02-48a7-8cb5-2c0ef8b93d3c,Hartford Federal Credit Union,credit_union,['bank_credit_union'],CT,Newington,6111.0,260 Hartford Ave,41.7185057,-72.716782,Microsoft,2024-12-31T02:25:11.387Z,0.77,92e2f113-ee4c-4fda-962e-1e271aa8a123,,,,OpenStreetMap,2023-07-05T06:00:56.000Z,,hartford,False
abd0b8e3-bf99-4923-98fc-ba63cb1a6abf,Portuguese Club of Hartford,social_service_organizations,['community_services_non_profits'],CT,Newington,6111.0,730 N Mountain Rd,41.7217811,-72.7159453,meta,2025-06-02T07:00:00.000Z,0.9784508333782836,f25ede91-13e3-437b-be44-9093a964b10f,,,,OpenStreetMap,2021-07-19T01:02:39.000Z,,hartford,False
f21a7cef-9342-435a-ae76-0905ae2fa46b,Rancho Folclórico do Clube Português de Hartford,community_services_non_profits,['arts_and_entertainment'],CT,Newington,6111.0,730 N Mountain Rd,41.72162,-72.7158199,meta,2025-06-02T07:00:00.000Z,0.296943231441048,f25ede91-13e3-437b-be44-9093a964b10f,,,,OpenStreetMap,2021-07-19T01:02:39.000Z,,hartford,False
581f43f6-8dba-4a9f-a322-c2da10ec14e6,Real Property Management Hartford Metro,property_management,"['real_estate', 'real_estate_service']",CT,Newington,6111.0,705 N Mountain Rd,41.722012,-72.717638,meta,2025-06-02T07:00:00.000Z,0.3961437335670464,9be5e3cf-1f88-4ec3-98d2-4ce81f79453c,,,,OpenStreetMap,2021-07-19T01:02:46.000Z,,hartford,False
fe7e0d3f-8836-4547-9a4f-0993978a8d1a,Hartford Saengerbund,museum,"['social_service_organizations', 'arts_and_entertainment']",CT,Newington,6111.0,719 N Mountain Rd,41.7227235,-72.7170219,meta,2025-06-02T07:00:00.000Z,0.9784508333782836,ebddc44b-401e-499e-bf16-617738afbe30,,,,OpenStreetMap,2021-07-19T01:02:26.000Z,,hartford,False
11b451fb-91cc-48d7-8782-8d43e9ff9dab,hillcrest ave West Hartford,health_and_medical,['accommodation'],CT,Newington,0.0,,41.7251114,-72.716698,meta,2025-06-02T07:00:00.000Z,0.4929396662387676,22d6238f-dd74-4edc-b373-3c646544c207,,,,OpenStreetMap,2021-03-17T17:26:58.000Z,,hartford,False
12d69240-6c6d-4eee-a5e9-e9ab2061b04c,American Institute West Hartford,college_university,"['vocational_and_technical_school', 'education']",CT,West Hartford,6110.0,99 South St,41.7266019,-72.7260772,meta,2025-06-02T07:00:00.000Z,0.9879256218304756,,,,,,,,hartford,False
ec5ece9a-97c3-40ee-87b6-c2d73a6f9ced,Town Of West Hartford,library,"['public_and_government_association', 'public_service_and_government']",CT,West Hartford,6110.0,1073 New Britain Ave,41.730685,-72.728078,meta,2025-06-02T07:00:00.000Z,0.3376623376623376,cfeb33e7-3759-4187-8142-e974875185b7,Faxon Branch Public Library,civic,library,OpenStreetMap,2024-06-02T05:45:00.000Z,,hartford,False
49cf0b52-bb82-4cee-95a3-e0156f78d3eb,"Elmwood Business Association - West Hartford, CT",community_services_non_profits,,CT,West Hartford,6110.0,1072 New Britain Ave,41.73137,-72.72759,meta,2025-06-02T07:00:00.000Z,0.242152466367713,80a94944-549e-49aa-afc0-cd749c48b411,,,,OpenStreetMap,2021-03-17T17:26:59.000Z,,hartford,False
032b9045-b825-4f49-b980-3e7ac5b77c93,West Hartford Station,fire_department,"['public_service_and_government', 'fire_protection_service']",CT,West Hartford,6110.0,1068 New Britain Ave,41.7310712,-72.7272496,meta,2025-06-02T07:00:00.000Z,0.9784508333782836,,,,,,,,hartford,False
987d03b5-fd47-4816-acc1-66c1b3bc98fc,Estate Buys of West Hartford,antique_store,"['gold_buyer', 'retail']",CT,West Hartford,6110.0,1049 New Britain Ave,41.730184,-72.72620359999999,Microsoft,2023-11-04T21:16:16.787Z,0.77,4965bfcb-7d4b-4a7e-8550-ba28a59efa78,,,,OpenStreetMap,2019-03-17T11:06:23.000Z,,hartford,False
596421a4-cfe7-4ff3-bb80-99ce1289a3fd,Skin by Li - West Hartford Esthetician,spas,"['skin_care', 'beauty_salon']",CT,West Hartford,6110.0,1052 New Britain Ave,41.7306089,-72.7259051,meta,2025-06-02T07:00:00.000Z,0.909823677581864,36dee0dd-9931-4a0d-b4cd-ba823944055a,,,,OpenStreetMap,2019-03-16T01:38:05.000Z,,hartford,False
f6030123-9911-4d60-98be-e430101692d0,Planned Parenthood - West Hartford Center,doctor,"['public_health_clinic', 'health_and_medical']",CT,West Hartford,6110.0,1030 New Britain Ave,41.730504,-72.724036,Microsoft,2025-05-23T09:16:29.127Z,0.77,309c6023-08a3-44b6-827d-6ee212bd095a,,,,OpenStreetMap,2024-11-15T13:29:20.000Z,,hartford,False
edcbe2c5-09a2-49de-a6a8-40219ec8dc04,Luna Tree Care | West Hartford CT,tree_services,"['landscaping', 'gardener']",CT,West Hartford,6110.0,24 Custer St,41.7263333,-72.7215628,meta,2025-06-02T07:00:00.000Z,0.8860580325548478,9618d1cf-0137-4f96-b3e1-8bc9e4b33671,,,,OpenStreetMap,2021-03-17T17:27:01.000Z,,hartford,False
93eee113-f075-4499-8ad7-117227d93ae7,"AMR - Greater Hartford/ Northeast, CT",hospital,"['ambulance_and_ems_services', 'medical_service_organizations']",CT,West Hartford,6110.0,130 Shield St,41.7274699,-72.72109,meta,2025-06-02T07:00:00.000Z,0.5662921348314607,4429659a-21a4-4431-86d9-2ba5bd89842a,,,,OpenStreetMap,2021-03-17T17:27:01.000Z,,hartford,False
a7206444-5eb8-46c2-81a0-718562968ab4,Jazzercise West Hartford,gym,['active_life'],CT,West Hartford,6110.0,132 Shield St,41.7281149,-72.7208654,meta,2025-06-02T07:00:00.000Z,0.9784508333782836,63795e4d-79bf-41bb-b3e6-f69895b4ce24,,,,OpenStreetMap,2024-11-15T13:29:20.000Z,,hartford,False
ce0063a2-f836-4bbf-b2e2-5e3a4880fec4,PriceRite of West Hartford,public_market,['retail'],CT,West Hartford,6110.0,983 New Britain Ave,41.72873,-72.719027,Microsoft,2016-04-19T18:28:44.570Z,0.77,dc865f0f-2a5c-401e-84a3-5cfaec765b0d,,,,OpenStreetMap,2024-11-15T13:29:20.000Z,,hartford,False
e0d7e62b-d4a0-43e0-a253-31e823231baf,Hertz Car Rental - West Hartford - New Britain HLE,travel,,CT,Hartford,6110.0,1005 NEW BRITIAN Ave,41.729823,-72.7221855,Microsoft,2023-02-06T20:35:51.980Z,0.77,45809392-e2ef-4270-9ac6-c3956e6984ae,,,,OpenStreetMap,2024-11-15T13:29:20.000Z,,hartford,False
f9e3fb08-9f26-4e19-af1b-8546c611b696,West Hartford Solar,energy_equipment_and_solution,"['solar_installation', 'environmental_and_ecological_services_for_businesses']",CT,West Hartford,0.0,,41.73014,-72.72077,meta,2025-06-02T07:00:00.000Z,0.3313953488372093,beb921bc-fc55-478f-b910-779bb1c81aea,,,,OpenStreetMap,2021-03-17T17:26:56.000Z,,hartford,False
4b21fae6-6161-466b-8e14-d145f64f442e,AutoMax West Hartford,car_dealer,"['automotive_dealer', 'commercial_vehicle_dealer']",CT,West Hartford,6110.0,988 New Britain Ave,41.7304878,-72.7203539,meta,2025-06-02T07:00:00.000Z,0.9879256218304756,,,,,,,,hartford,False
f507988c-9635-4d43-b984-e2b7323e469b,West Hartford Summer Arts Festival,theatre,"['performing_arts', 'active_life']",CT,West Hartford,6110.0,1106 New Britain Ave,41.7328752,-72.7293756,meta,2025-06-02T07:00:00.000Z,0.3313953488372093,008c8ced-bd5f-4727-835c-f9a8d813458d,Elmwood Community Center,civic,,OpenStreetMap,2021-03-20T15:25:58.000Z,,hartford,False
6fce85b6-9f70-4d0c-8fca-0e1bea1036ec,Elmwood Community Center West Hartford,community_center,"['topic_concert_venue', 'community_services_non_profits']",CT,West Hartford,6110.0,1106 New Britain Ave,41.7328734,-72.7292661,meta,2025-06-02T07:00:00.000Z,0.9879256218304756,,,,,,,,hartford,False
983453d9-e064-444d-8463-dd99807b7faf,RestoPros of Hartford,damage_restoration,['professional_services'],CT,West Hartford,6110.0,635 New Park Ave,41.7330427,-72.7274178,meta,2025-06-02T07:00:00.000Z,0.9204819277108434,5c5b5f37-c309-4bd1-bb6f-3e450f87d0ef,,,,OpenStreetMap,2021-03-17T17:27:01.000Z,,hartford,False
7c281f83-af7b-407d-b0f1-0696258d2aa2,Junk King Hartford,garbage_collection_service,,CT,West Hartford,6110.0,635 New Park Ave,41.7330772,-72.7273513,meta,2025-06-02T07:00:00.000Z,0.909823677581864,5c5b5f37-c309-4bd1-bb6f-3e450f87d0ef,,,,OpenStreetMap,2021-03-17T17:27:01.000Z,,hartford,False
ea6d527c-a0b9-4ed2-988e-cd9f1551bf61,West Hartford Public Works,public_and_government_association,"['public_service_and_government', 'garbage_collection_service']",CT,West Hartford,6110.0,17 Brixton St,41.7328963,-72.71914,meta,2025-06-02T07:00:00.000Z,0.9784508333782836,e5c16a37-52c2-4e4f-97b2-aa5325515f5d,,,,OpenStreetMap,2021-03-17T17:27:01.000Z,,hartford,False
449dc48d-2621-4d0b-8fe9-413d6a33dc38,West Hartford Animal Control,animal_shelter,"['public_and_government_association', 'law_enforcement']",CT,West Hartford,6110.0,36 Brixton St,41.7331066,-72.7207004,meta,2025-06-02T07:00:00.000Z,0.4929396662387676,,,,,,,,hartford,False
bf7aa7cc-0a38-41cb-809e-52252564b03a,West Hartford Recycling Center,public_and_government_association,"['public_service_and_government', 'train_station']",CT,West Hartford,6110.0,25 Brixton St,41.733381,-72.719515,meta,2025-06-02T07:00:00.000Z,0.3961437335670464,fb15e019-9e6c-4bb0-8703-4aa82e46f89c,,,,OpenStreetMap,2021-03-17T17:27:01.000Z,,hartford,False
34d21071-cbd9-4ad3-86d0-d241aaab275e,West Hartford Landscaping Inc.,landscaping,"['gardener', 'home_improvement_store']",CT,West Hartford,6110.0,702 Oakwood Ave,41.7338935,-72.7186195,meta,2025-06-02T07:00:00.000Z,0.9297091412742382,,,,,,,,hartford,False
a37c4f4c-2095-42f6-9c5e-4248b2c70b21,West Hartford Marketplace,antique_store,['shopping'],CT,West Hartford,6110.0,25 Talcott Rd,41.7368253,-72.7225032,meta,2025-06-02T07:00:00.000Z,0.9879256218304756,389ee1cf-5349-4f27-8008-350b68e533c3,,,,OpenStreetMap,2024-11-15T13:49:25.000Z,,hartford,False
6e80ca93-3990-405f-bb90-826be0529622,Hartford Fence Company,fence_and_gate_sales_service,"['contractor', 'construction_services']",CT,West Hartford,6110.0,559 New Park Ave,41.7367122,-72.7216353,meta,2025-06-02T07:00:00.000Z,0.909823677581864,65101b9a-5f8c-45ca-953a-cc832d2ee971,,,,OpenStreetMap,2021-03-17T04:02:51.000Z,,hartford,True
36d995da-b222-4990-9587-ae8e106b1305,Hartford Cash and Carry,wholesale_store,,CT,West Hartford,6110.0,7 Talcott Rd,41.7367504,-72.7215348,meta,2025-06-02T07:00:00.000Z,0.9415384615384615,65101b9a-5f8c-45ca-953a-cc832d2ee971,,,,OpenStreetMap,2021-03-17T04:02:51.000Z,,hartford,False
36d995da-b222-4990-9587-ae8e106b1305,Hartford Cash and Carry,wholesale_store,,CT,West Hartford,6110.0,7 Talcott Rd,41.7367504,-72.7215348,meta,2025-06-02T07:00:00.000Z,0.9415384615384615,3f83046b-08f0-4a70-8016-d575e838fd1e,,,,OpenStreetMap,2021-03-17T04:02:51.000Z,,hartford,False
738668b0-c0b3-4e5f-809d-8d27da2d803f,West Hartford Redemption Center,recycling_center,"['garbage_collection_service', 'professional_services']",CT,West Hartford,6110.0,695 Oakwood Ave,41.7343699,-72.7198133,meta,2025-06-02T07:00:00.000Z,0.9784508333782836,6c054bfa-d0b6-4184-b0f5-7e96232589b4,,,,OpenStreetMap,2021-03-17T17:27:01.000Z,,hartford,False
238056c6-edb6-4964-8ff7-8f8a91f5d88c,Collision Solution-West Hartford,automotive_repair,"['auto_body_shop', 'automotive']",CT,West Hartford,6110.0,688 Oakwood Ave,41.7345534,-72.7186711,meta,2025-06-02T07:00:00.000Z,0.9784508333782836,,,,,,,,hartford,False
fe076133-d299-4b42-887e-d09b77f90fbe,Adnj Hartford Hartford,religious_organization,"['church_cathedral', 'shopping']",CT,West Hartford,6110.0,570 New Park Ave,41.7365976,-72.7206482,meta,2025-06-02T07:00:00.000Z,0.3961437335670464,93761827-5308-48b1-9dd1-e8c09d5119fa,,,,OpenStreetMap,2022-03-28T23:53:48.000Z,,hartford,False
3a383774-ec04-4dbf-a961-52e7ea51f2b7,Study Advisers Hartford,educational_services,['professional_services'],CT,West Hartford,6110.0,121 Abbotsford Ave,41.7269333,-72.7160638,meta,2025-06-02T07:00:00.000Z,0.8860580325548478,55cdb5f2-d2cd-44f0-a486-d731b742529b,,,,OpenStreetMap,2021-03-17T17:26:59.000Z,,hartford,False
7c923885-67c7-4ced-9bf0-6b0ced9ddf8a,West Hartford Auto Center,automotive_repair,"['automotive', 'tire_dealer_and_repair']",CT,West Hartford,6110.0,932 New Britain Ave,41.731685,-72.716376,meta,2025-06-02T07:00:00.000Z,0.3961437335670464,058e7b87-f264-4e31-99f8-a904c6a9e1e1,,,,OpenStreetMap,2021-03-17T17:26:56.000Z,,hartford,False
35fafd1c-bbee-483e-ac1c-5df7c4e37536,SERVPRO of West Hartford,damage_restoration,"['home_improvement_store', 'contractor']",CT,West Hartford,6110.0,716 Oakwood Ave,41.7336781,-72.7179971,meta,2025-06-02T07:00:00.000Z,0.9300613496932516,75a2d118-9f0b-4a07-97ad-ff59a2e76c03,,,,OpenStreetMap,2021-03-17T17:27:01.000Z,,hartford,False
34755f14-84e8-412b-b336-edcfcf17a8cc,West Hartford Ballroom/Agora,music_venue,"['topic_concert_venue', 'arts_and_entertainment']",CT,West Hartford,6110.0,165 Dexter Ave,41.7336588,-72.7168666,meta,2025-06-02T07:00:00.000Z,0.4929396662387676,,,,,,,,hartford,False
2b60e762-1787-4be0-8e4e-5441c5dac360,West Hartford Finishing Co,contractor,['carpenter'],CT,West Hartford,6110.0,100 Vanderbilt Ave,41.7345336,-72.7172752,meta,2025-06-02T07:00:00.000Z,0.9204819277108434,,,,,,,,hartford,False
39ee6bf8-2d53-4289-93ad-4789c00e3842,Hartford Phones,mobile_phone_store,"['professional_services', 'it_service_and_computer_repair']",CT,Hartford,6106.0,881 New Britain Ave,41.7317006,-72.7129432,meta,2025-06-02T07:00:00.000Z,0.9459263554653524,98825178-58da-4aca-8288-bcfa4f2bbe78,,,,OpenStreetMap,2022-05-11T17:16:44.000Z,,hartford,False
8d5b4da9-a04a-4503-89af-c1230a50740b,Chick-fil-A West Hartford CT,fast_food_restaurant,"['chicken_restaurant', 'restaurant']",CT,West Hartford,6110.0,509 New Park Ave,41.7395749,-72.7198712,meta,2025-06-02T07:00:00.000Z,0.9879256218304756,,,,,,,,hartford,False
bee2ccd4-050c-443e-b816-49ad69afa551,Swank West Hartford,furniture_store,['auction_house'],CT,West Hartford,6110.0,485 New Park Ave,41.7408805,-72.7192482,meta,2025-06-02T07:00:00.000Z,0.8384615384615385,10c2698a-cf36-4485-9e67-818daf1fb728,,industrial,industrial,OpenStreetMap,2021-03-17T04:02:51.000Z,,hartford,False
b36b4a3a-a8ea-4202-a371-04e9f4c63f9e,Mammoth Security Inc. West Hartford,telecommunications,['it_service_and_computer_repair'],CT,West Hartford,6110.0,485 New Park Ave,41.741041,-72.718998,Microsoft,2025-05-16T14:37:59.550Z,0.77,10c2698a-cf36-4485-9e67-818daf1fb728,,industrial,industrial,OpenStreetMap,2021-03-17T04:02:51.000Z,,hartford,False
b9d79adf-4bd3-4113-8b6f-9a823673e9c1,"Planet Bark, West Hartford",pet_sitting,"['pet_services', 'pet_groomer']",CT,West Hartford,6110.0,37 Darcy St,41.74137,-72.71894,meta,2025-06-02T07:00:00.000Z,0.9688311688311688,10c2698a-cf36-4485-9e67-818daf1fb728,,industrial,industrial,OpenStreetMap,2021-03-17T04:02:51.000Z,,hartford,False
6b4d3f1f-4cd8-4d1c-8732-fff3bf4284bf,"Charter Oak International Academy, West Hartford Public Schools",elementary_school,"['public_school', 'school']",CT,West Hartford,6110.0,425 Oakwood Ave,41.7436612,-72.7225569,meta,2025-06-02T07:00:00.000Z,0.9784508333782836,,,,,,,,hartford,False
eaaf8f83-978d-42d0-8374-956c9c9060b8,Winsupply of West Hartford,wholesale_store,['hvac_services'],CT,West Hartford,6110.0,9 Andover Dr,41.737836,-72.7179359,meta,2025-06-02T07:00:00.000Z,0.9415384615384615,6d6631e1-3337-4303-b629-2ef6d0526f75,,commercial,commercial,OpenStreetMap,2021-03-17T04:02:51.000Z,,hartford,False
3e2d1ed2-6baa-4f87-8178-7e66ce814422,Hartford Bridge Club,community_services_non_profits,"['sports_club_and_league', 'active_life']",,,6110.0,19 Andover Dr A,41.737538,-72.716785,meta,2025-06-02T07:00:00.000Z,0.909823677581864,,,,,,,,hartford,False
8a5a2d38-9e42-4426-ad03-7980c216e504,Soul Fighters Hartford,martial_arts_club,"['sports_club_and_league', 'gym']",CT,West Hartford,6110.0,23 Andover Dr,41.7384189,-72.7163268,meta,2025-06-02T07:00:00.000Z,0.4929396662387676,8cb5c833-859e-4afd-a112-84a06be2733a,,commercial,commercial,OpenStreetMap,2021-03-17T04:02:51.000Z,,hartford,False
881890b1-7a44-4def-af2e-ba344d7a0042,CrossFit Hartford,gym,"['boot_camp', 'sports_and_fitness_instruction']",CT,Hartford,6106.0,221 Newfield Ave,41.7386129,-72.7151753,meta,2025-06-02T07:00:00.000Z,0.9784508333782836,16066b8f-8992-4acc-9611-3a17040e3bc3,,,,OpenStreetMap,2021-03-17T04:02:51.000Z,,hartford,False
ac798533-486b-4a79-bf0f-5d0a0d3eca4a,Mammoth Security Inc. West Hartford,telecommunications,['it_service_and_computer_repair'],CT,West Hartford,6110.0,485 New Park Ave,41.7406687,-72.7181535,Microsoft,2025-05-03T13:34:44.427Z,0.77,,,,,,,,hartford,False
3d920210-7b19-49ec-b6ad-e74f613a24c3,Service Master of Hartford,home_cleaning,"['janitorial_services', 'carpet_cleaning']",CT,Hartford,6106.0,235 Newfield Ave,41.740133,-72.716792,meta,2025-06-02T07:00:00.000Z,0.296943231441048,252b8938-b165-4a4b-9bc3-2d5ab4019b93,,,,OpenStreetMap,2021-03-17T04:02:51.000Z,,hartford,False
285f6865-595f-4367-96cf-6b54453a19b0,Walmart Hartford,superstore,"['supermarket', 'shopping']",CT,Hartford,6106.0,495 Flatbush Ave,41.7401683,-72.713447,meta,2025-06-02T07:00:00.000Z,0.9784508333782836,380a3553-6a6e-4f71-9589-c3751da342df,Walmart Supercenter,commercial,retail,OpenStreetMap,2024-11-15T13:49:25.000Z,,hartford,False
8f913a9a-345e-456b-81d1-c821e6c0ea4f,Hartford Housing Authority,housing_authorities,"['public_and_government_association', 'public_service_and_government']",CT,Hartford,6106.0,180 John D Wardlaw Way,41.7373582,-72.7120779,meta,2025-06-02T07:00:00.000Z,0.9784508333782836,efc789bc-c3f6-4ad2-95d4-2414d0bfcd2b,,,,OpenStreetMap,2021-03-17T04:02:49.000Z,,hartford,False
64fe4187-f222-4d82-93a2-533514897114,Hartford Job Corps Academy,school,"['education', 'specialty_school']",CT,Hartford,6106.0,100 William Shorty Campbell St,41.7384141,-72.710777,meta,2025-06-02T07:00:00.000Z,0.9784508333782836,92bbf8f4-dea6-4fed-95ed-5a53d59a1674,,education,school,OpenStreetMap,2021-03-17T04:02:51.000Z,,hartford,False
a2986b04-4cf6-4c53-951e-6f2aa23196b9,Greater Hartford Association of Realtors,community_services_non_profits,"['real_estate_service', 'real_estate']",CT,Hartford,6106.0,430 New Park Ave,41.7438362,-72.7150808,meta,2025-06-02T07:00:00.000Z,0.9688311688311688,5be73129-cbab-48d6-bed5-cba1f785dd6c,,,,OpenStreetMap,2024-11-15T12:52:19.000Z,,hartford,False
b3ef2f42-01c4-4f61-9394-0889b31fcf31,Transworld Business Advisors of Hartford Central,business_to_business_services,['business_to_business'],CT,West Hartford,6110.0,430 New Park Ave Ste 0-1022,41.7439,-72.71517,Microsoft,2025-04-07T04:37:27.013Z,0.77,5be73129-cbab-48d6-bed5-cba1f785dd6c,,,,OpenStreetMap,2024-11-15T12:52:19.000Z,,hartford,False
da603ba2-63a1-4805-a354-b1e394341cbc,West Hartford Coworking,event_planning,"['real_estate_service', 'professional_services']",CT,West Hartford,6110.0,430 New Park Ave,41.7438599,-72.714969,meta,2025-06-02T07:00:00.000Z,0.9784508333782836,5be73129-cbab-48d6-bed5-cba1f785dd6c,,,,OpenStreetMap,2024-11-15T12:52:19.000Z,,hartford,True
1aa2da9f-bf17-4e3d-afe9-d4ed4f94ef7d,Hartford's Kitchen Factory,countertop_installation,"['furniture_store', 'home_goods_store']",CT,Hartford,6106.0,540 Flatbush Ave,41.7426222,-72.7139401,meta,2025-06-02T07:00:00.000Z,0.9784508333782836,,,,,,,,hartford,False
192dcd06-5f5f-4071-a488-0d79a5251fc9,Team Mitsubishi Hartford,car_dealer,['automotive_dealer'],CT,Hartford,6110.0,412 New Park Ave,41.7443247,-72.7146084,meta,2025-06-02T07:00:00.000Z,0.9784508333782836,44043fb6-082f-42dd-9cfe-614190d815fc,,,,OpenStreetMap,2024-11-15T12:52:19.000Z,,hartford,False
49c8f04d-0f35-4087-b7d5-883a464e3a87,The Greater Hartford Korean United Methodist Church,church_cathedral,['religious_organization'],CT,Hartford,6106.0,711 New Britain Ave,41.7327491,-72.7056976,meta,2025-06-02T07:00:00.000Z,0.9297091412742382,e0bd09a4-932b-44e7-abfb-3e39596be2d1,Greater Hartford Korean United Methodist Church,religious,church,OpenStreetMap,2022-05-11T17:16:44.000Z,,hartford,False
c208d094-abd2-410d-8fa1-e6ad04ffd326,clean sweep of Hartford,home_cleaning,,,,6106.0,599 Broadview Terrace,41.7359066,-72.7015673,meta,2025-06-02T07:00:00.000Z,0.909823677581864,4d00b304-f2b1-48d1-af53-1e9f6e4ce642,,,,OpenStreetMap,2021-03-13T07:38:26.000Z,,hartford,False
00d59741-b327-4561-b5dd-7e4eb0a99d17,Iglesia Pentecostal Unida Hispana de Hartford,religious_organization,"['church_cathedral', 'social_service_organizations']",CT,Hartford,6114.0,886 Maple Ave,41.7352084,-72.6864597,meta,2025-06-02T07:00:00.000Z,0.9415384615384615,dd55e1e5-709c-4b36-b34c-3c396e0703af,,,,OpenStreetMap,2021-03-13T16:54:32.000Z,,hartford,False
00861075-393f-47fd-b471-92d0fa440e61,2nd Rama Hispana de Hartford,religious_organization,,CT,Hartford,6114.0,2035 Broad St,41.73604,-72.687,meta,2025-06-02T07:00:00.000Z,0.3961437335670464,2481613e-e13f-4c2b-b482-90de9dc34258,,,,OpenStreetMap,2024-07-12T06:22:10.000Z,,hartford,False
ede8e6b4-938a-478d-9dba-ecc307babd0c,Hartford Foodland,grocery_store,"['convenience_store', 'contractor']",CT,Hartford,6114.0,831 Maple Ave,41.736889,-72.686284,meta,2025-06-02T07:00:00.000Z,0.5662921348314607,c5b4b4ea-9327-437d-baa1-1d809de0612c,,,,OpenStreetMap,2021-03-13T16:54:27.000Z,,hartford,False
d9b7743b-3308-432d-8e25-0f84a4521900,Hartford Public Access Television,broadcasting_media_production,"['television_service_providers', 'community_services_non_profits']",CT,Hartford,6106.0,460 New Britain Ave,41.7392945,-72.6983426,meta,2025-06-02T07:00:00.000Z,0.9297091412742382,49fd0bbd-341b-4ee0-9799-b0fe1402d168,,,,OpenStreetMap,2021-03-13T07:38:26.000Z,,hartford,False
e86ec33d-202a-4530-8bcc-482013846a9b,Hartford Public Library,library,"['lawyer', 'campus_building']",CT,Hartford,6106.0,460 New Britain Ave,41.7392995,-72.6981688,meta,2025-06-02T07:00:00.000Z,0.5662921348314607,49fd0bbd-341b-4ee0-9799-b0fe1402d168,,,,OpenStreetMap,2021-03-13T07:38:26.000Z,,hartford,True
7fd66c45-16ff-4e03-ba1a-4d6c943df163,Rooster's Chicken & Waffles- Hartford,fast_food_restaurant,"['chicken_restaurant', 'home_service']",CT,Hartford,0.0,,41.74362,-72.70389,meta,2025-06-02T07:00:00.000Z,0.8253968253968254,,,,,,,,hartford,False
01798bff-1eff-4f65-b72e-32d489215306,"Troop 105 Hartford, CT",youth_organizations,"['social_service_organizations', 'community_services_non_profits']",CT,Hartford,6106.0,101 Catherine St,41.7461324,-72.6991868,meta,2025-06-02T07:00:00.000Z,0.9784508333782836,73ff678b-fde9-489a-afc7-3c12d7eb80a9,,education,school,OpenStreetMap,2022-05-12T04:14:03.000Z,,hartford,False
6dd140b1-366e-441b-b41e-48c2d6aa1ee1,Chd Hartford Sst,counseling_and_mental_health,"['health_and_medical', 'retirement_home']",CT,Hartford,6106.0,174 Hillside Ave,41.747839,-72.697995,meta,2025-06-02T07:00:00.000Z,0.3961437335670464,5f941a43-25c7-42c6-aba8-03b4e09c8268,,,,OpenStreetMap,2021-03-12T23:00:53.000Z,,hartford,False
db49bcff-93b2-448d-a560-5fcfef05993f,Rainbow Restoration of East Hartford-Colchester,damage_restoration,"['carpet_cleaning', 'home_cleaning']",CT,Hartford,6114.0,1939 Broad St,41.739445,-72.6875224,meta,2025-06-02T07:00:00.000Z,0.9204819277108434,f184936e-5e17-4c9a-b1bc-e48b572dd6c3,,,,OpenStreetMap,2021-03-13T16:54:36.000Z,,hartford,False
b8efa408-bda9-479d-b328-b7995e60405c,Hartford County,arts_and_entertainment,,CT,Hartford,0.0,,41.7414434,-72.690571,meta,2025-06-02T07:00:00.000Z,0.4929396662387676,29ba4fb6-02ba-4efe-aec9-4ea8f1ebc904,,,,OpenStreetMap,2021-03-13T07:38:26.000Z,,hartford,False
50d42819-4e41-4b0e-913e-46896d4ba568,Hartford Gay & Lesbian Health Collective,social_service_organizations,,CT,Hartford,6114.0,1841 Broad St,41.7424219,-72.6877,meta,2025-06-02T07:00:00.000Z,0.4929396662387676,6c1d00a1-ddbb-41d0-b63f-dfb83c7c7142,,,,OpenStreetMap,2021-03-13T16:54:36.000Z,,hartford,False
3fd27d72-2481-4dd0-8c63-672309fad033,Chinese Language School of Greater Hartford,language_school,"['college_university', 'educational_services']",CT,Hartford,6106.0,300 Summit St,41.7450733,-72.6904685,meta,2025-06-02T07:00:00.000Z,0.9784508333782836,fcb2ce71-212c-418d-bd14-6bc5a07d56e0,Albert C. Jacobs Life Sciences Center,education,college,OpenStreetMap,2021-03-13T07:38:31.000Z,,hartford,False
05f967db-0045-481e-9dd0-d0f242c4d683,Jx Motorsports Hartford,automotive_repair,"['atv_rentals_and_tours', 'motorcycle_repair']",CT,Hartford,6114.0,1795 Broad St,41.7444037,-72.687507,meta,2025-06-02T07:00:00.000Z,0.9459263554653524,07766236-a790-47da-b09c-02c97baaa905,,,,OpenStreetMap,2021-03-13T16:54:32.000Z,,hartford,False
7354b823-86bc-4979-9afa-3d7aa47207a8,Hartford HealthCare Medical Group at Trinity College Health Center,doctor,['health_and_medical'],CT,Hartford,6106.0,300 Summit St,41.7473639,-72.6907806,Microsoft,2025-04-23T01:01:17.357Z,0.77,83c98832-fd48-4164-84ff-cf93711c170b,Wendy and Paul E. Raether Library and Information Technology Center,civic,library,OpenStreetMap,2023-10-19T20:40:01.000Z,,hartford,False
927f82be-ea14-4e33-befd-f1afa0d937ec,Richelieu HARTFORD,retail,,CT,Rocky Hill,6067.0,90 New Britain Ave,41.6605641,-72.6819663,Microsoft,2025-05-18T05:15:14.977Z,0.77,,,,,,,,hartford,False
92219c28-0d87-4771-b9db-c4c416261b8b,Holiday Inn Express Hartford South - Rocky Hill,hotel,"['accommodation', 'travel_company']",CT,Rocky Hill,6067.0,20 Waterchase Dr,41.6771511,-72.6526028,meta,2025-06-02T07:00:00.000Z,0.9784508333782836,619fb8ea-5063-43ef-ae0f-005fa6a8f93b,Holiday Inn Express Hartford South - Rocky Hill,,,OpenStreetMap,2024-03-25T10:40:40.000Z,,hartford,False
71471dc3-a184-4e24-9de8-0c67fcd05f52,Hartford Podiatry Group,hospital,"['podiatrist', 'naturopathic_holistic']",CT,Rocky Hill,6067.0,2049 Silas Deane Hwy,41.6717602,-72.6450308,meta,2025-06-02T07:00:00.000Z,0.9459263554653524,969cafa0-835d-4f53-9d17-03e237275ed5,,,,OpenStreetMap,2021-08-29T00:02:38.000Z,,hartford,False
8aa4c46c-f8f8-4163-9f2e-9f423a86e022,"Wethersfield, Hartford County, Connecticut",landmark_and_historical_building,['travel'],,,0.0,,41.7011111,-72.6694444,meta,2025-06-02T07:00:00.000Z,0.4929396662387676,28a998cd-9e51-41bb-bce1-35432d6e18a0,,,,OpenStreetMap,2022-01-03T16:19:57.000Z,,hartford,False
93567015-76fb-44b3-8b0e-82a1d25f8846,Comfort Inn Wethersfield - Hartford,hotel,"['accommodation', 'travel']",CT,Wethersfield,6109.0,1330 Silas Deane Hwy,41.6844353,-72.653332,meta,2025-06-02T07:00:00.000Z,0.9784508333782836,19b0c500-a243-4244-8d5f-c696e79f223d,Comfort Inn,,,OpenStreetMap,2024-03-23T16:47:23.000Z,,hartford,False
6e800fb8-5d69-448a-a0d5-683a73451efb,Hartford HealthCare Independence at Home,home_health_care,"['personal_care_service', 'health_and_medical']",CT,Wethersfield,6109.0,1290 Silas Deane Hwy #4B,41.6861399,-72.6543899,Microsoft,2025-04-17T12:51:15.787Z,0.77,462e0fbf-d7dc-48bb-b2a5-ce76e3f25e57,,,,OpenStreetMap,2022-01-03T19:53:14.000Z,,hartford,False
c53ab687-e478-4354-973f-50ed885ed0a8,Hartford HealthCare Medical Group,hospital,"['doctor', 'family_practice']",CT,Wethersfield,6109.0,1290 Silas Deane Hwy,41.6861112,-72.6542274,meta,2025-06-02T07:00:00.000Z,0.9784508333782836,462e0fbf-d7dc-48bb-b2a5-ce76e3f25e57,,,,OpenStreetMap,2022-01-03T19:53:14.000Z,,hartford,False
6f9abc08-7f78-437a-9829-cf829dc63b18,Hartford Hospital Health Care Center,hospital,,CT,Wethersfield,0.0,,41.6865269,-72.6544295,meta,2025-06-02T07:00:00.000Z,0.3376623376623376,dc7c43b6-1016-4435-9d5c-5d5f48ff94ec,,,,OpenStreetMap,2022-01-03T19:53:14.000Z,,hartford,False
53f4ca4b-30f1-422f-9640-e8e58599a89b,Hartford Hospital Sleep Disorder Center,hospital,"['doctor', 'veterinarian']",CT,Wethersfield,6109.0,1260 Silas Deane Hwy,41.6871396,-72.6544602,meta,2025-06-02T07:00:00.000Z,0.9784508333782836,dc7c43b6-1016-4435-9d5c-5d5f48ff94ec,,,,OpenStreetMap,2022-01-03T19:53:14.000Z,,hartford,False
bb40dd6a-b7f4-488b-a134-33f363903885,LasikPlus - Hartford,laser_eye_surgery_lasik,"['eye_care_clinic', 'optometrist']",CT,Wethersfield,6109.0,1206 Silas Deane Hwy,41.6881809,-72.6547397,meta,2025-06-02T07:00:00.000Z,0.9784508333782836,b98ec0a7-c59b-4bf6-9290-c82f319c06d5,,,,OpenStreetMap,2022-01-03T19:53:14.000Z,,hartford,False
111d7890-dad0-41f9-bdc1-bf3fb08c3681,Hartford Medical Group,physician_assistant,"['doctor', 'medical_center', 'health_and_medical']",CT,Wethersfield,6109.0,1025 Silas Deane Hwy,41.694666,-72.657016,Microsoft,2010-05-15T06:04:44.757Z,0.77,,,,,,,,hartford,False
777654d5-c6c4-4ef3-a2dd-fb707d9feb3b,Hartford HealthCare-GoHealth Urgent Care,family_practice,"['health_and_medical', 'hospital']",CT,Wethersfield,6109.0,1025 Silas Deane Hwy,41.6952489,-72.657789,meta,2025-06-02T07:00:00.000Z,0.9784508333782836,1baa5914-f8c9-451c-91c8-082f34a9210e,,,,OpenStreetMap,2022-01-03T19:24:15.000Z,,hartford,False
679fd349-da4f-4f2b-95c4-ef85e5408835,Hartford HealthCare Rehabilitation Network,hospital,"['abuse_and_addiction_treatment', 'laboratory_testing']",CT,Wethersfield,6109.0,988 Silas Deane Hwy,41.6961453,-72.6573076,meta,2025-06-02T07:00:00.000Z,0.9784508333782836,9c73340c-4b1e-4c53-938d-b335602cf2c8,,,,OpenStreetMap,2022-01-03T19:24:15.000Z,,hartford,False
1e7cfcac-d70b-469b-8355-d6f01952d191,State of Connecticut Hartford Judicial District,public_and_government_association,"['central_government_office', 'public_service_and_government']",CT,Wethersfield,6109.0,225 Spring St,41.6993237,-72.6563101,meta,2025-06-02T07:00:00.000Z,0.7548172757475083,d6c10a9b-5d7d-4628-a529-60fd49fd91e1,,,,OpenStreetMap,2022-01-03T09:12:40.000Z,,hartford,False
ef97c7c5-7393-4196-b043-7585a59f14b3,Hartford Veteran Center,public_and_government_association,"['hospital', 'veterinarian']",CT,Rocky Hill,6067.0,25 Elm St,41.6649582,-72.6405648,meta,2025-06-02T07:00:00.000Z,0.9784508333782836,,,,,,,,hartford,False
01b7da63-c246-49df-8fcd-11dcc89f7a8a,The Bonsai Society of Greater Hartford,community_services_non_profits,['art_gallery'],CT,West Hartford,6117.0,119 Flagg Rd,41.6660618,-72.6383758,meta,2025-06-02T07:00:00.000Z,0.3961437335670464,,,,,,,,hartford,False
a8605d5e-9504-4de7-b89c-ab851bc9c172,Hartford Salem SDA,church_cathedral,['religious_organization'],CT,Wethersfield,6109.0,371 Wolcott Hill Rd,41.7098772,-72.6691084,meta,2025-06-02T07:00:00.000Z,0.9784508333782836,,,,,,,,hartford,False
afa4ab4c-f1b9-4d67-970c-95ac743bb294,Right at Home Hartford County,home_health_care,"['retirement_home', 'health_and_medical']",CT,Wethersfield,6109.0,30 Jordan Ln,41.7241404,-72.6660648,meta,2025-06-02T07:00:00.000Z,0.9784508333782836,,,,,,,,hartford,False
76a6fc90-6402-45ef-9c54-2594699cc2ec,Eyebrow Microblading & Microshading Hartford CT,beauty_and_spa,,CT,Wethersfield,6109.0,512 Silas Deane Hwy,41.71175,-72.66302,meta,2025-06-02T07:00:00.000Z,0.3961437335670464,33513f52-7697-4148-96a6-af41a5ee2659,,,,OpenStreetMap,2022-01-03T09:12:37.000Z,,hartford,False
693ed49d-78d8-4c6d-afad-20cc9cf77fce,Hartford News,topic_publisher,"['professional_services', 'media_news_company']",CT,Hartford,6114.0,563 Franklin Ave,41.7330727,-72.6747659,meta,2025-06-02T07:00:00.000Z,0.9300613496932516,41de51e0-a099-4378-ad4c-37e578299e16,,,,OpenStreetMap,2021-03-13T21:46:23.000Z,,hartford,False
35f48b68-cd6d-4469-9019-967cdf0ffa58,Five Stars Realty - Hartford Office,real_estate_agent,"['real_estate', 'professional_services']",CT,Hartford,6114.0,563 Franklin Ave,41.7331648,-72.674898,meta,2025-06-02T07:00:00.000Z,0.9688311688311688,41de51e0-a099-4378-ad4c-37e578299e16,,,,OpenStreetMap,2021-03-13T21:46:23.000Z,,hartford,True
6d7f37d3-ebea-4f58-b72c-b1b106dc8c8b,Hartford Fire Fighters Local,public_and_government_association,"['central_government_office', 'ambulance_and_ems_services']",CT,Hartford,6114.0,555 Franklin Ave,41.733351,-72.675019,meta,2025-06-02T07:00:00.000Z,0.296943231441048,8e8a43c2-40a1-4ced-85ea-dfc59e68d9d9,,,,OpenStreetMap,2021-03-13T21:46:26.000Z,,hartford,False
4f7776df-43db-4b4b-983f-33c4609c6849,Intencity Hartford,barber,"['beauty_and_spa', 'beauty_salon']",CT,Hartford,6114.0,541 Franklin Ave,41.7338401,-72.6749491,meta,2025-06-02T07:00:00.000Z,0.9784508333782836,,,,,,,,hartford,False
a77b12ec-cbc6-4296-a8df-09de1fe5b5fc,"Tax Relief Lawyers Now (Hartford, CT)",lawyer,"['financial_service', 'mortgage_broker']",CT,Hartford,6114.0,521 Franklin Ave,41.734631,-72.675171,meta,2025-06-02T07:00:00.000Z,0.3376623376623376,bdc9aeb6-18f5-4569-8cd9-a0e1d7300c93,,,,OpenStreetMap,2021-03-13T21:46:26.000Z,,hartford,False
9b2ee010-1e0f-4e0d-a753-7707b5891e77,Hartford Fire Department Engine 10,fire_department,"['fire_protection_service', 'public_service_and_government']",CT,Hartford,6114.0,510 Franklin Ave,41.7350368,-72.6745971,meta,2025-06-02T07:00:00.000Z,0.9784508333782836,e5fc94ba-a56b-4663-b4a3-fd789d429724,,,,OpenStreetMap,2021-03-13T16:54:27.000Z,,hartford,False
fcc7905b-cb32-490c-a78f-9395eb555046,City of Hartford Department of Families Children Youth and Recreation,amusement_park,"['arts_and_entertainment', 'water_park']",CT,Hartford,6114.0,680 Franklin Ave,41.729469,-72.672597,meta,2025-06-02T07:00:00.000Z,0.5662921348314607,ee44d66d-b8d6-4893-b4c0-2a9a389bfbfd,Metzner Recreation Center,civic,,OpenStreetMap,2022-05-20T23:36:13.000Z,,hartford,False
f4ff7788-8e84-41a2-81b5-353374639db6,The Pentecostals of Greater Hartford,pentecostal_church,"['religious_organization', 'church_cathedral']",CT,Hartford,6114.0,54 Bolton St,41.7305428,-72.6722451,meta,2025-06-02T07:00:00.000Z,0.9784508333782836,4034a4cd-e680-4b0f-bd9d-16d35c96c9fa,The Pentecostals Of Greater Hartford,religious,,OpenStreetMap,2022-05-20T23:36:13.000Z,,hartford,False
ef8d1885-fadc-4f27-9fc8-b54ac874ab40,Hartford Dojo - LLC,martial_arts_club,"['gym', 'active_life']",CT,Wethersfield,6109.0,"Ct Child Medical Center School, 170 Ridge Rd",41.726908,-72.6680508,meta,2025-06-02T07:00:00.000Z,0.5662921348314607,,,,,,,,hartford,False
8722ca5f-080e-4b30-b53d-d8118e8d0cc7,Hartford Safe & Lock,key_and_locksmith,"['home_security', 'home_improvement_store']",CT,Wethersfield,6109.0,36 Silas Deane Hwy,41.7273002,-72.6680398,meta,2025-06-02T07:00:00.000Z,0.9784508333782836,fa9fe30e-11cb-4aae-a874-5f21329f9c4f,,,,OpenStreetMap,2022-01-03T16:19:57.000Z,,hartford,False
06532864-730c-4fef-94ee-18e84ecbb228,Hartford Drug Treatment Centers,pharmacy,"['alcohol_and_drug_treatment_centers', 'hospital']",CT,Hartford,6114.0,1010 Wethersfield Ave,41.728658,-72.667929,meta,2025-06-02T07:00:00.000Z,0.242152466367713,4eb40bbb-17b7-4210-a21f-b68b5a938889,,,,OpenStreetMap,2022-01-03T16:19:57.000Z,,hartford,False
fbb4d223-9f85-47dc-89b2-c8260a6a6cb7,Hartford Sportspage,pub,"['sports_club_and_league', 'gym']",CT,Hartford,6114.0,719 Wethersfield Ave,41.7361954,-72.6708972,meta,2025-06-02T07:00:00.000Z,0.8831168831168831,,,,,,,,hartford,False
59f1de4e-7fb7-42ca-9985-cf947c64ecfe,The Hartford Society of Latin American Firefighters,charity_organization,['community_services_non_profits'],CT,Hartford,6114.0,776 Maple Ave,41.73876,-72.68471,meta,2025-06-02T07:00:00.000Z,0.242152466367713,8a26e6b1-e206-4ced-b062-c0b12d7dbeea,Hartford Firefighters Federal Credit Union,commercial,commercial,OpenStreetMap,2021-03-13T19:27:41.000Z,,hartford,False
39b8db48-647f-4e6c-9455-7aba0ac3664a,Hartford Firefighters Federal Credit Union,credit_union,"['financial_service', 'banks']",CT,Hartford,6114.0,776 Maple Ave,41.7387597,-72.6846819,meta,2025-06-02T07:00:00.000Z,0.9784508333782836,8a26e6b1-e206-4ced-b062-c0b12d7dbeea,Hartford Firefighters Federal Credit Union,commercial,commercial,OpenStreetMap,2021-03-13T19:27:41.000Z,,hartford,False
dd6a804c-bea2-4725-90b5-8742ee4165ed,Hartford Elderly Services,retirement_home,['public_service_and_government'],CT,Hartford,6114.0,753 Maple Ave,41.7395484,-72.6851906,meta,2025-06-02T07:00:00.000Z,0.3376623376623376,08e856cd-e207-4429-971a-16846ede223b,,,,OpenStreetMap,2021-03-13T16:54:34.000Z,,hartford,False
9fe8787a-53b8-4aa0-8e95-b8b1383af61c,Hartford Bail Bonds By In And Out Bail Bonds,bail_bonds_service,"['financial_service', 'professional_services']",CT,Hartford,6114.0,23 Kenneth St,41.7410202,-72.6844177,meta,2025-06-02T07:00:00.000Z,0.3376623376623376,12359f63-77b0-4d3f-bf6c-f5ae6370dc19,,,,OpenStreetMap,2021-03-13T16:54:28.000Z,,hartford,False
ce809527-c3ce-4324-bcba-4b32fd1a01d4,Laundry For Less Hartford,laundromat,"['dry_cleaning', 'home_cleaning']",CT,Hartford,6114.0,716 Maple Ave,41.74059,-72.68367,meta,2025-06-02T07:00:00.000Z,0.7548172757475083,b7dfca84-97b7-481f-9a62-81550238d685,,,,OpenStreetMap,2021-03-13T16:54:34.000Z,,hartford,False
10430159-358a-4e73-a9a1-a9d87ca2f07c,Hartford Public Library,library,"['public_and_government_association', 'public_service_and_government']",CT,Hartford,6114.0,30 Campfield Ave,41.7424023,-72.6823895,meta,2025-06-02T07:00:00.000Z,0.9784508333782836,3abd6319-dee2-46de-a9c4-c0b154e2e69b,Hartford Public Library Camp Field Branch,civic,library,OpenStreetMap,2024-06-02T05:47:19.000Z,,hartford,False
3332058d-b5b3-4dba-96a8-56890f7c0e3d,Hartford Physical Medicine,physical_therapy,"['hospital', 'health_and_medical']",CT,Hartford,6114.0,425 Franklin Ave,41.737869,-72.676319,meta,2025-06-02T07:00:00.000Z,0.7548172757475083,038c2840-908e-4b11-958f-1db916a7d8fb,,,,OpenStreetMap,2021-03-13T16:54:34.000Z,,hartford,False
fe8f89d9-acf1-4165-81c5-b33ed5062032,Hartford Eye Wellness,optometrist,"['eyewear_and_optician', 'professional_services']",CT,Hartford,6114.0,419 Franklin Ave,41.7380501,-72.6757681,meta,2025-06-02T07:00:00.000Z,0.9784508333782836,038c2840-908e-4b11-958f-1db916a7d8fb,,,,OpenStreetMap,2021-03-13T16:54:34.000Z,,hartford,False
30c08427-68a8-4285-b495-9dc800c8d1ef,Greater Hartford Physical Therapy,physical_therapy,"['health_and_medical', 'hospital']",CT,Hartford,6114.0,419 Franklin Ave,41.738336,-72.675884,meta,2025-06-02T07:00:00.000Z,0.5662921348314607,1bed12dd-4465-4720-844b-32dfd8f3681a,,,,OpenStreetMap,2021-03-13T16:54:28.000Z,,hartford,False
fc92b893-9662-44f1-92a9-0f98c364076c,Paradise Restaurant  381 Franklin Ave  06114 Hartford,american_restaurant,"['restaurant', 'bar']",CT,Hartford,6114.0,381 Franklin Ave,41.739317,-72.6759301,meta,2025-06-02T07:00:00.000Z,0.9784508333782836,8bf64cf4-2ecb-4e97-b3dc-5d3809f6b447,,,,OpenStreetMap,2021-03-13T16:54:34.000Z,,hartford,False
f3dd66b1-8f40-4382-9800-de659e578f72,TCC Hartford Weekend School,school,"['tutoring_center', 'specialty_school']",CT,Hartford,6114.0,380 Franklin Ave,41.739514,-72.675463,meta,2025-06-02T07:00:00.000Z,0.3961437335670464,a8b58070-ed0f-455f-98eb-aa7a97bf7a2b,,,,OpenStreetMap,2021-03-13T16:54:28.000Z,,hartford,False
a3af312a-57d4-4206-8fcc-4ea3d72e1099,"Saint Augustine Church, Hartford",church_cathedral,"['catholic_church', 'religious_organization']",CT,Hartford,6114.0,10 Campfield Ave,41.7428813,-72.6822844,meta,2025-06-02T07:00:00.000Z,0.9784508333782836,e2cc571a-cc8b-469b-b833-36cc07fe9a90,Saint Augustine Church,religious,,OpenStreetMap,2022-05-19T18:06:09.000Z,,hartford,False
bff1b2ca-f83d-425b-adc6-e608de3f4325,Dynamic Nutrition Hartford,smoothie_juice_bar,"['health_food_restaurant', 'health_food_store']",CT,Hartford,6114.0,287 Franklin Ave,41.7425597,-72.6764585,meta,2025-06-02T07:00:00.000Z,0.7548172757475083,,,,,,,,hartford,False
0d547187-2967-4403-98b4-83bb3f375358,Edwin's Barber Shop LLC | Hartford CT,barber,"['beauty_and_spa', 'beauty_salon']",CT,Hartford,6114.0,285 Franklin Ave,41.7426085,-72.6764528,meta,2025-06-02T07:00:00.000Z,0.9784508333782836,,,,,,,,hartford,False
cd872fb3-f02c-4b8a-ab26-fb8babdc79f1,Children & Family Dentistry & Braces of Hartford,cosmetic_dentist,"['general_dentistry', 'pediatric_dentist', 'dentist', 'health_and_medical']",CT,Hartford,6114.0,272 Franklin Ave,41.7430229,-72.6760406,Microsoft,2025-05-17T10:54:10.883Z,0.77,52017874-bbfa-4dc7-ac6f-35a82a5773fc,,,,OpenStreetMap,2021-03-13T16:54:36.000Z,,hartford,False
9e716c11-7a2c-485e-bb3d-6dbcca80523f,New Cut Barber Shop | Hartford CT,barber,"['beauty_and_spa', 'beauty_salon']",CT,Hartford,6114.0,239 Franklin Ave,41.7441746,-72.6768761,meta,2025-06-02T07:00:00.000Z,0.9784508333782836,500f782e-927c-4dd7-b71a-66f0911f86bc,,,,OpenStreetMap,2021-03-13T16:54:32.000Z,,hartford,False
3010b40f-c531-46b9-95b5-397c4f2f372f,Greater Hartford Physical Therapy,physical_therapy,"['hospital', 'health_and_medical']",CT,Hartford,6114.0,191 Franklin Ave,41.7455408,-72.6773454,meta,2025-06-02T07:00:00.000Z,0.9459263554653524,f2d59157-7bcb-4a56-818a-75bfb07e8767,,,,OpenStreetMap,2021-03-13T16:54:32.000Z,,hartford,False
c36d75de-81be-44f3-8379-f688bf829b03,Hartford's Pizza,pizza_restaurant,"['american_restaurant', 'restaurant']",CT,Hartford,6114.0,161 Franklin Ave,41.7468648,-72.6771891,meta,2025-06-02T07:00:00.000Z,0.9784508333782836,,,,,,,,hartford,False
d7f82b2e-c1a2-46bf-94db-9ea5674ed052,Hartford Boxing Center,gym,"['active_life', 'sports_club_and_league']",CT,Hartford,6114.0,162 Franklin Ave,41.746908,-72.676643,meta,2025-06-02T07:00:00.000Z,0.7548172757475083,c41169f4-ee54-4ebb-9023-5d6663df317a,,,,OpenStreetMap,2021-03-13T05:12:50.000Z,,hartford,False
d7085730-f002-4d51-8001-c12542936706,All My Sons Hartford LLC,shipping_center,,CT,Hartford,6114.0,40 Airport Rd,41.738297,-72.6693122,Microsoft,2023-10-12T16:19:13.770Z,0.77,cdb020bb-d0db-4917-80fe-f8abbead11a8,,,,OpenStreetMap,2021-03-13T17:28:50.000Z,,hartford,False
5a2ee114-f294-4249-9ba8-3bb1325e5296,Gulf Gas Station Hartford CT,gas_station,"['convenience_store', 'oil_change_station']",CT,Hartford,6114.0,634 Wethersfield Ave,41.7387034,-72.6713186,meta,2025-06-02T07:00:00.000Z,0.9415384615384615,b5d16d8d-1c15-47ef-b7fb-e579835f8eeb,Gulf,outbuilding,roof,OpenStreetMap,2025-05-12T15:36:16.000Z,,hartford,False
d6c59102-e5c8-4cea-8943-3fd30be2331e,Hartford Ink,tattoo_and_piercing,"['art_gallery', 'professional_services']",CT,Hartford,6114.0,509 Wethersfield Ave,41.741882,-72.672807,meta,2025-06-02T07:00:00.000Z,0.2456896551724137,d969e143-93b5-472d-91e8-adcc2d024c92,,,,OpenStreetMap,2021-03-13T16:54:36.000Z,,hartford,False
ed6bcad6-f474-4b67-9ca4-4e21f1425da0,Animal Clinic Hartford,pet_groomer,"['animal_hospital', 'pet_services', 'veterinarian', 'pets']",CT,Hartford,6114.0,505 Wethersfield Ave,41.7419479,-72.6724026,Microsoft,2015-05-14T09:13:10.063Z,0.77,,,,,,,,hartford,False
1b9b661f-0804-4ba8-b125-248922c31ef3,La Iglesia De Dios South Hartford,pentecostal_church,"['religious_organization', 'social_service_organizations']",CT,Hartford,6114.0,239 Ledyard St,41.7415756,-72.6695459,meta,2025-06-02T07:00:00.000Z,0.909823677581864,,,,,,,,hartford,False
