id_left,primary_name_left,primary_category,alternate_category,region,locality,zipcode,address,latitude,longitude,plc_source_dataset,plc_source_update_time,plc_source_confidence,id_right,primary_name_right,subtype,class,bldg_dataset,bldg_update_time,bldg_confidence,source_city,is_office_by_pipeline
c3cc33d9-aacb-489c-96c1-1903435c7ec9,Laredo Harley-Davidson,motorcycle_dealer,"['professional_services', 'car_dealer']",TX,Laredo,78045.0,418 Crossroads St,27.6096088,-99.4819615,meta,2025-06-02T07:00:00.000Z,0.9879256218304756,0a71162a-69f6-49f1-ae6b-20d75d3a498e,,,,OpenStreetMap,2024-10-26T07:33:38.000Z,,laredo,False
85e24fc7-dc85-42ee-af8d-cd2b0f40d2f3,Summit Harley Davidson,motorcycle_dealer,"['restaurant', 'automotive']",UT,Lindon,84042.0,555 S Geneva Rd,40.3266865,-111.736277,meta,2025-06-02T07:00:00.000Z,0.9879256218304756,0a2d2282-bf20-4db5-9ea6-f212e82f2e3b,Timpanogos Harley Davidson,commercial,retail,OpenStreetMap,2016-02-09T18:29:21.000Z,,provo,False
816c5c49-2ada-4dcb-9832-12da1a9070a5,Man O' War Harley-Davidson,motorcycle_dealer,['motorcycle_repair'],KY,Lexington,40509.0,2073 Bryant Rd,38.0167183,-84.4088243,meta,2025-06-02T07:00:00.000Z,0.9784508333782836,4b6d6200-7ac8-4dde-9ade-b1384489ea65,Man O' War Harley-Davidson,,,OpenStreetMap,2023-03-16T17:26:27.000Z,,lexington-fayette,False
08367360-78c2-4748-89f0-864695de2a99,Golden Spike Harley-Davidson,motorcycle_dealer,"['shopping', 'professional_services']",UT,Ogden,84405.0,5152 S 1500 W,41.1708654,-112.0150156,meta,2025-06-02T07:00:00.000Z,0.9879256218304756,85e45b40-48e1-438e-bd5e-f4dc0c6c75f5,,,,OpenStreetMap,2024-03-26T19:38:39.000Z,,ogden,False
7304d9cc-1b46-413b-80a0-9a55cd113e6a,Orange County Harley-Davidson,motorcycle_dealer,"['motorcycle_repair', 'motorsports_store']",CA,Irvine,92618.0,8677 Research Dr,33.6454098,-117.741133,meta,2025-06-02T07:00:00.000Z,0.9879256218304756,a4b49e4a-88ee-4fe6-a9e8-fa51a3489ef7,,commercial,commercial,OpenStreetMap,2023-12-09T00:37:00.000Z,,mission-viejo,False
3350074d-f97a-4d46-88c4-6251ddbc07e1,Mobile Bay Harley-Davidson,motorcycle_dealer,"['motorcycle_repair', 'shopping']",AL,Mobile,36606.0,3260 Pleasant Valley Rd,30.6627058,-88.1235349,meta,2025-06-02T07:00:00.000Z,0.9879256218304756,bebe5572-872f-4c01-8aa1-c8f18c1d63c2,,,,OpenStreetMap,2024-06-09T00:06:07.000Z,,mobile,False
b3704b40-3412-47ac-a980-fe823aaa654d,Harley-Davidson,motorcycle_dealer,"['automotive', 'american_restaurant']",AL,Mobile,36606.0,74 Midtown Park W,30.685967,-88.122477,meta,2025-06-02T07:00:00.000Z,0.3376623376623376,920d513c-b999-4a91-98f8-e6a3c2cb305f,,,,OpenStreetMap,2025-03-21T19:13:46.000Z,,mobile,False
83be0848-c925-42ee-a6bd-1b7d2a15e8ad,Mitchell's Modesto Harley-Davidson,motorcycle_dealer,"['motorcycle_repair', 'car_dealer']",CA,Modesto,95351.0,500 N Carpenter Rd,37.6440569,-121.0298669,meta,2025-06-02T07:00:00.000Z,0.9879256218304756,,,,,,,,modesto,False
38390ebb-0a5b-4dbe-a701-df0e615e3093,Riverside Harley-Davidson,motorcycle_dealer,"['motorcycle_repair', 'shopping']",CA,Riverside,92504.0,7688 Indiana Ave,33.9326752,-117.4079133,meta,2025-06-02T07:00:00.000Z,0.9879256218304756,470c41e4-61c3-44a6-85d1-ed74041a6728,,,,OpenStreetMap,2022-01-15T02:51:36.000Z,,riverside-san-bernardino,False
2417cfdb-ac3d-42cd-a3b1-5d90fcc2ef8e,Riverside Harley Davidson,motorcycle_dealer,"['automotive_dealer', 'automotive']",CA,Riverside,92507.0,825 Marlborough Ave,33.999013,-117.328977,meta,2025-06-02T07:00:00.000Z,0.3961437335670464,6a18770a-85cf-46bc-a44a-19738c07d8c3,,,,OpenStreetMap,2023-01-21T20:13:29.000Z,,riverside-san-bernardino,False
4fb5f32d-953f-498c-8fda-1a6a29664a6a,Quaid Harley-Davidson,motorcycle_dealer,"['motorcycle_repair', 'fashion']",CA,Loma Linda,92354.0,25160 Redlands Blvd,34.0650504,-117.254994,meta,2025-06-02T07:00:00.000Z,0.9879256218304756,facf3caa-d6b8-4bc9-8b8c-f03273deb340,,,,Microsoft ML Buildings,2020-11-15T00:00:00.000Z,,riverside-san-bernardino,False
ca129cb7-04d3-4ffd-8f89-deccbb91b942,Harley-Davidson,motorcycle_dealer,['automotive'],AZ,Chandler,85226.0,6895 W Chandler Blvd,33.3044858,-111.9620302,Microsoft,2025-03-27T19:34:08.173Z,0.77,3046caa1-ac58-45e5-8eb0-ef8623ec55f1,,,,OpenStreetMap,2021-04-03T02:00:40.000Z,,phoenix,False
55e9194c-f9b1-42ac-a68b-65469fd97052,Scorpion Harley-Davidson,motorcycle_dealer,"['motorcycle_repair', 'car_dealer']",AZ,Chandler,85226.0,6895 W Chandler Blvd,33.304568,-111.9622058,meta,2025-06-02T07:00:00.000Z,0.9879256218304756,3046caa1-ac58-45e5-8eb0-ef8623ec55f1,,,,OpenStreetMap,2021-04-03T02:00:40.000Z,,phoenix,False
cc9e6af4-0b94-4ef1-bd24-ff277bbcf7ed,Chandler Harley-Davidson,motorcycle_dealer,['automotive'],AZ,Chandler,85226.0,6895 W Chandler Blvd,33.304539,-111.962077,Microsoft,2020-04-02T15:03:34.507Z,0.77,3046caa1-ac58-45e5-8eb0-ef8623ec55f1,,,,OpenStreetMap,2021-04-03T02:00:40.000Z,,phoenix,False
74cd2df6-db7d-41c7-a886-3a411aac17bb,Desert Wind Harley-Davidson,motorcycle_dealer,"['motorcycle_repair', 'fashion']",AZ,Mesa,85210.0,922 S Country Club Dr,33.3981254,-111.8405826,meta,2025-06-02T07:00:00.000Z,0.9879256218304756,27888f27-e887-4618-9031-a6de53e020b4,Desert Wind Harley-Davidson,,,OpenStreetMap,2024-01-17T09:53:56.000Z,,phoenix,False
55e50a02-946e-462f-a1be-525b26fc30d1,RoadRunner Harley Davidson,motorcycle_dealer,"['motorcycle_repair', 'auto_company']",AZ,Goodyear,85395.0,1402 N 159th Ave,33.4624429,-112.4015382,meta,2025-06-02T07:00:00.000Z,0.9879256218304756,8e21746e-86b5-4f6a-b1f3-07913e6ceadf,RoadRunner Harley-Davidson,,,OpenStreetMap,2025-01-16T00:54:26.000Z,,phoenix,False
9c490494-46e3-4261-85fd-14c35b4bf25d,Arrowhead Harley-Davidson Inc.,sporting_goods,"['motorcycle_dealer', 'bicycle_shop']",AZ,Glendale,85301.0,5556 NW Grand Ave,33.532735,-112.1786,meta,2025-06-02T07:00:00.000Z,0.3376623376623376,87dc01ea-528e-47af-aad0-0f1fb8a75a89,,,,Esri Community Maps,2024-10-15T00:00:00.000Z,,phoenix,False
9c490494-46e3-4261-85fd-14c35b4bf25d,Arrowhead Harley-Davidson Inc.,sporting_goods,"['motorcycle_dealer', 'bicycle_shop']",AZ,Glendale,85301.0,5556 NW Grand Ave,33.532735,-112.1786,meta,2025-06-02T07:00:00.000Z,0.3376623376623376,a9a3d579-c532-4e2e-ba29-d2c1d5d7ef33,,,,Esri Community Maps,2024-10-15T00:00:00.000Z,,phoenix,False
c3a563c3-1bc8-4657-a385-01ce879331c9,Arrowhead Harley-Davidson,motorcycle_dealer,"['motorcycle_repair', 'car_dealer']",AZ,Peoria,85382.0,16150 N Arrowhead Fountain Center Dr,33.6338512,-112.2374942,meta,2025-06-02T07:00:00.000Z,0.9879256218304756,a47a92e7-afcb-4291-a5fd-9cae5cd35343,Arrowhead Harley-Davidson,,,OpenStreetMap,2024-01-17T09:53:56.000Z,,phoenix,False
be37e3fa-f8ec-44d8-976b-e96d2da813f3,Harley Davidson Motocycle & Spare Parts Phoenix AZ,motorcycle_dealer,,AZ,Peoria,85383.0,8815 W Avenida del Sol,33.6997702,-112.2494278,meta,2025-06-02T07:00:00.000Z,0.3376623376623376,,,,,,,,phoenix,False
d5ae87bf-536a-4ffb-9fa0-63d32bc0c4b8,Harley Davidson Spare Parts for sale ,automotive_parts_and_accessories,,AZ,Phoenix,4607.0,"4607 S 35th St Suite 1 Phoenix, AZ 85040, USA",33.40478,-112.00642,meta,2025-06-02T07:00:00.000Z,0.8253968253968254,f81a500d-d361-46be-a06a-92d688ef8c7f,,,,OpenStreetMap,2024-06-03T04:01:07.000Z,,phoenix,False
29440155-64b1-417f-a27a-ad21607e87d4,Chandler Harley-Davidson,automotive_dealer,['motorcycle_dealer'],AZ,Phoenix,85034.0,3402 E University Dr,33.416255,-112.009361,meta,2025-06-02T07:00:00.000Z,0.296943231441048,1005d968-a489-4761-85f2-b15928e135dc,PhoenixNAP,,,OpenStreetMap,2024-03-26T19:10:00.000Z,,phoenix,False
09e0587a-336a-4a44-a7d8-850e6a6fea9b,Harley Davidson Footwear,shoe_store,"['clothing_store', 'shopping']",AZ,Phoenix,85022.0,13401 N Cave Creek Rd,33.60811,-112.035948,meta,2025-06-02T07:00:00.000Z,0.3961437335670464,0506e19e-b43d-4139-af13-94ad61109900,,commercial,retail,OpenStreetMap,2017-01-29T01:11:07.000Z,,phoenix,False
7647bdf4-b8e5-46a6-808e-21b3d1d50a70,Buddy Stubbs Harley-Davidson,motorcycle_dealer,"['motorcycle_repair', 'recreational_vehicle_dealer']",AZ,Phoenix,85022.0,13850 N Cave Creek Rd,33.6122042,-112.0359624,meta,2025-06-02T07:00:00.000Z,0.9879256218304756,b082cbae-cb96-44c7-9b69-547b2b000899,,commercial,retail,OpenStreetMap,2020-09-11T02:25:09.000Z,,phoenix,False
c3a67bb7-1802-4e5c-8190-a95ca224e583,Harley-Davidson of Scottsdale,outdoor_gear,"['motorcycle_dealer', 'automotive', 'retail']",AZ,Scottsdale,85260.0,15656 N Hayden Rd,33.627254486084,-111.89656829834,Microsoft,2016-07-15T16:26:54.793Z,0.77,,,,,,,,phoenix,False
5c03d042-d3c4-47a2-8248-4dc66d66c4de,Harley-Davidson of Scottsdale,motorcycle_dealer,"['shopping', 'auto_company']",AZ,Scottsdale,85260.0,15656 N Hayden Rd,33.6280092,-111.8957252,meta,2025-06-02T07:00:00.000Z,0.9784508333782836,cfd1aa81-c715-47ac-8654-ef7bdd3e9ba6,Harley-Davidson of Scottsdale,,,OpenStreetMap,2024-01-17T09:54:33.000Z,,phoenix,False
de906ead-2a2d-4157-9c91-73314b61a1b6,Club Tattoo at Harley Davidson Scottsdale,tattoo_and_piercing,['professional_services'],AZ,Scottsdale,85260.0,15656 N Hayden Rd,33.6282761,-111.8956115,meta,2025-06-02T07:00:00.000Z,0.909823677581864,,,,,,,,phoenix,False
e6e84bdc-d043-4393-8e69-735dbf73f9ec,Superstition Harley-Davidson,motorcycle_dealer,"['motorcycle_repair', 'shopping']",AZ,Apache Junction,85120.0,2910 W Apache Trl,33.4159353,-111.5782109,meta,2025-06-02T07:00:00.000Z,0.9879256218304756,44d06d42-2428-4358-9d06-9598fff99d96,Superstition Harley-Davidson,,,OpenStreetMap,2024-01-17T09:53:56.000Z,,phoenix,False
5722cfb4-ab75-4e16-9553-51eb3dc62c82,Longhorn Harley-Davidson,motorcycle_dealer,"['motorcycle_repair', 'shopping']",TX,Grand Prairie,75052.0,2830 I-20 W,32.6781102,-97.0535109,meta,2025-06-02T07:00:00.000Z,0.9879256218304756,068644a8-05dd-43c2-8a11-257b7f3e4277,Longhorn Harley-Davidson,,,OpenStreetMap,2023-04-17T00:00:18.000Z,,dallas,False
8786d07d-cc1d-4ae5-8c2f-e1d7fdedf84e,American Eagle Harley-Davidson,motorcycle_dealer,"['motorcycle_repair', 'professional_services']",TX,Corinth,76210.0,5920 S I-35 E,33.152869,-97.0630974,meta,2025-06-02T07:00:00.000Z,0.9784508333782836,04fa289e-076c-4214-af46-15466ee2c5cb,Harley-Davidson,commercial,retail,OpenStreetMap,2024-01-17T09:45:24.000Z,,dallas,False
835f09bb-61b7-48af-a886-86b936eee3b8,Maverick Harley-Davidson,motorcycle_dealer,"['motorcycle_repair', 'automotive']",TX,Carrollton,75006.0,1845 N I-35-East,32.62898245179909,-96.82364283327416,Microsoft,2022-03-01T16:19:10.970Z,0.77,,,,,,,,dallas,False
44bf20b9-f3ec-4e00-adb7-d34491ccad45,Maverick Harley-Davidson,motorcycle_dealer,"['motorcycle_repair', 'professional_services']",TX,Carrollton,75006.0,1845 N I-35E,32.965156,-96.9197627,meta,2025-06-02T07:00:00.000Z,0.9879256218304756,58ba45c6-b31b-46ef-b0a6-9aa1ead6f847,Harley-Davidson,,,OpenStreetMap,2024-01-17T09:44:11.000Z,,dallas,False
b40a5ee6-a555-4893-bacb-67e61b6cf67d,Harley-Davidson Financial Services,financial_service,"['insurance_agency', 'financial_advising']",TX,Plano,75075.0,1801 Alma Dr,33.024011,-96.7188972,meta,2025-06-02T07:00:00.000Z,0.5662921348314607,,,,,,,,dallas,False
de1f8e54-82a3-491c-9cbb-b909de67d113,Dallas Harley-Davidson,motorcycle_dealer,"['motorcycle_repair', 'automotive']",TX,Garland,75041.0,1334 W Centerville Rd,32.8565979003906,-96.6478042602539,Microsoft,2017-07-26T17:04:00.287Z,0.77,,,,,,,,dallas,False
aff9992f-e321-4ef8-9111-e00060af060c,Dallas Harley-Davidson,motorcycle_dealer,"['motorcycle_repair', 'auto_company']",TX,Garland,75041.0,1334 W Centerville Rd,32.855499,-96.6460875,meta,2025-06-02T07:00:00.000Z,0.9879256218304756,b9caeed3-9f9b-4e2b-8f98-cc9a76082b50,Dallas Harley-Davidson,,,OpenStreetMap,2023-04-26T04:23:22.000Z,,dallas,False
a483d88f-6fcc-43b1-aa87-17c10331ace4,Black Gold Harley-Davidson,motorcycle_dealer,"['motorcycle_repair', 'motorsports_store']",TX,Allen,75013.0,1007 TX-121,33.1414791,-96.6843583,meta,2025-06-02T07:00:00.000Z,0.9879256218304756,d3c22072-4daa-4969-b831-85404ff46db5,,,,OpenStreetMap,2024-04-07T03:41:44.000Z,,dallas,False
c4179bfe-3f22-4fd9-97b5-5a6afd9df696,Harley-Davidson Of Dallas,motorcycle_dealer,['automotive'],TX,Allen,75013.0,304 Central Expy S,33.0985107421875,-96.6794128417969,Microsoft,2017-10-19T13:25:15.290Z,0.77,,,,,,,,dallas,False
d8b97a94-5c4a-4313-9811-7276f10094d7,Black Gold Harley-Davidson,motorcycle_dealer,['automotive'],TX,Allen,75013.0,304 Central Expy S,33.14385861969914,-96.677348450794,Microsoft,2020-11-10T14:41:47.140Z,0.77,,,,,,,,dallas,False
3b3d1a1d-8d84-4e70-a468-1c53245abe08,Rawhide Harley-Davidson,motorcycle_dealer,"['motorcycle_repair', 'motorsports_store']",KS,Olathe,66061.0,725 N Rawhide Dr,38.8919263,-94.7904708,meta,2025-06-02T07:00:00.000Z,0.9879256218304756,66be5d96-ac21-4c7f-916f-bac6db111c62,Harley-Davidson,,,OpenStreetMap,2018-05-15T21:04:40.000Z,,kansas-city,False
6e22adbf-f9c6-4ab4-8c35-f3d4c40d0708,Rawhide Harley-Davidson,motorcycle_dealer,"['motorcycle_repair', 'automotive']",KS,Olathe,66061.0,725 N Rawhide Dr,38.891674,-94.78951,Microsoft,2013-01-27T23:18:00.250Z,0.77,,,,,,,,kansas-city,False
ac071122-d502-496b-b7bb-e577974bb343,Worth Harley-Davidson,motorcycle_dealer,"['motorcycle_repair', 'music_venue']",MO,Kansas City,64153.0,9400 NW Prairie View Rd,39.263623,-94.6636597,meta,2025-06-02T07:00:00.000Z,0.9879256218304756,bda170a5-4714-4b78-a703-cb30599a72de,Worth Harley-Davidson,,,OpenStreetMap,2024-01-17T03:49:43.000Z,,kansas-city,False
a83d116c-2748-4b8a-a426-02ffa2d1fd06,Worth Harley-Davidson,motorcycle_dealer,"['auto_company', 'automotive']",MO,Gladstone,64118.0,6651 N Oak Trfy,39.2143798,-94.575857,meta,2025-06-02T07:00:00.000Z,0.5662921348314607,,,,,,,,kansas-city,False
76fae4e4-3f0c-45bf-b1ca-01c485c92d30,Sherri Mesh Harley Davidson & More Bike talk & Info,motorcycle_dealer,"['bicycle_shop', 'travel_services']",MO,Kansas City,64136.0,15900 U.S. 40 Highway,39.03525,-94.3935,meta,2025-06-02T07:00:00.000Z,0.3961437335670464,,,,,,,,kansas-city,False
d772ae7c-e434-4c98-a0a3-1cf9385bb5e3,Roc On Harley-Davidson,motorcycle_dealer,"['motorcycle_repair', 'automotive']",NY,Rochester,14623.0,2600 W Henrietta Rd,43.1001538,-77.6286197,meta,2025-06-02T07:00:00.000Z,0.9879256218304756,200c39a8-ef14-4ecc-a345-eab89ceb337b,,,,OpenStreetMap,2021-05-31T14:05:55.000Z,,rochester,False
4c26eac3-a284-478b-ad47-5f4c3397fea2,Dudley Perkins Company Harley Davidson Motorcycles,motorcycle_dealer,"['automotive', 'car_dealer']",CA,South San Francisco,94080.0,333 Corey Way,37.644171,-122.401122,meta,2025-06-02T07:00:00.000Z,0.5662921348314607,eb7df18c-d041-4010-bc61-47942b7d2f61,,,,OpenStreetMap,2023-09-22T01:55:34.000Z,,oakland,True
fa2d0abd-3bcd-4d23-aa5b-fc1a5d78da40,Alcatraz Harley-Davidson,clothing_store,['retail'],CA,San Francisco,94133.0,93 Jefferson St,37.80846252732782,-122.41338407330484,Microsoft,2025-05-19T02:16:04.673Z,0.77,915c7f80-d4f0-432d-b558-5d748c5132ab,Hotel Zephyr San Francisco,,,OpenStreetMap,2023-12-29T23:54:14.000Z,,oakland,False
d6cc096f-755c-43ed-8725-6eacebb8f3dc,Oakland Harley-Davidson,motorcycle_dealer,"['motorcycle_repair', 'shopping']",CA,Oakland,94621.0,151 Hegenberger Rd,37.7312659,-122.2000416,meta,2025-06-02T07:00:00.000Z,0.9879256218304756,3d40ff7d-c10b-43d5-8ecd-d3a84ddd6fd3,,,,OpenStreetMap,2016-02-23T23:30:14.000Z,,oakland,False
47583ee8-d84e-4fc2-b018-fc167d0421ed,McGuire Harley-Davidson,motorcycle_dealer,"['motorcycle_repair', 'auto_company']",CA,Martinez,94553.0,93 1st Ave N,37.9863983,-122.0675599,meta,2025-06-02T07:00:00.000Z,0.9784508333782836,d6e7ea68-8fe8-47f2-93a2-3cbaeb7cdc7d,,commercial,commercial,OpenStreetMap,2017-08-19T05:03:36.000Z,,oakland,False
95065bd2-53e0-4cc5-a7c4-2f29cd07b8e0,Harley-Davidson,automotive_dealer,"['motorcycle_repair', 'automotive_parts_and_accessories']",CA,Concord,94520.0,1401 Willow Pass Rd,37.970396,-122.051002,meta,2025-06-02T07:00:00.000Z,0.296943231441048,c811d075-95b3-4bda-b32f-f6267ede0ada,,commercial,office,OpenStreetMap,2017-12-13T17:33:11.000Z,,oakland,False
51f48d61-914f-4dfe-bb4a-0954ebafbb12,Harley-Davidson of Greenville,motorcycle_dealer,"['motorcycle_repair', 'motorcycle_manufacturer']",SC,Greenville,29615.0,30 Chrome Dr,34.8344881,-82.2929338,meta,2025-06-02T07:00:00.000Z,0.9879256218304756,a3fe4477-ea73-47af-aeeb-e74b8feb1bf8,Harley-Davidson of Greenville,,,OpenStreetMap,2022-11-19T21:30:50.000Z,,greenville,False
a12ce947-0308-41e9-85ed-da7cdec327ad,Harley-Davidson of Greenville,automotive,"['motorcycle_manufacturer', 'auto_company']",SC,Greenville,29607.0,455 Congaree Rd ,34.850313,-82.329136,meta,2025-06-02T07:00:00.000Z,0.4929396662387676,4e2c7227-bdb7-4f28-9711-835461f58237,Carolina Moves Property Management,,,OpenStreetMap,2021-10-21T12:15:10.000Z,,greenville,False
0bfaed77-40cf-44fc-9d98-8b57e01301c6,Death Valley Harley-Davidson,motorcycle_dealer,"['motorcycle_repair', 'shopping']",CA,Victorville,92395.0,14522 Valley Center Dr,34.5161487,-117.3198193,meta,2025-06-02T07:00:00.000Z,0.9879256218304756,1b73dac7-fc87-4930-a669-ea11a4b42393,Harley-Davidson,,,OpenStreetMap,2024-01-17T09:59:03.000Z,,victorville,False
5982a465-91d2-4dde-af15-1e0928c5d9c5,Harley-Davidson of Greensboro,motorcycle_dealer,"['clothing_store', 'motorcycle_repair']",NC,Greensboro,27406.0,538 Farragut St,36.033049,-79.807619,meta,2025-06-02T07:00:00.000Z,0.3376623376623376,6564f077-09c5-4cf0-9de2-fc9b63a4c580,,,,OpenStreetMap,2020-11-30T16:24:38.000Z,,greensboro,False
496c923c-a257-4133-a2e3-a0268b2da5ab,Riding High Harley-Davidson,motorcycle_dealer,"['motorcycle_repair', 'recreational_vehicle_dealer']",NC,High Point,27265.0,3036 NC-68,36.0626524,-79.9602876,meta,2025-06-02T07:00:00.000Z,0.9879256218304756,7cebcda4-bb68-4975-ba01-b70e4845577a,,,,OpenStreetMap,2019-07-19T23:06:29.000Z,,greensboro,False
3a0cd60a-bfce-4a07-96a6-13dc859ea151,Harley Davidson,motorcycle_dealer,"['bicycle_shop', 'car_dealer']",NC,High Point,27265.0,3036 NC-68 S,36.06264,-79.960163,meta,2025-06-02T07:00:00.000Z,0.5662921348314607,7cebcda4-bb68-4975-ba01-b70e4845577a,,,,OpenStreetMap,2019-07-19T23:06:29.000Z,,greensboro,False
2ff8b361-b91d-4ea1-b824-5e1d001c8192,Harley-Davidson & Buell of Edison,motorcycle_dealer,"['professional_services', 'car_dealer']",NJ,Highland Park,8904.0,211 Woodbridge Ave,40.501499,-74.412901,meta,2025-06-02T07:00:00.000Z,0.4929396662387676,00a52c8c-7376-44c4-a678-6053d9bdc7b8,,,,OpenStreetMap,2019-11-06T21:50:25.000Z,,new-york,False
570be133-2f5b-48c1-8feb-cc89e9f2a054,Liberty Harley-Davidson,motorcycle_dealer,"['motorcycle_repair', 'shopping']",NJ,Rahway,7065.0,12 W Milton Ave,40.6059055,-74.2779548,meta,2025-06-02T07:00:00.000Z,0.9879256218304756,,,,,,,,new-york,False
de7e75dd-396f-4182-8358-f6ab9e1f9b4f,Harley-Davidson Of Staten Island,motorcycle_dealer,"['motorcycle_repair', 'clothing_store']",NY,Staten Island,10303.0,1973 Forest Ave,40.62615,-74.1548677,meta,2025-06-02T07:00:00.000Z,0.9879256218304756,8a807b01-da2d-493b-a0a1-fc50bd707874,,commercial,retail,OpenStreetMap,2024-07-31T20:44:45.000Z,,new-york,False
89b36ef1-69ae-4f33-bd43-b88ad033d344,Harley-Davidson of New York City,clothing_store,"['shoe_store', 'motorcycle_dealer']",NY,New York,10012.0,595 Broadway,40.7251843,-73.9973925,meta,2025-06-02T07:00:00.000Z,0.9784508333782836,6c3b98d1-2207-4e23-b07d-31c9900a0b3d,,,,OpenStreetMap,2013-11-23T15:36:31.000Z,,new-york,False
89b36ef1-69ae-4f33-bd43-b88ad033d344,Harley-Davidson of New York City,clothing_store,"['shoe_store', 'motorcycle_dealer']",NY,New York,10012.0,595 Broadway,40.7251843,-73.9973925,meta,2025-06-02T07:00:00.000Z,0.9784508333782836,cf217883-2255-4f0c-b3b5-30edd11c6572,,,,OpenStreetMap,2013-11-23T15:36:32.000Z,,new-york,False
89b36ef1-69ae-4f33-bd43-b88ad033d344,Harley-Davidson of New York City,clothing_store,"['shoe_store', 'motorcycle_dealer']",NY,New York,10012.0,595 Broadway,40.7251843,-73.9973925,meta,2025-06-02T07:00:00.000Z,0.9784508333782836,feebbc0a-19e4-4738-aba9-99171d8bfe01,,,,OpenStreetMap,2013-11-23T15:36:31.000Z,,new-york,False
0e0a6087-dc58-4997-ac89-a4c4fdfbbd85,New York City Harley-Davidson,motorcycle_dealer,"['motorcycle_repair', 'professional_services']",NY,Long Island City,11101.0,42-11 Northern Blvd,40.7535834,-73.9208268,meta,2025-06-02T07:00:00.000Z,0.9784508333782836,21d5c140-ccab-4b9f-8851-def7d675e456,,,,OpenStreetMap,2014-05-09T18:57:26.000Z,,new-york,False
becb1847-ec2f-44f2-8412-08ce15917660,K.F.K Cycles Specializing in Harley Davidson Alterations,motorcycle_dealer,"['motorcycle_repair', 'automotive']",NY,New York,11428.0,211-19 Jamaica Ave,40.715575,-73.748718,meta,2025-06-02T07:00:00.000Z,0.7548172757475083,e60883be-c3e7-49e4-9abb-0a5d6f923f49,,,,OpenStreetMap,2013-11-28T15:35:39.000Z,,new-york,False
becb1847-ec2f-44f2-8412-08ce15917660,K.F.K Cycles Specializing in Harley Davidson Alterations,motorcycle_dealer,"['motorcycle_repair', 'automotive']",NY,New York,11428.0,211-19 Jamaica Ave,40.715575,-73.748718,meta,2025-06-02T07:00:00.000Z,0.7548172757475083,0fb0aa46-27d2-4339-b351-e245dcec4c40,,,,OpenStreetMap,2013-11-28T15:35:39.000Z,,new-york,False
e924295d-3026-49fa-819c-2fe86a4937b6,Harley-Davidson of Nassau County,motorcycle_dealer,"['motorcycle_repair', 'shopping']",NY,Bellmore,11710.0,2428 Sunrise Hwy,40.6659843,-73.537065,meta,2025-06-02T07:00:00.000Z,0.9879256218304756,5739aa68-4476-44bd-b2e2-0fa37e16afde,,commercial,commercial,OpenStreetMap,2022-12-16T19:28:31.000Z,,new-york,False
d4f993ba-8873-4f9c-9e10-538ed76a10d4,Suffolk County Harley-Davidson,motorcycle_dealer,"['clothing_store', 'motorcycle_repair']",NY,Islip,11769.0,4020 Sunrise Hwy,40.7479809,-73.1396803,meta,2025-06-02T07:00:00.000Z,0.9879256218304756,f4f688d1-6341-4bb3-8a45-0b776aa02f41,,commercial,commercial,OpenStreetMap,2022-04-13T01:53:06.000Z,,new-york,False
6c0ac266-c0a6-49e8-8280-a9424176a911,Garden State Harley-Davidson,motorcycle_dealer,['automotive'],NJ,Morris Plains,7950.0,1775 Rt 10 E,40.84815651253015,-74.4715091586113,Microsoft,2014-10-28T18:30:26.843Z,0.77,,,,,,,,new-york,False
983e15a3-c813-4d53-97cc-e9af820b5f7b,Garden State Harley-Davidson,car_dealer,"['motorcycle_dealer', 'automotive_dealer']",NJ,Kinnelon,7405.0,1151 State RT 23,40.988506,-74.332379,meta,2025-06-02T07:00:00.000Z,0.3376623376623376,e47ef515-0b51-40d5-9931-8e773557dfb8,Raymour & Flanigan,,,OpenStreetMap,2024-01-17T03:38:06.000Z,,new-york,False
d1a9fcc3-550d-48bf-b9dd-9e834f55b71d,Bergen County Harley-Davidson/BMW,motorcycle_dealer,"['motorcycle_repair', 'automotive']",NJ,Rochelle Park,7662.0,124 Essex St,40.892524,-74.073685,Microsoft,2013-01-29T03:58:48.983Z,0.77,,,,,,,,new-york,False
5350c212-cab1-4c77-bee2-86fc62ec4a62,Bergen Harley-Davidson,motorcycle_dealer,"['motorcycle_repair', 'shopping']",NJ,Rochelle Park,7662.0,124 Essex St,40.8927207,-74.0735116,meta,2025-06-02T07:00:00.000Z,0.9879256218304756,dfc2948d-6a9c-4af8-8152-67c15ad2a2f9,,,,OpenStreetMap,2019-01-03T22:57:08.000Z,,new-york,False
a3e41b37-90a8-464b-88ec-b3b046c46035,Bergen County Harley-Davidson,motorcycle_dealer,,NJ,Lodi,7644.0,126 Essex St,40.892753,-74.0732938,meta,2025-06-02T07:00:00.000Z,0.296943231441048,dfc2948d-6a9c-4af8-8152-67c15ad2a2f9,,,,OpenStreetMap,2019-01-03T22:57:08.000Z,,new-york,False
42545510-463a-4259-8034-e5cb41a13b36,Empire Harley-Davidson,motorcycle_dealer,"['motorcycle_repair', 'shopping']",NY,New Rochelle,10805.0,8 Industrial Ln,40.8981346,-73.7920009,meta,2025-06-02T07:00:00.000Z,0.9879256218304756,d0e8e6ef-e577-414f-8057-16948f527fcc,,,,OpenStreetMap,2021-06-05T04:56:35.000Z,,new-york,False
5ebcadd9-e3dc-40ef-900a-3407295616a7,Farrow Downtown Harley-Davidson,leather_goods,"['museum', 'motorcycle_dealer', 'automotive', 'retail']",OH,Columbus,43215.0,491 W Broad St,39.960286,-83.013716,Microsoft,2025-05-18T04:55:32.270Z,0.77,2794d81b-d88c-4f8e-92fe-15de19c7d681,,,,OpenStreetMap,2025-02-26T02:39:48.000Z,,columbus-ohio,False
ce7f0c81-3eab-499a-a7fb-8436286bae44,Farrow Downtown Harley-Davidson,leather_goods,"['museum', 'motorcycle_dealer', 'automotive', 'retail']",OH,Columbus,43215.0,491 W Broad St,39.9606334,-83.0138256,Microsoft,2025-05-13T11:08:06.723Z,0.77,,,,,,,,columbus-ohio,False
e299eb6f-d6a5-4d51-802b-b10be3b52dc2,No Cages Harley Davidson,motorcycle_dealer,"['motorcycle_repair', 'shopping']",OH,Plain City,43064.0,7610 Commerce Pl,40.1243415,-83.1880902,meta,2025-06-02T07:00:00.000Z,0.9879256218304756,4ab5fc08-e897-4c7a-ab69-8753eb0f8a7f,,,,Microsoft ML Buildings,2024-07-01T00:00:00.000Z,0.9779000282287598,columbus-ohio,False
00953e5c-9cfe-4bd2-a251-8f03408fad44,Harley Davidson Spare Parts Shop and Retail,motorcycle_dealer,,OH,Columbus,43232.0,3114 Rotunda Ct N,39.92733,-82.90985,meta,2025-06-02T07:00:00.000Z,0.3961437335670464,d1360549-d139-4fa9-812e-871d7c3a8025,,,,Esri Community Maps,2024-10-15T00:00:00.000Z,,columbus-ohio,False
bd20ece9-a2a7-41cc-a4b7-ea816eb9fbd7,Farrow East Harley-Davidson,motorcycle_dealer,"['motorcycle_repair', 'shopping']",OH,Columbus,43232.0,5840 Scarborough Blvd,39.9322713,-82.8359348,meta,2025-06-02T07:00:00.000Z,0.9784508333782836,8c5e0cf3-569d-428e-a3ea-97427172aaec,,,,OpenStreetMap,2022-10-22T17:31:46.000Z,,columbus-ohio,False
7816bb9c-4f1c-4980-96db-9758c0f3c51c,Motor City Harley-Davidson,motorcycle_dealer,"['motorcycle_repair', 'shopping']",MI,Farmington Hills,48335.0,24800 Haggerty Rd,42.4741623,-83.4338742,meta,2025-06-02T07:00:00.000Z,0.9879256218304756,2ef962a8-c6e0-49af-883f-ce43443c08cf,Motor City Harley-Davidson,commercial,commercial,OpenStreetMap,2023-07-30T15:01:30.000Z,,detroit,False
97603de4-04f3-4986-93d2-6e3683dc3e92,MotorCity Harley-Davidson,motorcycle_dealer,"['motorcycle_repair', 'automotive']",MI,Farmington Hills,48335.0,24800 Haggerty Rd,42.474216,-83.433832,Microsoft,2019-11-04T14:03:56.980Z,0.77,2ef962a8-c6e0-49af-883f-ce43443c08cf,Motor City Harley-Davidson,commercial,commercial,OpenStreetMap,2023-07-30T15:01:30.000Z,,detroit,False
38a82473-904f-4a94-a3c1-28275c3db70a,MotorCity Harley-Davidson,motorcycle_dealer,,MI,Farmington Hills,48335.0,34900 Grand River Ave,42.469464,-83.390778,meta,2025-06-02T07:00:00.000Z,0.4929396662387676,b51f2c68-6ccb-49c1-a319-9017d3d9ab37,Motor City Harley-Davidson,commercial,commercial,OpenStreetMap,2020-05-02T19:25:54.000Z,,detroit,False
fffa00aa-9342-4a6f-956d-ac877952043a,Motown Harley-Davidson,motorcycle_dealer,"['motorcycle_repair', 'motorsports_store']",MI,Taylor,48180.0,14100 Telegraph Rd,42.2039653,-83.269643,meta,2025-06-02T07:00:00.000Z,0.9879256218304756,1a9385e0-a19b-48a7-9aa4-56b21980b6d9,Harley-Davidson,,,OpenStreetMap,2024-01-17T09:40:01.000Z,,detroit,False
b697fa3b-2328-4d51-88c9-93da40651693,Harley Davidson Riding Academy at Biker Bobs HD,motorcycle_dealer,"['specialty_school', 'active_life']",MI,Taylor,48180.0,14100 Telegraph Rd,42.20411,-83.26964,meta,2025-06-02T07:00:00.000Z,0.7548172757475083,1a9385e0-a19b-48a7-9aa4-56b21980b6d9,Harley-Davidson,,,OpenStreetMap,2024-01-17T09:40:01.000Z,,detroit,False
d28b703a-0146-4403-b2d3-f7951b876a26,Thunder Road Harley-Davidson,motorcycle_dealer,"['automotive_services_and_repair', 'professional_services']",ON,Windsor,9.0,2100 Ambassador Dr,42.2767851,-83.0530653,meta,2025-06-02T07:00:00.000Z,0.9879256218304756,24b70056-a33b-41fc-a85c-85f2fe1d9f82,,,,OpenStreetMap,2020-04-04T01:53:18.000Z,,detroit,False
91f8ab59-3d9c-401a-9b3f-a417315f16f0,Arsenal Harley Davidson,motorcycle_dealer,"['motorcycle_repair', 'fashion']",MI,Waterford,48328.0,4405 Highland Rd,42.6547227,-83.3746032,meta,2025-06-02T07:00:00.000Z,0.9879256218304756,cd007161-f84e-41ff-9fa9-47197ce738a2,Arsenal Harley-Davidson,,,OpenStreetMap,2023-04-15T14:36:30.000Z,,detroit,False
ad40aa3b-abff-45b4-84e9-e26d22ded52b,Independence Harley-Davidson,motorcycle_dealer,"['motorcycle_repair', 'shopping']",NC,Matthews,28105.0,9205 E Independence Blvd,35.1407416,-80.717001,meta,2025-06-02T07:00:00.000Z,0.9879256218304756,29f52663-85b6-4bf5-a553-b727d71f52e2,Harley-Davidson of Charlotte,,,OpenStreetMap,2024-01-17T03:38:06.000Z,,charlotte,False
e34704cd-f0dd-458d-baf2-d8ce29dae677,Harley-Davidson of Charlotte,motorcycle_dealer,"['motorcycle_repair', 'automotive']",NC,Matthews,28105.0,9205 E Independence Blvd,35.141418,-80.717018,Microsoft,2017-12-23T22:36:22.440Z,0.77,,,,,,,,charlotte,False
f2e67440-a6de-4a46-9ee2-fdd94fc6fe11,Shreveport Harley-Davidson,motorcycle_dealer,"['motorcycle_repair', 'motorsports_store']",LA,Shreveport,71105.0,805 Brook Hollow Dr,32.418264,-93.726059,meta,2025-06-02T07:00:00.000Z,0.3961437335670464,1d83da28-7ccf-4ea7-9f43-9db84fe4a562,,,,OpenStreetMap,2022-01-02T22:39:40.000Z,,shreveport,False
c2214fd0-488e-41c3-8a7f-58caf5063ada,3 State Harley-Davidson,motorcycle_dealer,"['motorcycle_repair', 'auto_company']",LA,Bossier City,71111.0,2225 Autoplex Dr,32.5601089,-93.7303992,meta,2025-06-02T07:00:00.000Z,0.9879256218304756,6c76c9f0-bf5e-441b-9701-cf50982e81a4,Bossier City Harley Davidson,commercial,commercial,OpenStreetMap,2014-07-19T16:12:52.000Z,,shreveport,False
4a2b2fe9-3f08-4d4a-89c5-034a4f6143f2,Big Barn Harley-Davidson,motorcycle_dealer,"['motorcycle_repair', 'clothing_store']",IA,Des Moines,50313.0,81 NW 49th Pl,41.6509334,-93.6179259,meta,2025-06-02T07:00:00.000Z,0.9879256218304756,2c499377-5a90-41be-a09f-f0135e04317d,Harley-Davidson,,,OpenStreetMap,2024-01-17T09:40:01.000Z,,des-moines,False
ba205bb6-c32e-4c5c-a2ef-45fe582765fc,Vehicle City Harley-Davidson,motorcycle_dealer,"['motorcycle_repair', 'automotive_parts_and_accessories']",MI,Flint,48507.0,2400 Austin Pkwy,42.9913899,-83.7397236,meta,2025-06-02T07:00:00.000Z,0.9784508333782836,bb818419-6862-43c3-8257-ffb6757a55bb,,,,OpenStreetMap,2019-12-15T05:18:06.000Z,,flint,False
450faeab-cc5d-4ef6-b8c5-362d818ff12f,Republic Harley-Davidson,motorcycle_dealer,"['motorcycle_repair', 'car_dealer']",TX,Stafford,77477.0,12707 Southwest Fwy,29.6358987,-95.583533,meta,2025-06-02T07:00:00.000Z,0.9879256218304756,,,,,,,,houston,False
79d86d1e-e11f-4766-8a53-48e36828a00b,Harley-Davidson Parts Center,automotive_parts_and_accessories,"['automotive', 'wholesale_store']",TX,Stafford,77477.0,12707 Southwest Fwy,29.6359084,-95.5834938,meta,2025-06-02T07:00:00.000Z,0.9459263554653524,,,,,,,,houston,False
20481ce6-e587-4598-8168-c38144abaa85,Stubbs Harley-Davidson,motorcycle_dealer,"['motorcycle_repair', 'professional_services']",TX,Houston,77087.0,4400 Telephone Rd,29.6992941,-95.3026785,meta,2025-06-02T07:00:00.000Z,0.9879256218304756,163deda4-d963-4dd8-9827-1d693f120895,,,,OpenStreetMap,2018-07-15T11:19:45.000Z,,houston,False
1c611914-da53-4a77-a0fd-955e54959984,Mancuso Harley-Davidson Central,motorcycle_dealer,"['motorcycle_repair', 'motorsports_store']",TX,Houston,77018.0,535 North Loop,29.8144928,-95.3923895,meta,2025-06-02T07:00:00.000Z,0.9784508333782836,20c83483-81c6-420d-9e10-c09cfa720991,,,,OpenStreetMap,2021-03-24T08:09:55.000Z,,houston,False
15d42dfe-84ef-42c9-811d-1c710751ad77,Ironhead Mike Snizik at Mancuso Central Harley Davidson,automotive,"['motorcycle_dealer', 'motorcycle_repair']",TX,Houston,77018.0,535 North Loop,29.814405,-95.392084,meta,2025-06-02T07:00:00.000Z,0.3961437335670464,,,,,,,,houston,False
3815d20e-fc63-4db2-a446-2ebc1ccbfaf5,San Jacinto Harley-Davidson,motorcycle_dealer,"['motorcycle_repair', 'fashion_accessories_store']",TX,Pasadena,77505.0,3636 E Sam Houston Pkwy S,29.6559586,-95.1572212,meta,2025-06-02T07:00:00.000Z,0.9879256218304756,72345cd9-e31e-4a91-830a-69799dfe547e,,,,OpenStreetMap,2020-09-09T10:03:28.000Z,,houston,False
40c64ec4-d732-4415-a163-5eda5385e25a,Mancuso Harley-Davidson Crossroads,motorcycle_dealer,"['motorcycle_repair', 'car_dealer']",TX,Houston,77065.0,12710 Crossroads Park Dr,29.9149293,-95.6114946,meta,2025-06-02T07:00:00.000Z,0.9879256218304756,6f4a0d77-7c9f-4458-b006-a50fe2332710,,,,OpenStreetMap,2020-06-19T07:57:04.000Z,,houston,False
47c9c10f-f777-4e05-ac25-0bc411173e0c,Harley-Davidson Motor Cycles,motorcycle_dealer,['professional_services'],TX,Spring,77380.0,25545 Interstate 45,30.1329388,-95.4453936,meta,2025-06-02T07:00:00.000Z,0.9459263554653524,326c53a2-baa4-4115-ab81-39929805a560,The Woodlands Harley-Davidson,,,OpenStreetMap,2024-07-24T19:45:30.000Z,,houston,False
8b73fe7a-471c-410b-9af4-01aae16d3144,Harley Davidson of Fort Myers,automotive,"['auto_company', 'automotive_dealer']",FL,Fort Myers,33907.0,1870 Clayton Ct,26.584316,-81.874302,meta,2025-06-02T07:00:00.000Z,0.3961437335670464,6b1d2cec-c221-46c7-b207-d6120f111734,,,,OpenStreetMap,2021-02-08T21:42:49.000Z,,cape-coral,False
0865162d-f981-45ed-b83d-cf474608675c,Harley-Davidson of Fort Myers,motorcycle_dealer,"['automotive', 'motorcycle_repair']",FL,Fort Myers,33907.0,2160 Colonial Blvd,26.59601,-81.868289,meta,2025-06-02T07:00:00.000Z,0.4929396662387676,7dde0104-c9f2-4ee8-ac29-9d50d7a90685,,,,OpenStreetMap,2012-11-03T11:59:21.000Z,,cape-coral,False
12e4e236-fced-4919-bde2-08114a1f56db,Southern California Harley-Davidson,motorcycle_dealer,['professional_services'],CA,National City,91950.0,3201 Hoover Ave,32.6540723,-117.1014793,meta,2025-06-02T07:00:00.000Z,0.9415384615384615,c77b7e48-8450-4d65-95de-0e981e6b686d,Harley-Davidson,,,OpenStreetMap,2024-01-17T09:59:03.000Z,,san-diego,False
162aa1b9-2a9b-4ed8-9286-1ba5f7e63a96,Coronado Beach Harley-Davidson,motorcycle_dealer,"['motorcycle_repair', 'automotive']",CA,National City,91950.0,3201 Hoover Ave,32.654144,-117.101194,Microsoft,2020-05-28T15:10:26.160Z,0.77,c77b7e48-8450-4d65-95de-0e981e6b686d,Harley-Davidson,,,OpenStreetMap,2024-01-17T09:59:03.000Z,,san-diego,False
e760adf6-787c-4655-be4b-c08cd783cef9,National City Harley-Davidson,motorcycle_dealer,"['motorcycle_repair', 'motorsports_store']",CA,National City,91950.0,3201 Hoover Ave,32.654153,-117.101151,meta,2025-06-02T07:00:00.000Z,0.9879256218304756,c77b7e48-8450-4d65-95de-0e981e6b686d,Harley-Davidson,,,OpenStreetMap,2024-01-17T09:59:03.000Z,,san-diego,False
fe3fa112-aa94-4e4f-93f9-06446f3ec4fd,Sweetwater Harley-Davidson,motorcycle_dealer,['automotive'],CA,San Diego,92104.0,3245 University Ave #1183,32.7484551072121,-117.124165892601,Microsoft,2013-01-28T00:16:03.593Z,0.77,,,,,,,,san-diego,False
99c65948-1fc4-4199-ab48-2f61a0666911,San Diego Harley-Davidson,motorcycle_dealer,"['motorcycle_repair', 'automotive_parts_and_accessories']",CA,San Diego,92117.0,4645 Morena Blvd,32.8228504,-117.2265926,meta,2025-06-02T07:00:00.000Z,0.9879256218304756,5b504336-29f3-4826-bac5-7ef0d74bd654,,,,OpenStreetMap,2009-03-05T23:42:07.000Z,,san-diego,False
ca92cbb7-5f11-4595-acbd-f0fc4363e20a,El Patron Harley-Davidson,motorcycle_dealer,"['motorcycle_repair', 'motorsports_store']",CA,El Cajon,92020.0,621 El Cajon Blvd,32.7892978,-116.9728144,meta,2025-06-02T07:00:00.000Z,0.9879256218304756,4af9efca-88c5-4889-b841-3353f0a21085,,,,Microsoft ML Buildings,2023-09-01T00:00:00.000Z,0.980400025844574,san-diego,False
ab3ebfb3-fd44-43f1-aff0-8599d32f1dd8,Lancaster Harley-Davidson,motorcycle_dealer,['professional_services'],PA,Willow Street,17584.0,308 Beaver Valley Pike,39.988698,-76.2703203,meta,2025-06-02T07:00:00.000Z,0.9784508333782836,4b34ab09-ead8-42b5-b28d-b03de94ba314,,,,OpenStreetMap,2021-03-09T00:19:51.000Z,,lancaster,False
9fabf757-26dd-449e-992a-5140b603ffca,Lancaster Harley-Davidson,motorcycle_dealer,"['automotive', 'motorcycle_repair']",PA,Lancaster,17602.0,35 S Willowdale Dr,40.021187,-76.194547,meta,2025-06-02T07:00:00.000Z,0.242152466367713,0bf7461f-ec23-4678-9f8e-12da4a57be2d,,commercial,retail,OpenStreetMap,2021-10-08T21:41:03.000Z,,lancaster,False
4134300b-46c0-4ad8-8646-c44e30061602,Fresno Harley-Davidson,motorcycle_dealer,"['motorcycle_repair', 'professional_services']",CA,Fresno,93722.0,4345 W Shaw Ave,36.8079284,-119.8703929,meta,2025-06-02T07:00:00.000Z,0.9879256218304756,97796688-5ff6-4956-980a-47e478f780e6,,,,OpenStreetMap,2012-05-17T20:48:22.000Z,,fresno,False
fa4c0c54-6171-446d-991a-f4a2ee3957e0,Harley-Davidson of Fresno,motorcycle_dealer,"['automotive', 'retail']",CA,Fresno,93722.0,4345 W Shaw Ave,36.808174,-119.870445,Microsoft,2013-02-27T15:51:55.873Z,0.77,,,,,,,,fresno,False
54a05ed5-8b87-4ee6-90ea-9c1c5e53aebe,Mathews Harley-Davidson,motorcycle_dealer,"['shopping', 'automotive']",CA,Fresno,93701.0,548 N Blackstone Ave,36.7514273,-119.7896332,meta,2025-06-02T07:00:00.000Z,0.9879256218304756,6898f4e9-9b93-4ac0-853d-0bc4e3e0fbd6,,,,Microsoft ML Buildings,2022-05-30T00:00:00.000Z,,fresno,False
63b70391-0163-4c37-9667-5a62639ea2a6,Renegade Harley-Davidson,motorcycle_dealer,"['motorcycle_repair', 'car_dealer']",MO,Springfield,65807.0,3980 W Sunshine St,37.1804298,-93.3614158,meta,2025-06-02T07:00:00.000Z,0.9879256218304756,d86c0dad-5b03-4a66-8bc2-aed9e2f23402,,,,Microsoft ML Buildings,2020-04-01T00:00:00.000Z,,springfield-missouri,False
6a4512fa-9d43-49c8-9db3-bc9165e2c483,Teddy Morse's Renegade Harley-Davidson,motorcycle_dealer,['automotive'],MO,Springfield,65807.0,3980 W Sunshine St,37.1808798,-93.3615533,Microsoft,2025-05-22T05:43:29.620Z,0.77,,,,,,,,springfield-missouri,False
3337e7ae-5725-4531-9695-680c40465066,Destination Harley-Davidson of Tacoma,motorcycle_dealer,"['motorcycle_repair', 'automotive_dealer']",WA,Fife,98424.0,2302 Pacific Hwy E,47.2428823,-122.3970534,meta,2025-06-02T07:00:00.000Z,0.9879256218304756,86ab8014-91ef-4f0b-bb43-f329f4f83e21,,,,OpenStreetMap,2024-08-24T19:57:17.000Z,,seattle,False
43598b29-eea9-4a8c-8d83-e6e3ec2a91ea,Destination Harley Davidson,hotel,"['automotive_dealer', 'automotive']",WA,Puyallup,98375.0,18810 Meridian E,47.0849268,-122.2945758,meta,2025-06-02T07:00:00.000Z,0.5662921348314607,d916aff8-0cc7-4e86-9ba4-b233feafdc1b,,,,OpenStreetMap,2022-01-07T01:40:05.000Z,,seattle,False
f55aad64-d9f9-4b6b-8ff6-52dca3b875e6,Jet City Harley-Davidson,motorcycle_dealer,"['motorcycle_repair', 'shopping']",WA,Renton,98057.0,3715 E Valley Rd,47.4463388,-122.2193073,meta,2025-06-02T07:00:00.000Z,0.93,69ad6126-8b39-45cf-89bc-60ebfa9082ce,Harley-Davidson,,,OpenStreetMap,2024-03-28T22:45:09.000Z,,seattle,False
c9a6f697-c4d5-4755-a2cc-45f0d9af6d34,Mount Rainier Harley-Davidson,clothing_store,['motorcycle_dealer'],WA,Seattle,98101.0,1305 1st Ave,47.6043834,-122.3395668,meta,2025-06-02T07:00:00.000Z,0.8860580325548478,,,,,,,,seattle,False
f34471c5-7a54-4a4d-8cef-1e3ca6e3e7fd,Downtown Harley Davidson,motorcycle_dealer,"['shopping', 'automotive']",WA,Seattle,98101.0,1305 1st Ave,47.6044659,-122.3396183,meta,2025-06-02T07:00:00.000Z,0.3376623376623376,,,,,,,,seattle,False
46351910-89bb-4f24-843d-677bff13abea,Eastside Harley-Davidson,motorcycle_dealer,"['motorcycle_repair', 'automotive']",WA,Bellevue,98005.0,2350 136th Pl NE,47.6308526,-122.1561235,meta,2025-06-02T07:00:00.000Z,0.9879256218304756,8f74ea93-a0a8-492f-b94c-2413492101c9,Eastside Harley-Davidson,,,OpenStreetMap,2024-08-16T04:43:17.000Z,,seattle,False
a50da441-bfc0-41f1-9ba7-ef04a5ce9271,Emerald City Harley-Davidson,motorcycle_dealer,"['motorcycle_repair', 'shopping']",WA,Lynnwood,98037.0,5711 188th St SW,47.8287552,-122.3105354,meta,2025-06-02T07:00:00.000Z,0.9784508333782836,f3003102-1739-4ba1-94bd-8ddd521340dc,Emerald City Harley-Davidson,,,OpenStreetMap,2025-01-31T02:39:56.000Z,,seattle,False
e51e6e3e-18fb-45fb-a3ca-7e171ca62c2f,Hawg Doc - Servicing Harley Davidson and other American V-twin motorcycles.,motorcycle_repair,"['automotive_repair', 'automotive']",WA,Snohomish,98296.0,7713 180th St SE,47.8341008,-122.1285234,meta,2025-06-02T07:00:00.000Z,0.9784508333782836,da084753-0438-4cef-a7bb-e9fa4279a22d,,,,Microsoft ML Buildings,2020-08-19T00:00:00.000Z,,seattle,False
5af160b1-e060-4e49-9ae9-8ad8c1497863,Emerald City Harley-Davidson - Snohomish,motorcycle_dealer,"['motorcycle_repair', 'motorcycle_gear', 'automotive']",WA,Snohomish,98290.0,915 1st St,47.911152,-122.094054,Microsoft,2020-11-11T21:15:28.853Z,0.77,b9abb388-e394-45f5-bd9a-0f293f55303e,,,,OpenStreetMap,2019-04-18T04:48:36.000Z,,seattle,False
33220c6a-30a3-4d32-ac52-838bfd81dc1f,Barnett Harley-Davidson,motorcycle_dealer,"['motorcycle_repair', 'shopping']",TX,El Paso,79907.0,8272 Gateway Blvd E,31.7418623,-106.3302453,meta,2025-06-02T07:00:00.000Z,0.9879256218304756,80f3e801-c0f1-4fdf-a3ee-26457e274e1b,,,,OpenStreetMap,2020-04-24T21:50:01.000Z,,el-paso,False
612f743c-d307-42f7-b175-cbcaf4b3ad91,Huntington Beach Harley-Davidson,motorcycle_dealer,"['motorcycle_repair', 'shopping']",CA,Westminster,92683.0,15080 Goldenwest Cir,33.7430676,-118.0014112,meta,2025-06-02T07:00:00.000Z,0.9879256218304756,8b8eb5f9-22b2-471f-b0fd-54a276b2e79f,,,,OpenStreetMap,2018-01-04T10:41:02.000Z,,los-angeles,False
00c65aef-99b1-4ded-9083-2d09c1c76771,Huntington Beach Harley-Davidson,motorcycle_dealer,['automotive'],CA,Westminster,92683.0,15080 Goldenwest Cir,33.7424437883651,-118.00134822260377,Microsoft,2025-02-28T22:28:24.550Z,0.77,4ba4d594-1761-48bd-8d54-429cf29bc546,,,,OpenStreetMap,2018-01-04T10:41:02.000Z,,los-angeles,False
7304d9cc-1b46-413b-80a0-9a55cd113e6a,Orange County Harley-Davidson,motorcycle_dealer,"['motorcycle_repair', 'motorsports_store']",CA,Irvine,92618.0,8677 Research Dr,33.6454098,-117.741133,meta,2025-06-02T07:00:00.000Z,0.9879256218304756,a4b49e4a-88ee-4fe6-a9e8-fa51a3489ef7,,commercial,commercial,OpenStreetMap,2023-12-09T00:37:00.000Z,,los-angeles,False
bc833893-1479-4f26-b40f-a6283afa2a73,California Harley-Davidson,motorcycle_dealer,"['motorcycle_repair', 'auto_company']",CA,Los Angeles,90710.0,1517 Pacific Coast Hwy,33.7896124,-118.3033392,meta,2025-06-02T07:00:00.000Z,0.9784508333782836,e2464d8b-90e3-469c-9b7b-0ea60a399a49,,commercial,commercial,OpenStreetMap,2016-04-04T22:26:21.000Z,,los-angeles,False
106bb149-5b7c-4248-b13e-9f6675713838,Harley Davidson Autoshop Parts And Accessories,automotive,"['auto_company', 'automotive_repair']",CA,Gardena,90249.0,3112 W 147th St,33.89815,-118.32743,meta,2025-06-02T07:00:00.000Z,0.5662921348314607,e0361460-85da-44d3-bd0c-45bceeff23c1,,commercial,retail,OpenStreetMap,2016-09-15T15:36:35.000Z,,los-angeles,False
2d032e60-50d8-4964-ae54-026fb715872f,Alessandro Harley Davidson Dealership,automotive_parts_and_accessories,,CA,Long Beach,90813.0,1511 W 14th St,33.7840082,-118.21243,meta,2025-06-02T07:00:00.000Z,0.8148148148148148,7467249e-a712-410f-a8ee-e2d5371d96f1,,industrial,industrial,OpenStreetMap,2016-04-07T06:22:37.000Z,,los-angeles,False
2d032e60-50d8-4964-ae54-026fb715872f,Alessandro Harley Davidson Dealership,automotive_parts_and_accessories,,CA,Long Beach,90813.0,1511 W 14th St,33.7840082,-118.21243,meta,2025-06-02T07:00:00.000Z,0.8148148148148148,5dbc26bd-5215-4a20-b240-2a4da1103e60,,industrial,industrial,OpenStreetMap,2016-04-07T06:22:53.000Z,,los-angeles,False
03211dea-ff4a-42ea-b4b7-58a4fee8fe4f,Bartel's Harley Davidson,clothing_store,"['shopping', 'automotive_dealer']",CA,Los Angeles,90045.0,1 World Way,33.9420856,-118.3998896,meta,2025-06-02T07:00:00.000Z,0.9459263554653524,7b7a14cd-7444-4357-9955-096fff04a4e3,Terminal 7,,,OpenStreetMap,2025-05-12T15:55:54.000Z,,los-angeles,False
e2205241-9ab3-4aa5-9e51-69e5a2c43929,Bartels' Harley-Davidson,motorcycle_dealer,"['motorcycle_repair', 'bicycle_shop']",CA,Marina del Rey,90292.0,4141 Lincoln Blvd,33.9873954,-118.4453373,meta,2025-06-02T07:00:00.000Z,0.9879256218304756,da214b52-a14d-465e-9106-4c1f1626df5f,,commercial,commercial,OpenStreetMap,2023-11-23T16:53:41.000Z,,los-angeles,False
a1df48d2-8c28-49e5-952f-fc9c3b96b1a3,Hollywood Harley Davidson,shopping,"['motorcycle_dealer', 'bicycle_shop']",CA,Los Angeles,90028.0,6810 Hollywood Blvd,34.10119,-118.33917,meta,2025-06-02T07:00:00.000Z,0.9879256218304756,df77fc64-77cd-473a-a789-a0d4ee9f8823,,commercial,retail,OpenStreetMap,2016-06-10T07:13:33.000Z,,los-angeles,False
5a744ce1-6c47-4b0a-8a3d-e1e337a22853,Harley-Davidson® of Hollywood,t_shirt_store,"['clothing_store', 'motorcycle_dealer', 'automotive', 'retail']",CA,Los Angeles,90046.0,6810 Hollywood Blvd,34.1013433,-118.3392092,Microsoft,2020-07-19T03:03:34.570Z,0.77,df77fc64-77cd-473a-a789-a0d4ee9f8823,,commercial,retail,OpenStreetMap,2016-06-10T07:13:33.000Z,,los-angeles,False
ce114bf7-4ee8-476f-a872-409836a08409,Magnum Harley-Davidson,motorcycle_dealer,['automotive'],CA,Calabasas,91302.0,24050 Ventura Blvd,34.1542915,-118.6515007,Microsoft,2025-04-03T03:04:56.657Z,0.77,9c8286db-0cf2-4d1c-afe0-cfa25222424c,,commercial,commercial,OpenStreetMap,2016-07-10T06:43:22.000Z,,los-angeles,False
5e90efaf-e576-4c7d-9c7d-e74eca092f12,Mulholland Harley-Davidson Service & Parts,motorcycle_dealer,"['motorcycle_repair', 'shopping']",CA,Calabasas,91302.0,24050 Ventura Blvd,34.1543888,-118.6515034,meta,2025-06-02T07:00:00.000Z,0.9879256218304756,9c8286db-0cf2-4d1c-afe0-cfa25222424c,,commercial,commercial,OpenStreetMap,2016-07-10T06:43:22.000Z,,los-angeles,False
90513d62-46e4-4c60-87bf-7d5a85a27cb6,Van Nuys Harley Davidson,motorcycle_repair,"['automotive', 'motorcycle_dealer']",CA,Van Nuys,91411.0,14749 Calvert St,34.181904,-118.45476,meta,2025-06-02T07:00:00.000Z,0.242152466367713,77ef9c52-1daa-4f00-b637-fa99f9995341,,industrial,industrial,OpenStreetMap,2016-07-26T15:17:58.000Z,,los-angeles,False
d26d9018-6dbc-4be5-8c8c-5438b67f1d53,Harley-Davidson of Glendale,motorcycle_dealer,"['motorcycle_repair', 'professional_services']",CA,Glendale,91204.0,3717 San Fernando Rd,34.1243043,-118.2560018,meta,2025-06-02T07:00:00.000Z,0.9784508333782836,f996c190-de7d-459f-abe5-4a0582a1af01,,industrial,industrial,OpenStreetMap,2016-07-01T08:11:01.000Z,,los-angeles,False
ae6409ee-927c-4282-970d-9297125e23bb,Harley Davidson CVO Riders Backrest,retail,['home_goods_store'],CA,Glendale,91214.0,3442 Foothill Blvd,34.23304,-118.2548,meta,2025-06-02T07:00:00.000Z,0.296943231441048,,,,,,,,los-angeles,False
52cd989f-c3f3-4f9b-b160-c77c9383e101,Fullerton Harley Davidson,bicycle_shop,"['automotive', 'restaurant']",CA,Fullerton,0.0,,33.8591849,-117.9752084,meta,2025-06-02T07:00:00.000Z,0.4929396662387676,,,,,,,,los-angeles,False
6c08169b-aa56-4d43-869a-4215ad243334,Harley-Davidson,motorcycle_dealer,['motorsports_store'],CA,Fullerton,92833.0,2655 W Orangethorpe Ave,33.859496,-117.975209,meta,2025-06-02T07:00:00.000Z,0.4929396662387676,9ed7d808-5bde-4854-86fa-bd5e361163bb,,,,OpenStreetMap,2022-10-27T13:37:30.000Z,,los-angeles,False
2366adc6-31d6-4dc2-b1d9-03df1d417fdb,Los Angeles Harley-Davidson,motorcycle_dealer,"['flowers_and_gifts_shop', 'shopping']",CA,Fullerton,92833.0,2635 W Orangethorpe Ave,33.8593387,-117.974651,meta,2025-06-02T07:00:00.000Z,0.9415384615384615,,,,,,,,los-angeles,False
a146deb5-f2bf-4e00-90c0-1e506e3f1f03,Harley Davidson Of Anaheim Or Fullerton,motorcycle_dealer,"['automotive_dealer', 'shopping']",CA,Fullerton,92833.0,2635 W Orangethorpe Ave,33.859356,-117.974315,meta,2025-06-02T07:00:00.000Z,0.7548172757475083,b31b67b2-d178-4280-9db3-3b35b28745d5,,,,OpenStreetMap,2022-10-27T13:37:30.000Z,,los-angeles,False
95e906c8-7d9c-4271-b1a2-3a193e6e7997,Los Angeles Harley-Davidson,motorcycle_dealer,"['clothing_store', 'auto_company']",CA,Anaheim,92802.0,321 W Katella Ave,33.8035386,-117.9118395,meta,2025-06-02T07:00:00.000Z,0.3376623376623376,,,,,,,,los-angeles,False
27251d2e-8e5e-454e-8128-b60ba603d053,Laidlaw's Harley-Davidson,motorcycle_dealer,"['motorcycle_repair', 'automotive']",CA,Baldwin Park,91706.0,1919 Puente Ave,34.0694883,-117.9635539,meta,2025-06-02T07:00:00.000Z,0.9879256218304756,761bf67f-653a-43cc-8d12-446e029cac69,,commercial,commercial,OpenStreetMap,2017-01-31T10:03:10.000Z,,los-angeles,False
e6af894a-6014-4558-bbf7-065d9f9b8ac3,Harley-Davidson of Lancaster,automotive,['automotive_dealer'],CA,Lancaster,93536.0,45313 23rd St W,34.70622,-118.17216,meta,2025-06-02T07:00:00.000Z,0.296943231441048,185e9066-0af9-4fc9-9ea1-13ff68d43692,,commercial,commercial,OpenStreetMap,2017-02-07T11:03:39.000Z,,lancaster-palmdale,False
aa054940-2eb5-4f06-9e7c-d1ad06fdfac2,Antelope Valley Harley Davidson,motorcycle_dealer,"['shopping', 'motorcycle_repair']",CA,Lancaster,93534.0,1759 W Avenue J-12,34.6795266,-118.1632902,meta,2025-06-02T07:00:00.000Z,0.9879256218304756,34d787dd-a34d-47b9-b048-b9a33883a018,Antelope Valley Harley-Davidson,commercial,commercial,OpenStreetMap,2024-01-17T09:57:54.000Z,,lancaster-palmdale,False
ec507009-9c90-42fb-b012-6aae075cc4b7,Harley Davidson,motorcycle_dealer,"['clothing_store', 'motorsports_store']",FL,Orlando,32819.0,8000 International Dr,28.44944,-81.47118,meta,2025-06-02T07:00:00.000Z,0.7548172757475083,c5efee17-3a22-4de1-abc9-19c104f8f7f4,,,,OpenStreetMap,2021-03-19T22:40:21.000Z,,orlando,False
cd6ac835-0bfc-4a50-a7e4-833a5026b77a,Orlando Harley-Davidson International Drive and Outlet,clothing_store,"['motorcycle_dealer', 'sports_wear']",FL,Orlando,32819.0,8000 International Dr,28.4491614,-81.4711658,meta,2025-06-02T07:00:00.000Z,0.9459263554653524,c5efee17-3a22-4de1-abc9-19c104f8f7f4,,,,OpenStreetMap,2021-03-19T22:40:21.000Z,,orlando,False
e8675b2f-2bb6-470e-a43c-ccf337b5d781,Harley Davidson Orlando,motorcycle_dealer,"['shopping', 'automotive']",FL,Orlando,0.0,,28.4750534,-81.450854,meta,2025-06-02T07:00:00.000Z,0.4929396662387676,d6345f87-95b8-44b2-a6c6-5fae903d0253,,,,OpenStreetMap,2021-05-02T23:36:20.000Z,,orlando,False
3584881c-d3f2-49ed-a60a-f90b88f354b2,Orlando Harley-Davidson®,motorcycle_dealer,"['motorcycle_repair', 'motorsports_store']",FL,Orlando,32805.0,3770 37th St,28.5036688,-81.4255143,meta,2025-06-02T07:00:00.000Z,0.9879256218304756,1274d936-0d29-43a9-88c7-949e46a45d15,Orlando Harley-Davidson,,,OpenStreetMap,2024-01-17T03:40:48.000Z,,orlando,False
512c26a6-b276-491b-babd-ce79d91e449f,Harley davidson spare parts,motorcycle_dealer,"['car_dealer', 'automotive_dealer']",FL,Orlando,32803.0,1039 Morris Ave,28.559995,-81.35814,meta,2025-06-02T07:00:00.000Z,0.3961437335670464,,,,,,,,orlando,False
0a2cf150-6a77-4bce-9a96-09a97fbe3c88,EagleRider Motorcycle Rentals and Tours Orlando East Harley-Davidson,motorcycle_rentals,['travel'],FL,Orlando,32825.0,11898 Lake Underhill Rd,28.5466139,-81.2135888,Microsoft,2018-10-12T21:58:36.710Z,0.77,,,,,,,,orlando,False
636a95da-4a3a-4dd2-9976-0f4c24fc4a13,Seminole Harley-Davidson,motorcycle_dealer,"['motorcycle_repair', 'motorsports_store']",FL,Sanford,32771.0,620 Hickman Cir,28.81827,-81.33251,meta,2025-06-02T07:00:00.000Z,0.9879256218304756,ca2a41d8-ad06-4584-9dee-87c3d19b8d9f,,,,OpenStreetMap,2020-05-11T22:52:58.000Z,,orlando,False
7cfe70cc-4148-41ac-b7a6-f5d110da1eda,Space Coast Harley-Davidson,motorcycle_dealer,"['motorcycle_repair', 'professional_services']",FL,Palm Bay,32905.0,1440 Sportsman Ln NE,28.0328756,-80.6528169,meta,2025-06-02T07:00:00.000Z,0.9784508333782836,3f6f68be-87f2-42a5-a090-92ddcc58e4b9,,,,OpenStreetMap,2016-04-07T16:00:17.000Z,,palm-bay-melbourne,False
39976b43-b090-4813-808b-851fba1805cd,Harley-Davidson of Melbourne,automotive,['automotive_dealer'],FL,Melbourne,32940.0,6030 N US Highway 1,28.209027,-80.664388,meta,2025-06-02T07:00:00.000Z,0.3376623376623376,d1ae0c5d-344c-4798-8bed-68c6f23b60b5,,,,OpenStreetMap,2021-05-15T22:18:08.000Z,,palm-bay-melbourne,False
4959b848-1c8f-436b-808f-020f51384ab3,Cocoa Beach Harley Davidson,motorcycle_dealer,"['mens_clothing_store', 'fashion']",FL,Cocoa Beach,32931.0,3670 N Atlantic Ave,28.352354,-80.6091702,meta,2025-06-02T07:00:00.000Z,0.9784508333782836,1341c74f-bb6a-4b5c-aa48-09ca013be0e7,,commercial,retail,OpenStreetMap,2020-02-23T10:50:24.000Z,,palm-bay-melbourne,False
16aa7fe9-3597-493f-a2f4-c9e12ef9857b,Harley Davidson Riding Academy,driving_school,,MD,Fort Meade,20755.0,7515 General Aviation Dr,39.0877792,-76.7588684,meta,2025-06-02T07:00:00.000Z,0.5662921348314607,050c943a-048c-4836-8fcb-e8e620f90931,,,,OpenStreetMap,2021-11-09T02:42:45.000Z,,baltimore,False
81e8e337-bf0c-48ed-8f85-8a184f1a48cc,Harley-Davidson of Baltimore,motorcycle_dealer,['motorcycle_repair'],MD,Middle River,21237.0,8845 Pulaski Hwy,39.340301,-76.4709112,meta,2025-06-02T07:00:00.000Z,0.9879256218304756,12a0436c-d6a6-434f-a79a-3410db593b21,Harley-Davidson of Baltimore,commercial,commercial,OpenStreetMap,2023-03-06T21:09:50.000Z,,baltimore,False
9f59421f-4152-4b32-95ae-a15e2a42918a,Savannah Harley-Davidson on River Street,motorcycle_dealer,"['flowers_and_gifts_shop', 'clothing_store']",GA,Savannah,31401.0,221 W River St,32.0825766,-81.0938752,meta,2025-06-02T07:00:00.000Z,0.9879256218304756,3fc62492-cf84-4f0f-a4b2-450465055c33,,,,OpenStreetMap,2017-10-20T15:33:04.000Z,,savannah,False
2471d603-dc7a-4339-996b-4a2350b4b59f,Performance Harley-Davidson,motorcycle_dealer,"['motorcycle_repair', 'car_dealer']",NY,Syracuse,13204.0,807 N Geddes St,43.0568453,-76.1714129,meta,2025-06-02T07:00:00.000Z,0.9879256218304756,16423de4-ca45-42b6-9d2a-bbffbcb0caa4,,,,OpenStreetMap,2021-08-25T15:06:02.000Z,,syracuse,False
84d10a4a-dbda-4008-907d-ed1068bbf6b1,Corpus Christi Harley-Davidson,motorcycle_dealer,"['automotive_repair', 'automotive']",TX,Corpus Christi,78405.0,502 S Padre Island Dr,27.7586759,-97.461376,meta,2025-06-02T07:00:00.000Z,0.9784508333782836,0e3752ba-4a40-415a-af52-b8195e26b8da,,,,OpenStreetMap,2017-09-16T19:27:05.000Z,,corpus-christi,False
f30378ed-04bf-4ef9-bd3d-6ae56cf94766,Harley-Davidson Service in Corpus Christi,motorcycle_dealer,"['car_dealer', 'automotive']",TX,Corpus Christi,78405.0,502 S Padre Island Dr,27.7587494,-97.4612816,meta,2025-06-02T07:00:00.000Z,0.9300613496932516,0e3752ba-4a40-415a-af52-b8195e26b8da,,,,OpenStreetMap,2017-09-16T19:27:05.000Z,,corpus-christi,False
776c133f-99e9-451f-a0bd-b1b617db79c4,Peninsula Harley-Davidson/Buell,motorcycle_dealer,"['mens_clothing_store', 'motorcycle_repair']",CA,Redwood City,94063.0,380 Convention Way,37.4949883,-122.2296794,meta,2025-06-02T07:00:00.000Z,0.4929396662387676,16f9002a-02bf-415c-8669-17df83b86229,,,,OpenStreetMap,2017-07-11T19:19:34.000Z,,san-jose,False
7c15a5bd-a7ab-4ec5-8b98-4131bd1e9e59,San Jose Harley-Davidson,motorcycle_dealer,"['motorcycle_repair', 'automotive_parts_and_accessories']",CA,San Jose,95128.0,1551 Parkmoor Ave,37.3175675,-121.9182712,meta,2025-06-02T07:00:00.000Z,0.9784508333782836,5f06438b-8d50-48c4-887e-9d8e91875fa3,,,,OpenStreetMap,2021-10-03T03:35:34.000Z,,san-jose,False
fc791802-fcb9-4ace-95f8-cc1fadd664a8,Buckeye Harley-Davidson,motorcycle_dealer,"['motorcycle_repair', 'car_dealer']",OH,Dayton,45414.0,7220 N Dixie Dr,39.835679,-84.1975419,meta,2025-06-02T07:00:00.000Z,0.9879256218304756,c0032a22-d983-4c52-ae72-c375f42810a6,,,,OpenStreetMap,2012-01-30T06:54:50.000Z,,dayton,False
f0ba9dd2-e8dc-4bb0-a614-3db8c1740e15,Harley-Davidson of Santa Clarita,motorcycle_dealer,"['motorcycle_repair', 'bicycle_shop']",CA,Valencia,91355.0,28656 The Old Rd,34.4402202,-118.6023304,meta,2025-06-02T07:00:00.000Z,0.9879256218304756,faeb3be5-d9c8-46e3-a706-83bcdba4eaed,,commercial,retail,OpenStreetMap,2017-02-06T17:11:45.000Z,,santa-clarita,False
2a9e428b-17e5-40c6-a920-1f253eaef641,Buffalo Harley-Davidson,motorcycle_dealer,"['motorcycle_repair', 'fashion']",NY,Orchard Park,14127.0,140 Mid County Dr,42.7882113,-78.7676751,meta,2025-06-02T07:00:00.000Z,0.9879256218304756,47fc3e44-1041-4e98-b515-9517c817a0c7,,,,OpenStreetMap,2024-02-03T21:01:57.000Z,,buffalo,False
8329b239-34b7-4f88-a9d8-ac4020ce9f97,Buffalo Harley Davidson,motorcycle_dealer,"['clothing_store', 'shopping']",NY,Buffalo,14215.0,3411 Bailey Ave,42.947713,-78.813512,meta,2025-06-02T07:00:00.000Z,0.3376623376623376,08e81e8c-ece9-4517-b8f1-8933d8e7dbb0,Aaron's,,,OpenStreetMap,2024-06-27T14:11:14.000Z,,buffalo,False
8b652ecc-47ac-43ef-acc3-b66da16a5104,American Harley-Davidson,motorcycle_dealer,"['motorcycle_repair', 'auto_company']",NY,North Tonawanda,14120.0,1149 Erie Ave,43.0500032,-78.8477479,meta,2025-06-02T07:00:00.000Z,0.9784508333782836,bfca20bd-269b-4746-ae60-586646c825b9,,,,OpenStreetMap,2021-06-02T22:47:22.000Z,,buffalo,False
e9858224-8d1e-4c95-9a23-9cac5026f7f7,Tampa Bay Harley-Davidson,motorcycle_dealer,"['motorcycle_repair', 'car_dealer']",FL,Tampa,33619.0,9841 E Adamo Dr,27.9455618,-82.3435268,meta,2025-06-02T07:00:00.000Z,0.9879256218304756,0cee29c7-1baa-48cf-977f-93eb738b2b2e,,,,OpenStreetMap,2017-09-11T21:57:32.000Z,,tampa,False
6d3e457e-8331-4d32-b36d-2eabf1d8fa64,Harley-Davidson of Brandon,motorcycle_dealer,"['motorcycle_repair', 'automotive']",FL,Tampa,33619.0,9841 E Adamo Dr,27.947306,-82.342277,Microsoft,2013-01-28T01:23:58.157Z,0.77,,,,,,,,tampa,False
bfd4b5b7-eb27-4573-8e16-f8dd45128fe6,Caliente Harley-Davidson,motorcycle_dealer,"['automotive', 'recreational_vehicle_dealer']",TX,San Antonio,78245.0,7230 NW I-410-LOOP,29.4511024,-98.630302,meta,2025-06-02T07:00:00.000Z,0.9879256218304756,,,,,,,,san-antonio,False
e7361e32-c4e1-4411-aeec-e8a488e2c5b1,Caliente Harley-Davidson,outdoor_gear,"['motorcycle_dealer', 'motorcycle_repair', 'automotive', 'retail']",TX,San Antonio,78245.0,7230 NW Loop 410,29.4506583,-98.6296848,Microsoft,2025-04-02T06:31:30.180Z,0.77,,,,,,,,san-antonio,False
3ebd1ba2-de97-4f62-96df-17e62c0bab7d,Cowboy's Alamo City Harley-Davidson River Walk,retail,"['fashion_accessories_store', 'souvenir_shop']",TX,San Antonio,78205.0,111 W Crockett St,29.4253432,-98.4888593,meta,2025-06-02T07:00:00.000Z,0.9784508333782836,668223ca-43fc-43d0-8274-fb130ca90cad,,,,OpenStreetMap,2022-03-02T20:09:32.000Z,,san-antonio,False
32cad08e-d0c3-4fcb-9f36-bb108d1f12de,Harley-Davidson,motorcycle_dealer,"['motorcycle_repair', 'automotive']",TX,San Antonio,78233.0,11005 Interstate 35 Frontage Rd,29.5394317,-98.38142905,Microsoft,2025-03-24T13:09:30.843Z,0.77,bd571485-edbc-4594-acd3-a95878a6387b,,,,Microsoft ML Buildings,2020-12-14T00:00:00.000Z,,san-antonio,False
c4725b2d-2c42-430b-bc03-312ebdad2bbd,Teddy Morse's Cowboy Harley Davidson Alamo City,motorcycle_dealer,"['motorcycle_repair', 'shopping']",TX,San Antonio,78233.0,11005 N Interstate 35,29.5393317,-98.3813551,meta,2025-06-02T07:00:00.000Z,0.9879256218304756,bd571485-edbc-4594-acd3-a95878a6387b,,,,Microsoft ML Buildings,2020-12-14T00:00:00.000Z,,san-antonio,False
4c26eac3-a284-478b-ad47-5f4c3397fea2,Dudley Perkins Company Harley Davidson Motorcycles,motorcycle_dealer,"['automotive', 'car_dealer']",CA,South San Francisco,94080.0,333 Corey Way,37.644171,-122.401122,meta,2025-06-02T07:00:00.000Z,0.5662921348314607,eb7df18c-d041-4010-bc61-47942b7d2f61,,,,OpenStreetMap,2023-09-22T01:55:34.000Z,,san-francisco,True
2558ac48-70b1-4b28-b9d0-14eb711a7a32,San Francisco Harley-Davidson,motorcycle_dealer,"['motorcycle_repair', 'shopping']",CA,San Francisco,94110.0,3146 Mission St,37.747023,-122.4193062,meta,2025-06-02T07:00:00.000Z,0.9784508333782836,3b570d40-3ba8-4964-a271-ed4129c1ab5f,,,,OpenStreetMap,2017-03-15T02:51:22.000Z,,san-francisco,False
609a0367-54e8-4752-a655-0831ab7dcaa7,Harley-Davidson Motorcycles,motorcycle_dealer,"['motorcycle_repair', 'automotive_dealer']",CA,San Francisco,94102.0,66 Page St,37.774413,-122.421908,meta,2025-06-02T07:00:00.000Z,0.296943231441048,2e69f150-07d7-4c51-8fde-3a57ff22a7ca,Dennis Gallagher Arts Pavilion,education,school,OpenStreetMap,2018-01-21T19:06:07.000Z,,san-francisco,False
41dbebac-4df0-41c0-8125-dfaf15dec48e,Alcatraz Harley-Davidson,clothing_store,['retail'],CA,San Francisco,94133.0,93 Jefferson St,37.8062163,-122.4155646,Microsoft,2025-05-16T03:14:47.390Z,0.77,30325c00-98ce-4f3e-b828-9fc436aed009,Hyatt Centric Fisherman's Wharf San Francisco,,,OpenStreetMap,2024-01-16T00:43:23.000Z,,san-francisco,False
fa2d0abd-3bcd-4d23-aa5b-fc1a5d78da40,Alcatraz Harley-Davidson,clothing_store,['retail'],CA,San Francisco,94133.0,93 Jefferson St,37.80846252732782,-122.41338407330484,Microsoft,2025-05-19T02:16:04.673Z,0.77,915c7f80-d4f0-432d-b558-5d748c5132ab,Hotel Zephyr San Francisco,,,OpenStreetMap,2023-12-29T23:54:14.000Z,,san-francisco,False
776c133f-99e9-451f-a0bd-b1b617db79c4,Peninsula Harley-Davidson/Buell,motorcycle_dealer,"['mens_clothing_store', 'motorcycle_repair']",CA,Redwood City,94063.0,380 Convention Way,37.4949883,-122.2296794,meta,2025-06-02T07:00:00.000Z,0.4929396662387676,16f9002a-02bf-415c-8669-17df83b86229,,,,OpenStreetMap,2017-07-11T19:19:34.000Z,,san-francisco,False
d6cc096f-755c-43ed-8725-6eacebb8f3dc,Oakland Harley-Davidson,motorcycle_dealer,"['motorcycle_repair', 'shopping']",CA,Oakland,94621.0,151 Hegenberger Rd,37.7312659,-122.2000416,meta,2025-06-02T07:00:00.000Z,0.9879256218304756,3d40ff7d-c10b-43d5-8ecd-d3a84ddd6fd3,,,,OpenStreetMap,2016-02-23T23:30:14.000Z,,san-francisco,False
1e72d092-c5be-48c7-86d9-5b5e5b91c9da,Thunder Tower West Harley-Davidson,motorcycle_dealer,"['motorcycle_repair', 'auto_company']",GA,Morrow,30260.0,1384 Southlake Pkwy,33.5758965,-84.3450088,meta,2025-06-02T07:00:00.000Z,0.9879256218304756,6d2e8171-31ef-4ab8-8a5e-5aea06918ab2,Harley-Davidson,,,OpenStreetMap,2024-01-17T03:40:56.000Z,,atlanta,False
8e3ceb92-750a-4f12-90d4-cf377110231a,Lucky Peach Harley-Davidson,motorcycle_dealer,['automotive'],GA,Morrow,30260.0,1384 Southlake Pkwy,33.5759976,-84.3449205,Microsoft,2025-05-15T09:00:26.833Z,0.77,6d2e8171-31ef-4ab8-8a5e-5aea06918ab2,Harley-Davidson,,,OpenStreetMap,2024-01-17T03:40:56.000Z,,atlanta,False
60c1a6bf-3468-49c0-a0ab-ff2ec351d052,Harley-Davidson of Clayton County,motorcycle_repair,['automotive_repair'],GA,Morrow,30260.0,5346 Jonesboro Rd,33.609948,-84.345384,meta,2025-06-02T07:00:00.000Z,0.296943231441048,c953893a-e82b-42b5-b78b-2f1675b634e3,,,,OpenStreetMap,2022-05-16T01:02:31.000Z,,atlanta,False
d71de5c8-8a23-4ee7-aaca-361e635a4640,Falcons Fury Harley-Davidson,motorcycle_dealer,"['motorcycle_repair', 'professional_services']",GA,Conyers,30012.0,900 Dogwood Dr SE,33.6587946,-84.0184286,meta,2025-06-02T07:00:00.000Z,0.9879256218304756,0dcf8124-469f-4e6e-855b-c04f4877df36,,,,OpenStreetMap,2021-11-06T17:36:39.000Z,,atlanta,False
f3efc529-fe78-4305-9416-08d364aca333,Atlanta Harley-Davidson,motorcycle_dealer,['automotive'],GA,Lithia Springs,30122.0,501 Thornton Rd,33.790444,-84.62797,Microsoft,2024-09-09T18:51:59.520Z,0.77,3c1c8589-a7b3-4b56-8009-270a1b91f88a,Harley-Davidson,,,OpenStreetMap,2024-01-17T03:41:29.000Z,,atlanta,False
0d3f135b-26d7-4376-9137-f02db30584f6,Harley Davidson part and accessories for sale,motorcycle_repair,"['motorcycle_dealer', 'clothing_store']",GA,Lithia Springs,30122.0,501 Thornton Rd,33.79045,-84.62789,meta,2025-06-02T07:00:00.000Z,0.4929396662387676,3c1c8589-a7b3-4b56-8009-270a1b91f88a,Harley-Davidson,,,OpenStreetMap,2024-01-17T03:41:29.000Z,,atlanta,False
f7c94253-102d-41d2-b113-2b30894b1429,Atlanta Harley-Davidson,motorcycle_dealer,['professional_services'],GA,Lithia Springs,30122.0,501 Thornton Rd,33.7904371,-84.6276909,meta,2025-06-02T07:00:00.000Z,0.9879256218304756,,,,,,,,atlanta,False
66b2ff32-c75c-405a-a0fe-2e06a58596b5,Hellbender Harley-Davidson,motorcycle_dealer,"['motorcycle_repair', 'bicycle_shop']",GA,Marietta,30060.0,993 S Cobb Dr SE,33.9287879,-84.5505546,meta,2025-06-02T07:00:00.000Z,0.9415384615384615,73f7cfd0-4e87-4345-a866-da1d37c13d8f,,commercial,commercial,OpenStreetMap,2014-06-16T04:17:39.000Z,,atlanta,False
ddca20a6-d32a-452a-9a87-941590e6a6bc,Killer Creek Harley-Davidson,motorcycle_dealer,"['motorcycle_repair', 'shopping']",GA,Roswell,30076.0,11480 Alpharetta Hwy,34.060103,-84.3264719,meta,2025-06-02T07:00:00.000Z,0.9879256218304756,43331477-2024-4344-8d33-5a29d3058265,Killer Creek Harley-Davidson,,,OpenStreetMap,2024-01-17T03:38:57.000Z,,atlanta,False
3ad0ce97-f91e-49ea-a898-0d10591d6aef,Harley-Davidson,auto_parts_and_supply_store,"['motorcycle_dealer', 'motorcycle_repair', 'automotive', 'retail']",GA,Roswell,30076.0,11480 Alpharetta Hwy,34.0601668,-84.3263583,Microsoft,2025-03-25T12:07:18.007Z,0.77,43331477-2024-4344-8d33-5a29d3058265,Killer Creek Harley-Davidson,,,OpenStreetMap,2024-01-17T03:38:57.000Z,,atlanta,False
2ddac48e-463c-4cf2-aef4-ad8cc23fb147,"HURRICANE HARLEY-DAVIDSON of NEW ORLEANS, LA",car_dealer,"['motorcycle_dealer', 'shopping']",LA,Harvey,70058.0,3815 Lapalco Blvd,29.872743,-90.086065,meta,2025-06-02T07:00:00.000Z,0.3376623376623376,5285838d-fcd2-4d4e-81c1-aacc0d517183,,,,OpenStreetMap,2022-05-29T23:40:34.000Z,,new-orleans,False
99d770be-da22-470c-8c73-c1c74016bc80,Harley Davidson,automotive,"['motorcycle_dealer', 'car_dealer']",,,70003.0,6015 Airline Dr,29.977501,-90.19865,meta,2025-06-02T07:00:00.000Z,0.242152466367713,d192a966-05de-460f-9a20-8a7c7f86e7ff,,,,OpenStreetMap,2019-09-17T21:11:10.000Z,,new-orleans,False
c789ab14-1d17-47b4-b264-8cfd90806c46,New Orleans Harley-Davidson,motorcycle_dealer,"['motorcycle_repair', 'shopping']",LA,Metairie,70003.0,6015 Airline Dr,29.977629,-90.19876,meta,2025-06-02T07:00:00.000Z,0.9879256218304756,d192a966-05de-460f-9a20-8a7c7f86e7ff,,,,OpenStreetMap,2019-09-17T21:11:10.000Z,,new-orleans,False
466c20ea-d0df-47f8-b1b6-7d438250706d,Bourbon Street Harley-Davidson,motorcycle_dealer,"['mens_clothing_store', 'clothing_store']",LA,New Orleans,70130.0,235 Bourbon St,29.9553654,-90.0686793,meta,2025-06-02T07:00:00.000Z,0.9879256218304756,f6c29e5c-b41f-4e52-b20f-aaa94873c9f0,,,,OpenStreetMap,2023-05-27T20:17:19.000Z,,new-orleans,False
466c20ea-d0df-47f8-b1b6-7d438250706d,Bourbon Street Harley-Davidson,motorcycle_dealer,"['mens_clothing_store', 'clothing_store']",LA,New Orleans,70130.0,235 Bourbon St,29.9553654,-90.0686793,meta,2025-06-02T07:00:00.000Z,0.9879256218304756,c9f9a05b-970e-4c5e-96b1-4cf28a42db2b,,,,OpenStreetMap,2025-01-03T16:27:52.000Z,,new-orleans,False
466c20ea-d0df-47f8-b1b6-7d438250706d,Bourbon Street Harley-Davidson,motorcycle_dealer,"['mens_clothing_store', 'clothing_store']",LA,New Orleans,70130.0,235 Bourbon St,29.9553654,-90.0686793,meta,2025-06-02T07:00:00.000Z,0.9879256218304756,d5a1936c-1655-41b2-bd75-e7cda94b8494,,,,OpenStreetMap,2025-01-03T16:27:52.000Z,,new-orleans,False
0f7d19fb-8e3b-454a-a650-52fe193b97ff,Harley Davidson of New Orleans,motorcycle_dealer,"['motorcycle_repair', 'automotive']",LA,New Orleans,70130.0,633 Toulouse St,29.957081,-90.064943,meta,2025-06-02T07:00:00.000Z,0.3961437335670464,db55c2c7-a2d3-44a6-ab48-79156face2b6,,,,OpenStreetMap,2015-02-20T21:18:43.000Z,,new-orleans,False
959bb443-7f6a-4e48-bbc0-da030068e62f,Voodoo Harley-Davidson,motorcycle_dealer,"['clothing_store', 'shopping']",LA,New Orleans,70116.0,812 Decatur St,29.9578276,-90.0616933,meta,2025-06-02T07:00:00.000Z,0.9879256218304756,bff87d33-cdff-4336-9390-f3ad29677e23,,,,OpenStreetMap,2022-03-29T23:03:33.000Z,,new-orleans,False
959bb443-7f6a-4e48-bbc0-da030068e62f,Voodoo Harley-Davidson,motorcycle_dealer,"['clothing_store', 'shopping']",LA,New Orleans,70116.0,812 Decatur St,29.9578276,-90.0616933,meta,2025-06-02T07:00:00.000Z,0.9879256218304756,b07b7701-654a-4dbb-8c0f-20c30570abaa,Shops of The Colonnade,commercial,retail,OpenStreetMap,2024-02-05T13:20:46.000Z,,new-orleans,False
6cac7bf9-85b4-4d68-94e2-a58fbf031513,Harley-Davidson of Elk Grove,motorcycle_dealer,['automotive'],CA,Elk Grove,95624.0,10291 E Stockton Blvd,38.383277,-121.368333,Microsoft,2008-08-23T18:07:08.677Z,0.77,,,,,,,,sacramento,False
adca1a8f-0612-44f7-9afb-1b0b699b4b6c,Harley Davidson Of Elk Grove,motorcycle_dealer,"['automotive', 'shopping']",CA,Elk Grove,95624.0,10291 E Stockton Blvd,38.384823,-121.368645,meta,2025-06-02T07:00:00.000Z,0.296943231441048,dbfff5fe-7faf-485d-9319-d51265fe009d,Lifepointe Christian Church,religious,,OpenStreetMap,2022-11-15T20:58:22.000Z,,sacramento,False
f7cc87bc-ff50-42f3-a5f7-4f779678771b,Harley-Davidson of Sacramento,motorcycle_dealer,"['motorcycle_repair', 'auto_company']",CA,Sacramento,95815.0,1000 Arden Way,38.6059659,-121.443498,meta,2025-06-02T07:00:00.000Z,0.9879256218304756,2c6f4d26-0682-4df8-a8d1-2136ecfe8fd7,,,,OpenStreetMap,2012-11-14T07:21:25.000Z,,sacramento,False
843f9c7e-7783-49df-9f07-772593c2af29,Harley-Davidson of Folsom,motorcycle_dealer,"['shopping', 'auto_company']",CA,Folsom,95630.0,115 Woodmere Rd,38.6562007,-121.1840748,meta,2025-06-02T07:00:00.000Z,0.9784508333782836,cc754799-a893-4a13-b6ef-7574062c9f86,Harley-Davidson,,,OpenStreetMap,2024-04-20T18:32:24.000Z,,sacramento,False
9d83feb0-57a7-42a7-80cb-3e289a645dab,Harley-Davidson of Rocklin,motorcycle_dealer,"['motorcycle_repair', 'car_dealer']",CA,Rocklin,95677.0,4401 Granite Dr,38.7985099,-121.2128393,meta,2025-06-02T07:00:00.000Z,0.9784508333782836,370a5dee-6128-40a5-ac09-b1a64dfc8611,,,,OpenStreetMap,2017-07-06T02:45:30.000Z,,sacramento,False
55bb65ec-297c-4cff-a611-cf74c763a2e6,Harley Davidson Buell Of Rocklin,motorcycle_dealer,"['car_dealer', 'auto_company']",CA,Rocklin,95677.0,4361 Granite Dr,38.7985754,-121.21261,meta,2025-06-02T07:00:00.000Z,0.4929396662387676,370a5dee-6128-40a5-ac09-b1a64dfc8611,,,,OpenStreetMap,2017-07-06T02:45:30.000Z,,sacramento,False
9266ed9f-9b5f-467d-a6e4-5742544d1aac,Folsom Harley-Davidson,automotive,"['automotive_dealer', 'american_restaurant']",CA,Rocklin,95677.0,4051 Alvis Ct,38.80967,-121.21556,meta,2025-06-02T07:00:00.000Z,0.3376623376623376,2ad9dab2-70ac-4a4d-b98b-46377f85cbf7,,industrial,industrial,OpenStreetMap,2024-03-27T18:49:02.000Z,,sacramento,False
3674ccba-731d-40fe-b347-3061ead5221d,Harley Davidson-South Valley,motorcycle_dealer,"['motorcycle_repair', 'shopping']",UT,Sandy,84070.0,8886 Sandy Pkwy,40.5899231,-111.9047636,meta,2025-06-02T07:00:00.000Z,0.9784508333782836,9ef577db-3403-42ca-b211-91ec383612f0,,,,OpenStreetMap,2021-05-17T03:28:52.000Z,,salt-lake-city,False
bd724277-5925-447a-93b4-c575c5414d0b,Harley-Davidson of Salt Lake City,motorcycle_dealer,"['shopping', 'car_dealer']",UT,South Salt Lake,84115.0,2928 S State St,40.7075935,-111.888826,meta,2025-06-02T07:00:00.000Z,0.9784508333782836,48378543-b0d2-4633-991c-bdde6b989afa,Harley-Davidson of Salt Lake City,,,OpenStreetMap,2024-01-17T09:53:56.000Z,,salt-lake-city,False
0b8bd63e-dce4-4525-a088-34b98a21936d,IndyWest Harley-Davidson,motorcycle_dealer,"['motorcycle_repair', 'car_dealer']",IN,Plainfield,46168.0,6201 Cambridge Way,39.6721922,-86.3682465,meta,2025-06-02T07:00:00.000Z,0.9784508333782836,3a37f9c1-8d3d-40d1-8426-f82ddffcc43e,Harley-Davidson,,,OpenStreetMap,2024-02-12T14:59:11.000Z,,indianapolis,False
372455b8-0574-459f-a016-cd8996619aea,Indianapolis Southside Harley-Davidson,motorcycle_dealer,"['motorcycle_repair', 'shopping']",IN,Indianapolis,46237.0,4930 Southport Crossing Pl,39.6650177,-86.0849011,meta,2025-06-02T07:00:00.000Z,0.9784508333782836,6272ffc2-1c19-4275-870b-c3929624ac23,,,,OpenStreetMap,2022-04-10T03:04:00.000Z,,indianapolis,False
0133c9cb-6440-4d5e-a7f0-f249e2affa7a,Harley Davidson of Bloomington,car_dealer,"['motorcycle_dealer', 'family_practice']",IN,Indianapolis,46226.0,6815 E 34th St,39.817858,-86.05168,meta,2025-06-02T07:00:00.000Z,0.3376623376623376,161ac6e7-a63c-414e-b91b-54e33f2d6b7a,,,,OpenStreetMap,2022-12-27T02:06:34.000Z,,indianapolis,False
69a64d7d-522c-404f-8453-444661e060b8,Ted sells Harley Davidson Motorcycles,motorcycle_dealer,"['motorcycle_repair', 'automotive']",IN,Indianapolis,46240.0,4146 E 96th St,39.927754,-86.100934,meta,2025-06-02T07:00:00.000Z,0.296943231441048,aeea1c90-1d3b-4d9e-816e-ba6946779ea1,,,,OpenStreetMap,2012-12-01T21:52:57.000Z,,indianapolis,False
f7112176-41f3-42fc-b0fd-5f5c5298fb22,Harley-Davidson of Indianapolis,motorcycle_dealer,['car_dealer'],IN,Fishers,46038.0,12400 Reynolds Dr,39.9688256,-86.0028519,meta,2025-06-02T07:00:00.000Z,0.9879256218304756,73cd20d2-05ce-4580-8cd1-3c320336f049,Harley-Davidson of Indianapolis,,,OpenStreetMap,2024-01-17T09:40:01.000Z,,indianapolis,False
3ec47453-794b-4159-b033-1fa797860c1c,Russ' Ocean State Harley-Davidson,motorcycle_dealer,"['motorcycle_repair', 'automotive_parts_and_accessories']",RI,Warwick,2888.0,35 Albany Rd,41.7496333,-71.4383893,meta,2025-06-02T07:00:00.000Z,0.9879256218304756,947b1950-937d-4b4f-a098-a2d593ccc921,,industrial,industrial,OpenStreetMap,2020-12-29T09:00:14.000Z,,providence,False
17e547be-fe43-4111-be27-605ec3fa1b2e,Precision Harley-Davidson,motorcycle_dealer,"['motorcycle_repair', 'automotive_parts_and_accessories']",RI,Pawtucket,2860.0,269 Armistice Blvd,41.8803678,-71.365485,meta,2025-06-02T07:00:00.000Z,0.9879256218304756,015c4f97-2cd1-4d96-93d9-6b880ed0499f,,,,OpenStreetMap,2013-08-22T18:16:49.000Z,,providence,False
0a6a50f0-94a4-47dd-a103-80a9246db34b,Fort Bragg Harley-Davidson,motorcycle_dealer,"['motorcycle_repair', 'clothing_store']",NC,Fayetteville,28303.0,3950 Sycamore Dairy Rd,35.0790859,-78.9497874,meta,2025-06-02T07:00:00.000Z,0.9879256218304756,454f6b75-b080-46d6-95f0-b05321a88cc6,Fort Bragg Harley-Davidson,,,OpenStreetMap,2024-01-17T03:41:00.000Z,,fayetteville,False
7cf64cf4-b2f5-4076-b947-a325e234ca25,Deal Harley-Davidson,motorcycle_dealer,"['automotive', 'shopping']",NC,Fayetteville,28303.0,3618 Sycamore Dairy Rd,35.07901,-78.942378,meta,2025-06-02T07:00:00.000Z,0.3376623376623376,fff07cc3-7669-45d7-8036-1a29a7f8019c,,,,OpenStreetMap,2016-08-03T23:10:58.000Z,,fayetteville,False
0e3f6dcb-3638-40fb-ad85-5306a12a5924,Harley-Davidson of Cincinnati,motorcycle_dealer,"['motorcycle_gear', 'automotive']",OH,Cincinnati,45229.0,1799 Tennessee Ave,39.16692352294922,-84.46627044677734,Microsoft,2017-02-27T18:58:53.130Z,0.77,,,,,,,,cincinnati,False
068e516d-a5be-4924-8d8c-2164dfc1fb0f,CinCity Harley-Davidson,motorcycle_dealer,"['motorcycle_repair', 'motorsports_store']",OH,Cincinnati,45229.0,1799 Tennessee Ave,39.1668014,-84.4659287,meta,2025-06-02T07:00:00.000Z,0.9879256218304756,c70209cc-7d4a-4e14-af4b-c98f3171f343,,,,OpenStreetMap,2010-04-25T21:20:57.000Z,,cincinnati,False
61b4378a-80f1-44a4-a18c-3e181df106e8,Queen City Harley Davidson,motorcycle_dealer,"['motorcycle_repair', 'bicycle_shop']",OH,Fairfield,45014.0,5960 Dixie Hwy,39.328672,-84.513332,meta,2025-06-02T07:00:00.000Z,0.7548172757475083,0c911a82-29a3-41ff-b3cb-eab3344ccd0d,,,,OpenStreetMap,2025-02-20T05:19:01.000Z,,cincinnati,False
a2b51be3-16c7-481d-aee4-5fdb370f0bbf,Queen City Harley-Davidson,motorcycle_dealer,"['motorcycle_repair', 'sporting_goods']",OH,West Chester,45069.0,4860 Premier Way,39.33861,-84.4592904,meta,2025-06-02T07:00:00.000Z,0.9879256218304756,,,,,,,,cincinnati,False
1c04fab7-5565-4433-b2b5-ba9c415a39fd,Harley-Davidson Louisville,motorcycle_dealer,"['motorcycle_repair', 'professional_services']",KY,Louisville,40208.0,1700 Arthur St,38.2213702,-85.7521622,meta,2025-06-02T07:00:00.000Z,0.9879256218304756,4a810089-ce33-4747-a367-f966c058e95a,BMW of Louisville,,,OpenStreetMap,2018-11-16T15:45:16.000Z,,louisville,False
5b9b86d2-8656-4bd9-b047-4cdfd905458f,Bluegrass Harley-Davidson,motorcycle_dealer,"['motorcycle_repair', 'automotive']",KY,Louisville,40299.0,11701 Gateworth Way,38.2248115539551,-85.5419387817383,Microsoft,2017-11-07T15:40:25.397Z,0.77,6c021f42-9998-4ed3-9e18-5788b6226bde,,,,OpenStreetMap,2015-05-20T20:49:34.000Z,,louisville,False
2adce977-6238-498e-bf74-f2463da659a6,Bluegrass Harley-Davidson,motorcycle_dealer,"['motorcycle_repair', 'shopping']",KY,Louisville,40245.0,2755 Terra Crossing Blvd,38.2780112,-85.4979488,meta,2025-06-02T07:00:00.000Z,0.9879256218304756,,,,,,,,louisville,False
382616e2-bb62-4231-8b8a-cdc1835a13d7,Boston Harley-Davidson,motorcycle_dealer,"['motorcycle_repair', 'auto_company']",MA,Revere,2151.0,649 Squire Rd,42.4318929,-71.0230385,meta,2025-06-02T07:00:00.000Z,0.9879256218304756,380536f6-ed00-4c5c-b326-4d8b66e0f707,,,,OpenStreetMap,2024-10-21T17:35:41.000Z,,boston,False
4253aa91-770f-45c9-b94b-471fd3ba0903,High Octane Harley-Davidson,motorcycle_dealer,"['motorcycle_repair', 'bicycle_shop']",MA,North Billerica,1862.0,1 Chelmsford Rd,42.5841329,-71.2923418,meta,2025-06-02T07:00:00.000Z,0.9879256218304756,1a2abd18-83a6-4d16-9feb-81210ef3665e,,commercial,retail,OpenStreetMap,2023-11-05T18:30:57.000Z,,boston,False
e4cfc3a5-777e-41d2-a4e1-f4cafe050d4b,High Octane Harley-Davidson,motorcycle_dealer,"['motorcycle_repair', 'automotive']",MA,N Billerica,1862.0,1 Chelmsford Rd,42.56367111,-71.27111816,Microsoft,2025-02-28T22:27:16.197Z,0.77,,,,,,,,boston,False
e3da0ffd-5460-4d0a-bcf9-0775bd49430d,Motor Harley-Davidson Cycles,motorcycle_dealer,,OH,Youngstown,44515.0,5700 Patriot Blvd,41.122165,-80.774448,meta,2025-06-02T07:00:00.000Z,0.3961437335670464,44bda955-5bf1-49b2-8486-71e5ede34430,Harley-Davidson,,,OpenStreetMap,2024-04-08T22:52:30.000Z,,youngstown,False
5a2a500c-9343-4746-8028-f9c5f6c0c14c,Youngstown Harley-Davidson,motorcycle_dealer,"['motorcycle_repair', 'motorsports_store']",OH,Youngstown,44515.0,5700 Patriot Blvd,41.1223223,-80.7745029,meta,2025-06-02T07:00:00.000Z,0.9879256218304756,44bda955-5bf1-49b2-8486-71e5ede34430,Harley-Davidson,,,OpenStreetMap,2024-04-08T22:52:30.000Z,,youngstown,False
04a3b560-9f5c-4e4f-97b6-20ee49dc5f74,Warren Harley-Davidson Sales,motorcycle_dealer,,OH,Warren,44483.0,2102 Elm Rd NE,41.2535085,-80.7922274,meta,2025-06-02T07:00:00.000Z,0.4929396662387676,,,,,,,,youngstown,False
3224609a-3c74-4970-b4be-e1c57383896e,Warren Harley-Davidson,motorcycle_dealer,"['motorcycle_repair', 'car_dealer']",OH,Cortland,44410.0,2102 Elm Rd,41.274651,-80.7752204,meta,2025-06-02T07:00:00.000Z,0.9784508333782836,d48fa95c-885b-4ccc-8278-70d19e55c53c,Harley-Davidson,,,OpenStreetMap,2022-06-20T13:55:21.000Z,,youngstown,False
a35a5f3c-8fcc-4f0a-9f1f-77342aa9584c,Dillon Brothers Harley-Davidson Omaha,motorcycle_dealer,['automotive'],NE,Omaha,68116.0,3838 N Hws Cleveland Blvd,41.2929934,-96.1880632,Microsoft,2019-02-22T21:33:01.073Z,0.77,8e55b9c3-d8a0-4d36-a873-86d357abe2a2,Dillon Bros Harley Davidson,,,OpenStreetMap,2024-09-25T16:51:16.000Z,,omaha,False
09ffc900-5456-475e-bc4e-248b4bd1d171,Defiance Harley Davidson,motorcycle_dealer,"['motorcycle_repair', 'car_dealer']",NE,Omaha,68127.0,4940 S 72nd St,41.2099398,-96.0245672,meta,2025-06-02T07:00:00.000Z,0.9784508333782836,85fe415b-75ad-470a-bc12-549ea116e96f,,,,OpenStreetMap,2024-08-17T04:56:49.000Z,,omaha,False
c2474244-a3a6-45c0-89f0-b6ac5dc4f80b,Steel Horse Harley-Davidson,motorcycle_dealer,"['motorcycle_repair', 'fashion_accessories_store']",VA,Midlothian,23112.0,11501 Hull Street Rd,37.4338351,-77.6075575,meta,2025-06-02T07:00:00.000Z,0.9879256218304756,396e2fbf-1851-473d-9e14-792bd9c41d86,Steel Horse Harley Davidson,,,OpenStreetMap,2019-08-28T01:23:55.000Z,,richmond,False
8aaf3b55-325b-4c56-bc4d-71bb919f1f4a,South Richmond Harley-Davidson,motorcycle_dealer,['automotive'],VA,Richmond,23236.0,10011 Hull Street Rd,37.442069,-77.580357,meta,2025-06-02T07:00:00.000Z,0.296943231441048,54f14d42-a10c-4648-be44-3ba256f613f5,,,,OpenStreetMap,2019-08-29T06:03:02.000Z,,richmond,False
0f540c72-d9a2-42aa-9708-40178b95a183,Harley-Davidson of Montgomery,motorcycle_dealer,"['motorcycle_repair', 'shopping']",AL,Montgomery,36117.0,655 N Eastern Blvd,32.4013491,-86.2138326,meta,2025-06-02T07:00:00.000Z,0.9879256218304756,bcde7fc0-3940-4a04-86f2-96c38359df59,,,,Microsoft ML Buildings,2021-12-22T00:00:00.000Z,,montgomery,False
f8a4575c-98c4-4501-aa18-60a38cbef09a,Bootlegger Harley-Davidson,motorcycle_dealer,"['motorcycle_repair', 'shopping']",TN,Knoxville,37932.0,605 Lovell Rd,35.9083178,-84.1487818,meta,2025-06-02T07:00:00.000Z,0.9879256218304756,,,,,,,,knoxville,False
e8c74565-6a3c-4928-b42f-23bfb9714d03,Harley-Davidson of Knoxville,motorcycle_dealer,"['motorcycle_repair', 'motorsports_store']",TN,Knoxville,37912.0,5810 Clinton Hwy,36.007447,-83.9903666,meta,2025-06-02T07:00:00.000Z,0.9879256218304756,45805f8b-47da-41f3-a944-e4e734e90573,,,,OpenStreetMap,2024-07-21T12:50:51.000Z,,knoxville,False
b88e7f56-3a17-4263-ad1c-fc9e409ac64c,Pacific Harley-Davidson,womens_clothing_store,"['mens_clothing_store', 'fashion_accessories_store']",HI,Honolulu,96819.0,600 Puuloa Rd,21.3358041,-157.9020427,meta,2025-06-02T07:00:00.000Z,0.9784508333782836,b4a618c3-3419-4c16-b385-637a91d5f25f,,commercial,retail,OpenStreetMap,2025-01-24T22:53:16.000Z,,honolulu,False
ec556d9b-a2a8-47b6-964e-a61a080983d6,Pearl Harbor Harley-Davidson,motorcycle_dealer,"['landmark_and_historical_building', 'history_museum']",HI,Honolulu,96818.0,1 Arizona Memorial Pl,21.367584,-157.93884,meta,2025-06-02T07:00:00.000Z,0.7548172757475083,4e8e2f17-4c93-4d00-adb1-4f5c6c01d71d,,,,OpenStreetMap,2024-03-16T10:29:05.000Z,,honolulu,False
8e305921-946f-4649-9af3-2d653a2f8c69,Waikiki Harley-Davidson Boutique,mens_clothing_store,"['clothing_store', 'fashion_accessories_store']",HI,Honolulu,96815.0,"Royal Hawaiian Center, 2201 Kalakaua Ave",21.279453,-157.8296833,meta,2025-06-02T07:00:00.000Z,0.9784508333782836,7e82c8fd-a469-4e90-90c2-84d64fe1980d,Royal Hawaiian Center,commercial,retail,OpenStreetMap,2025-05-30T13:41:13.000Z,,honolulu,False
3b3e049f-9584-4da6-b367-db8bd2652fe9,Honolulu Harley-Davidson Boutique,motorcycle_dealer,"['clothing_store', 'boutique']",HI,Honolulu,96815.0,"Rainbow Bazaar, 2005 Kalia Rd",21.2829433,-157.8370612,meta,2025-06-02T07:00:00.000Z,0.9784508333782836,,,,,,,,honolulu,False
056914c3-c446-4cbd-9c02-0b33f24bb8d8,Pacific Harley-Davidson,mens_clothing_store,"['womens_clothing_store', 'clothing_store']",HI,Honolulu,96815.0,2330 Kalakaua Ave,21.2784168,-157.8267345,meta,2025-06-02T07:00:00.000Z,0.9784508333782836,22e3f01d-47f4-4c1c-893f-372100905bb1,International Marketplace,commercial,commercial,OpenStreetMap,2025-01-17T11:40:00.000Z,,honolulu,False
28803e9a-3a7f-487b-a7fb-305ac56231ba,Harley Davidson,motorcycle_dealer,"['car_dealer', 'automotive_dealer']",HI,Honolulu,96815.0,2330 Kalakaua Ave,21.2806388,-157.8278295,meta,2025-06-02T07:00:00.000Z,0.7548172757475083,ce93c8b6-b730-4858-b687-81eb4dd36a24,,,,OpenStreetMap,2022-07-30T19:59:13.000Z,,honolulu,False
28803e9a-3a7f-487b-a7fb-305ac56231ba,Harley Davidson,motorcycle_dealer,"['car_dealer', 'automotive_dealer']",HI,Honolulu,96815.0,2330 Kalakaua Ave,21.2806388,-157.8278295,meta,2025-06-02T07:00:00.000Z,0.7548172757475083,fd15b8d7-73d9-4bd0-b6a2-25b89b0ae255,,commercial,retail,OpenStreetMap,2022-07-30T19:59:13.000Z,,honolulu,False
99c69904-ebd3-4a48-bb88-6644ec8d2b5d,Tobacco Road Harley-Davidson,motorcycle_dealer,"['motorcycle_repair', 'shopping']",NC,Raleigh,27603.0,1126 S Saunders St,35.7650692,-78.649592,meta,2025-06-02T07:00:00.000Z,0.9879256218304756,4eb2d5fc-fb48-4bea-b439-8c4cb49123bf,,,,OpenStreetMap,2020-06-20T05:37:03.000Z,,raleigh,False
8a157da6-5c48-4b64-8f0c-39b4e6b86a15,Old Town Temecula Harley Davidson,motorcycle_dealer,"['motorcycle_repair', 'fashion_accessories_store']",CA,Temecula,92590.0,28964 Old Town Front St,33.4852335,-117.1434375,meta,2025-06-02T07:00:00.000Z,0.9879256218304756,dc346d4a-4c5d-4899-92b8-7bc58bd90188,Harley-Davidson,,,OpenStreetMap,2024-01-17T09:57:54.000Z,,temecula-murrieta,False
aed3200d-5f04-4119-950e-1425185a0b55,Raging Bull Harley-Davidson,motorcycle_dealer,"['motorcycle_repair', 'shopping']",NC,Durham,27703.0,300 Muldee St,35.9948644,-78.8620949,meta,2025-06-02T07:00:00.000Z,0.9879256218304756,e22cda33-e070-4d25-b9ba-7a4ba0786997,Raging Bull Harley Davidson,,,OpenStreetMap,2024-01-17T03:40:26.000Z,,durham,False
933dd62d-b9c4-42c4-9c94-30ae336f9dc7,Bull Run Harley-Davidson,motorcycle_dealer,['professional_services'],VA,Manassas,20110.0,9321 Center St,38.75107,-77.48187,meta,2025-06-02T07:00:00.000Z,0.9784508333782836,5ccc8295-60ce-4993-bb1d-4bdb46b45e89,Bull Run Harley-Davidson,,,OpenStreetMap,2020-11-08T23:30:30.000Z,,washington-dc,False
c32690d2-6090-4b93-9086-286662cee67c,Harley-Davidson of Washington,motorcycle_dealer,"['motorcycle_repair', 'shopping']",MD,Fort Washington,20744.0,9407 Livingston Rd,38.7605271,-76.9955691,meta,2025-06-02T07:00:00.000Z,0.9879256218304756,51fb896f-e065-41a0-b4b4-d4b85a026388,,,,OpenStreetMap,2020-12-14T02:09:12.000Z,,washington-dc,False
96abc892-3abb-4b5d-9fdf-bcc5398c9a66,Patriot Harley Davidson,motorcycle_dealer,"['motorcycle_repair', 'automotive']",VA,Fairfax,22031.0,9739 Fairfax Blvd,38.8636252,-77.2809496,meta,2025-06-02T07:00:00.000Z,0.9879256218304756,be1f235a-dc24-48a1-834b-5fb1712e908d,Harley Davidson,,,OpenStreetMap,2024-01-17T03:37:24.000Z,,washington-dc,False
b838f488-6b98-48f1-b730-5be4e2ab7f59,Battley Harley-Davidson,motorcycle_dealer,"['motorcycle_repair', 'automotive']",MD,Gaithersburg,20879.0,7830 Airpark Rd,39.1698303222656,-77.159912109375,Microsoft,2016-08-16T14:48:41.460Z,0.77,8b6b47e0-6155-4ffd-a01f-13e8115c5cd5,,commercial,commercial,OpenStreetMap,2015-09-16T10:57:32.000Z,,washington-dc,False
f943a7d5-ae2e-4407-929d-7a07b1c060da,Harley-Davidson,motorcycle_dealer,"['motorcycle_repair', 'automotive']",MD,Gaithersburg,20879.0,7830 Airpark Rd,39.17002981,-77.15996075,Microsoft,2024-12-27T20:21:41.247Z,0.77,8b6b47e0-6155-4ffd-a01f-13e8115c5cd5,,commercial,commercial,OpenStreetMap,2015-09-16T10:57:32.000Z,,washington-dc,False
4ef5dc74-992c-423f-8b03-4383bdea2555,Old Glory Harley-Davidson,motorcycle_dealer,"['car_dealer', 'automotive']",MD,Laurel,20708.0,11800 Laurel Bowie Rd,39.0518781,-76.8372422,meta,2025-06-02T07:00:00.000Z,0.9879256218304756,75e116dc-aab6-4dca-abc1-3e23208b4d86,,,,OpenStreetMap,2023-03-25T02:17:16.000Z,,washington-dc,False
9523302a-9177-412a-955b-f3b88b45d3e1,Jim's Harley-Davidson On Beach,motorcycle_dealer,"['automotive', 'motorcycle_repair']",FL,St Pete Beach,33706.0,6600 Gulf Blvd,27.736538,-82.748112,meta,2025-06-02T07:00:00.000Z,0.296943231441048,a233a1fe-5685-4f5c-bd10-0b0a90c98105,,,,OpenStreetMap,2017-09-10T10:33:34.000Z,,st-petersburg,False
4557a7c0-c44c-4314-a37d-ff2201dad8b2,Bert's Barracuda Harley-Davidson,motorcycle_dealer,"['motorcycle_repair', 'car_dealer']",FL,Clearwater,33762.0,10525 49th St N,27.8680994,-82.6991956,meta,2025-06-02T07:00:00.000Z,0.9688311688311688,74399381-19f5-4af6-bc68-d2a7e49a55f3,,,,OpenStreetMap,2017-10-24T21:47:32.000Z,,st-petersburg,False
29a8a8e9-064e-40fa-9cf1-93abe150daa4,Harley-Davidson of New Port Richey,outdoor_gear,"['motorcycle_dealer', 'automotive', 'retail']",FL,New Port Richey,34652.0,5817 State Road 54,28.2171202,-82.717668,Microsoft,2015-05-25T12:56:28.800Z,0.77,,,,,,,,st-petersburg,False
80a23674-d774-45e1-af36-ab7af48219b0,Harley-Davidson of New Port Richey,motorcycle_dealer,"['motorcycle_repair', 'car_dealer']",FL,New Port Richey,34652.0,5817 SR-54,28.2175338,-82.7178146,meta,2025-06-02T07:00:00.000Z,0.9879256218304756,2d605287-1e9d-4dc8-b8d6-3680f297defa,Harley-Davidson,,,OpenStreetMap,2024-02-19T04:32:24.000Z,,st-petersburg,False
74ef0689-4433-476f-8a98-bc72d2dabe04,Gulf Coast Harley-Davidson,outdoor_gear,"['motorcycle_dealer', 'automotive', 'retail']",FL,New Port Richey,34652.0,5817 Sr 54,28.2180480957031,-82.7179107666016,Microsoft,2013-01-28T01:23:58.813Z,0.77,,,,,,,,st-petersburg,False
bcb015ef-cae3-4ce1-85fc-bbec871e1689,Keystone Harley-Davidson,motorcycle_dealer,"['motorcycle_repair', 'auto_company']",PA,Whitehall,18052.0,2800 Eberhart Rd,40.6501671,-75.4946567,meta,2025-06-02T07:00:00.000Z,0.9879256218304756,4fdb8b31-cb1e-42c4-9a31-684d8f3ece0d,Keystone Harley-Davidson,commercial,commercial,OpenStreetMap,2024-08-08T14:07:22.000Z,,allentown-bethlehem,False
ef32ec38-5243-4fd0-862c-e37e7c9aa624,Peterson's Harley-Davidson South,motorcycle_dealer,"['motorcycle_repair', 'automotive_dealer']",FL,Cutler Bay,33157.0,19825 S Dixie Hwy,25.5838819,-80.363943,meta,2025-06-02T07:00:00.000Z,0.9879256218304756,79ebdb3d-70b2-4336-85a1-de6e83fa3e2f,Harley-Davidson,,,OpenStreetMap,2024-01-17T03:39:07.000Z,,miami,False
f129eeb0-0461-4a2b-843a-6747bfd7ca55,Harley-Davidson Motor Company,motorcycle_dealer,"['automotive_repair', 'automotive']",FL,Doral,33122.0,3470 NW 82nd Ave,25.807184,-80.329975,meta,2025-06-02T07:00:00.000Z,0.3961437335670464,22d56aa7-f480-4313-abc1-ccaeff582f10,,commercial,retail,OpenStreetMap,2022-04-09T17:58:52.000Z,,miami,True
3e7c5675-fc08-4b9f-9476-23010b290497,Harley Davidson,motorcycle_dealer,"['automotive', 'mens_clothing_store']",FL,Miami,33132.0,401 Biscayne Blvd,25.777216,-80.185723,meta,2025-06-02T07:00:00.000Z,0.3961437335670464,4762757f-039c-4ac3-adce-289af0a7ed41,Bayside Marketplace,commercial,retail,OpenStreetMap,2023-08-27T17:17:43.000Z,,miami,False
2de827f7-41ab-49c1-b347-71d8968309a7,Peterson's Harley-Davidson,motorcycle_dealer,"['motorcycle_repair', 'car_dealer']",FL,Miami,33169.0,19400 NW 2nd Ave,25.9533016,-80.2062538,meta,2025-06-02T07:00:00.000Z,0.9879256218304756,00511d38-65b4-44de-ae87-92f23dd0be43,,,,OpenStreetMap,2016-08-03T23:08:55.000Z,,miami,False
e84ec02d-a56a-4e00-ae72-21df78aac3ae,Alligator Alley Harley-Davidson,motorcycle_dealer,"['event_planning', 'professional_services']",FL,Sunrise,33325.0,201 International Pkwy,26.1230116,-80.3409242,meta,2025-06-02T07:00:00.000Z,0.9784508333782836,4bdfe97b-8258-47d6-bdcb-6c233f48dcf1,,,,OpenStreetMap,2022-02-10T22:44:00.000Z,,miami,True
7c342e18-8647-4343-8ee3-bb47d74f7dff,Alligator Alley Harley-Davidson,motorcycle_dealer,"['motorcycle_repair', 'automotive']",FL,Sunrise,33325.0,201 International Pkwy,26.16920853,-80.29371643,Microsoft,2024-12-19T15:19:33.820Z,0.77,,,,,,,,miami,False
56484dc6-454b-4ace-b7aa-9f687de34429,Ft Lauderdale Harley-Davidson,motorcycle_dealer,,FL,Plantation,33317.0,443 S State Road 7,26.115395,-80.20201,meta,2025-06-02T07:00:00.000Z,0.4929396662387676,,,,,,,,miami,False
9b7f5e1d-b0e0-488e-bd6c-97c288a898e3,Harley Davidson Miami,motorcycle_dealer,"['motorsports_store', 'automotive_parts_and_accessories']",FL,North Miami Beach,0.0,,25.9358021,-80.1393665,meta,2025-06-02T07:00:00.000Z,0.3376623376623376,71d62983-ca09-4fd6-b51d-41dffe799292,,,,OpenStreetMap,2018-10-30T19:01:26.000Z,,miami,False
3ec56a2e-03d0-449a-ad15-0c5445701136,Harley Davidson,automotive_dealer,['shopping'],FL,Fort Lauderdale,33315.0,50 Terminal Dr,26.0731279,-80.1388914,meta,2025-06-02T07:00:00.000Z,0.3961437335670464,,,,,,,,miami,False
4e845329-2b9e-4e08-8432-9239ed713642,Harley Davidson of Palm Bea,motorcycle_dealer,"['motorcycle_repair', 'active_life']",FL,West Palm Beach,33401.0,420 Park Pl,26.69764,-80.05478,meta,2025-06-02T07:00:00.000Z,0.3376623376623376,,,,,,,,miami,False
7ecb83a0-c9a4-4768-8e4d-eec600477670,Palm Beach Harley-Davidson,motorcycle_dealer,"['motorcycle_repair', 'fashion']",FL,West Palm Beach,33407.0,2955 45th St,26.7599434,-80.0947378,meta,2025-06-02T07:00:00.000Z,0.9879256218304756,dc74526a-6ff5-40b4-84b5-1e487f500ceb,,,,OpenStreetMap,2017-04-21T03:13:12.000Z,,miami,False
1165a228-be0a-44db-a125-a9effe581ebb,Grand Rapids Harley Davidson,motorcycle_dealer,"['motorcycle_repair', 'clothing_store']",MI,Hudsonville,49426.0,2977 Corporate Grove Dr,42.8479627,-85.8575379,meta,2025-06-02T07:00:00.000Z,0.9879256218304756,479997f5-ac57-4191-81b9-0280209ccf73,,,,OpenStreetMap,2023-04-28T17:02:41.000Z,,grand-rapids,False
4b06f0da-7f14-4fab-bc02-02c12d39b81d,Grand Rapids Harley-Davidson,leather_goods,"['motorcycle_dealer', 'automotive', 'retail']",MI,Hudsonville,49426.0,2977 Corporate Grove Dr,42.847495,-85.856737,Microsoft,2011-01-25T06:28:20.603Z,0.77,,,,,,,,grand-rapids,False
35151c50-cac7-4e6c-829a-495b7d4259c0,Harley Davidson and the Marlboro Man Bike,shopping,"['motorcycle_repair', 'auto_company']",MI,Wyoming,49519.0,2449 29th St SW,42.9121819,-85.7268066,meta,2025-06-02T07:00:00.000Z,0.5662921348314607,7da0c528-1350-4d1f-9348-ab94d2125e2d,,,,OpenStreetMap,2021-03-30T15:21:53.000Z,,grand-rapids,False
97cbe2f2-8345-4ca8-9076-f2443f44d881,Conrad's Harley-Davidson Buell,motorcycle_dealer,"['automotive_dealer', 'automotive']",IL,Joliet,60431.0,1541 River Boat Center Dr,41.495941,-88.163791,meta,2025-06-02T07:00:00.000Z,0.296943231441048,cb41584f-cfc1-4004-a3f0-ef912eef52ad,,industrial,industrial,OpenStreetMap,2024-07-01T00:02:36.000Z,,chicago,False
d9c81065-62c0-449c-b44c-a944fb3d4492,Conrads Harley-Davidson,motorcycle_dealer,"['motorcycle_repair', 'car_dealer']",IL,Shorewood,60404.0,19356 NE Frontage Rd,41.5311791,-88.1810004,meta,2025-06-02T07:00:00.000Z,0.9879256218304756,1c2875ef-5227-4232-950e-5d8a5a54c46b,,commercial,commercial,Esri Community Maps,2024-10-15T00:00:00.000Z,,chicago,False
64c2ab64-6602-436a-bab2-bbcad33ce994,Heritage Harley-Davidson,motorcycle_dealer,['automotive'],IL,Lisle,60532.0,2595 Ogden Ave,41.7970011,-88.102338,Microsoft,2023-08-04T21:52:56.917Z,0.77,9c9e9c8a-1cfd-4101-b30a-b7a9176fa1c7,,commercial,retail,OpenStreetMap,2025-04-10T23:31:23.000Z,,chicago,False
4792b942-dc80-464b-b2ac-81ffa8867ec7,Wild Fire Harley-Davidson,motorcycle_dealer,"['motorcycle_repair', 'car_dealer']",IL,Villa Park,60181.0,120 W North Ave,41.9061612,-87.9808089,meta,2025-06-02T07:00:00.000Z,0.93,7204305f-d60a-408f-9fb1-1dda8e084b35,,,,OpenStreetMap,2023-10-15T19:09:02.000Z,,chicago,False
7443ab32-9e70-4ca0-b827-52e831aeabdc,Harley-Davidson of Villa Park,motorcycle_dealer,"['automotive_dealer', 'transportation']",IL,Villa Park,60181.0,305 E North Ave,41.904968,-87.971132,meta,2025-06-02T07:00:00.000Z,0.3961437335670464,3206cc98-3452-4122-a901-300c2af38306,,,,Microsoft ML Buildings,2023-09-01T00:00:00.000Z,0.9944000244140624,chicago,False
0f402c0b-d46a-45db-8514-a2a12f0f278f,Windy City Harley-Davidson,shopping,"['clothing_store', 'motorcycle_dealer']",IL,Chicago,60666.0,11601 Upper Express Dr,41.97536,-87.90638,meta,2025-06-02T07:00:00.000Z,0.5662921348314607,db293a55-887b-47ec-9a86-39076d3e835d,Concourse E/F & Concourse E/F Link,,,OpenStreetMap,2024-06-17T05:49:27.000Z,,chicago,False
3cbf6082-3ab0-4c1a-8578-f52e914d2ad9,City Limits Harley-Davidson,motorcycle_dealer,['automotive'],IL,Palatine,60074.0,2015 N Rand Rd,42.1460279,-88.0291617,Microsoft,2021-08-25T15:20:12.040Z,0.77,,,,,,,,chicago,False
4d86452e-f31c-4b94-ae28-20cdbfa6150b,Chi-Town Harley-Davidson,motorcycle_dealer,"['motorcycle_repair', 'shopping']",IL,Tinley Park,60487.0,17801 LaGrange Rd,41.5664578,-87.8507242,meta,2025-06-02T07:00:00.000Z,0.9879256218304756,28d60637-fb2e-4f4d-886c-8e05128a2403,,,,OpenStreetMap,2025-03-14T00:16:39.000Z,,chicago,False
f7b6da6e-fd78-4dee-9970-7cda51f58aae,Oak lawn harley Davidson,motorcycle_dealer,"['automotive_repair', 'automotive_dealer']",IL,Oak Lawn,60453.0,11040 S Cicero Ave,41.6917568,-87.7404263,meta,2025-06-02T07:00:00.000Z,0.3961437335670464,68ce235f-adc5-4d30-948a-9cc852eff493,Massage Envy,commercial,retail,OpenStreetMap,2024-05-15T19:48:23.000Z,,chicago,False
926305b1-9536-4a26-9a5a-f845af793424,Illinois Harley-Davidson,motorcycle_dealer,['car_dealer'],IL,Countryside,60525.0,9950 Joliet Rd,41.7809784,-87.8656973,meta,2025-06-02T07:00:00.000Z,0.9879256218304756,ec7ec8fb-88b1-4323-adb6-55f5122321d9,Illinois Harley-Davidson,commercial,commercial,OpenStreetMap,2024-01-17T03:51:07.000Z,,chicago,False
73287c36-3a53-4ec3-b89a-03eeabb14b34,Chicago Harley-Davidson,motorcycle_dealer,"['motorcycle_repair', 'automotive']",IL,Rosemont,60018.0,5490 Park Pl,41.9780894,-87.8685557,Microsoft,2021-08-25T15:20:11.703Z,0.77,2d70aa4d-b597-4183-aaa3-bd5c9e13c816,Harley-Davidson,commercial,retail,OpenStreetMap,2024-09-06T11:42:16.000Z,,chicago,False
0c6731c4-d565-40d8-bc25-dfe1cc693fbf,Chicago Harley-Davidson,clothing_store,"['motorcycle_dealer', 'motorcycle_gear', 'automotive', 'retail']",IL,Chicago,60611.0,668 N Michigan Ave,41.89406,-87.623968,Microsoft,2021-01-09T08:22:10.523Z,0.77,b9e4fe90-91f8-4ebd-bfd7-cab6461ec635,,commercial,office,OpenStreetMap,2024-05-18T22:24:01.000Z,,chicago,False
a68a0b48-7ec1-4659-b7be-0baab8d21142,Chicago Harley-Davidson Wrigleyville,motorcycle_dealer,['automotive'],IL,Chicago,60613.0,1027 W Addison St,41.9472397,-87.6555859,Microsoft,2021-08-25T15:20:12.020Z,0.77,,,,,,,,chicago,False
61456a5a-dd08-4fd3-bb9a-2e457a09e63e,Chicago Harley-Davidson,motorcycle_dealer,"['automotive', 'automotive_dealer']",IL,Skokie,60076.0,9455 Karlov Ave,42.053268,-87.729701,meta,2025-06-02T07:00:00.000Z,0.296943231441048,e2dae663-9e1a-4f68-a0b2-ca787c0fda3c,,residential,residential,OpenStreetMap,2025-01-03T07:46:09.000Z,,chicago,False
8f1524d2-707b-4eca-854b-9beaa9e4aa68,Chicago Harley-Davidson,motorcycle_dealer,['motorcycle_repair'],IL,Glenview,60026.0,2929 Patriot Blvd,42.106312,-87.821736,meta,2025-06-02T07:00:00.000Z,0.3376623376623376,689fca31-68b2-4d2a-8b23-2e608e77367e,,commercial,retail,OpenStreetMap,2022-09-07T22:31:57.000Z,,chicago,False
b09d468f-a98a-4f06-aba7-74aa4d375d16,EagleRider Motorcycle Rentals and Tours McHenry Harley-Davidson,outdoor_gear,"['motorcycle_dealer', 'motorcycle_rentals', 'automotive', 'travel', 'retail']",IL,McHenry,60051.0,1903 W Route 120,42.3400922,-88.2344705,Microsoft,2018-10-12T21:58:36.710Z,0.77,,,,,,,,chicago,False
e35f8bda-b008-4791-bba2-18c83ca6bf53,McHenry Harley-Davidson,motorcycle_dealer,['automotive'],IL,McHenry,60051.0,1903 W Route 120,42.3400922,-88.2344705,Microsoft,2025-05-18T01:33:03.230Z,0.77,,,,,,,,chicago,False
5c9b9604-bbd1-4863-8e4a-f482bcff897c,Mc Henry Harley-Davidson Shop,motorcycle_dealer,['automotive'],IL,McHenry,60051.0,2103 W Il Rte 120,42.34132275068153,-88.23849157672117,Microsoft,2013-01-29T02:33:05.967Z,0.77,e705e972-450e-4c03-889e-e7e0e6c59f52,,,,OpenStreetMap,2016-07-16T00:10:11.000Z,,chicago,False
3e1dfa82-f66d-4f35-86e0-11984114e502,Lake Shore Harley-Davidson,motorcycle_dealer,"['motorcycle_repair', 'active_life']",IL,Libertyville,60048.0,14000 W Rockland Rd,42.2805787,-87.9049067,meta,2025-06-02T07:00:00.000Z,0.9879256218304756,73202540-4af8-4582-b352-f3f663856092,,industrial,industrial,OpenStreetMap,2015-08-08T16:22:24.000Z,,chicago,False
32a3cdd3-d64c-40bd-a6d7-66604a742e93,Brian's Harley Davidson Test Ride,motorcycle_dealer,"['car_dealer', 'professional_services']",PA,Langhorne,19047.0,600 S Flowers Mill Rd,40.1673301,-74.8978207,meta,2025-06-02T07:00:00.000Z,0.5662921348314607,,,,,,,,trenton,False
6b94d23b-2806-4727-8446-7c9495150d04,Stars and Stripes Harley-Davidson,motorcycle_dealer,"['motorcycle_repair', 'shopping']",PA,Middletown Twp,19047.0,600 S Flowers Mill Rd,40.1677509,-74.8983066,meta,2025-06-02T07:00:00.000Z,0.9879256218304756,7ac7bea7-535c-47bf-8dae-eaf53c7e5225,Stars & Stripes Harley-Davidson,,,OpenStreetMap,2024-01-17T03:37:12.000Z,,trenton,False
fe958460-0f0a-44f5-8f78-0a0d72ec6f42,Adrenaline Harley-Davidson,motorcycle_dealer,"['motorcycle_repair', 'car_dealer']",FL,Sarasota,34232.0,330 Cattlemen Rd,27.3326244,-82.4496562,meta,2025-06-02T07:00:00.000Z,0.9879256218304756,,,,,,,,sarasota-bradenton,False
1bb07383-08e5-4bbd-b681-42e8331351b7,Adrenaline Harley-Davidson,motorcycle_dealer,['automotive'],FL,Sarasota,34232.0,330 Cattlemen Rd,27.3330305,-82.4496806,Microsoft,2024-07-25T06:02:41.080Z,0.77,,,,,,,,sarasota-bradenton,False
47583ee8-d84e-4fc2-b018-fc167d0421ed,McGuire Harley-Davidson,motorcycle_dealer,"['motorcycle_repair', 'auto_company']",CA,Martinez,94553.0,93 1st Ave N,37.9863983,-122.0675599,meta,2025-06-02T07:00:00.000Z,0.9784508333782836,d6e7ea68-8fe8-47f2-93a2-3cbaeb7cdc7d,,commercial,commercial,OpenStreetMap,2017-08-19T05:03:36.000Z,,concord,False
95065bd2-53e0-4cc5-a7c4-2f29cd07b8e0,Harley-Davidson,automotive_dealer,"['motorcycle_repair', 'automotive_parts_and_accessories']",CA,Concord,94520.0,1401 Willow Pass Rd,37.970396,-122.051002,meta,2025-06-02T07:00:00.000Z,0.296943231441048,c811d075-95b3-4bda-b32f-f6267ede0ada,,commercial,office,OpenStreetMap,2017-12-13T17:33:11.000Z,,concord,False
7c75b061-cddc-43d7-a751-08283efd7425,Boswell's Music City Harley-Davidson,motorcycle_dealer,"['fashion', 'clothing_store']",TN,Nashville,37203.0,1200 Clinton St,36.1648559,-86.79531,meta,2025-06-02T07:00:00.000Z,0.9784508333782836,e58b976c-21a9-4aca-ac72-0cb76c03511d,Marathon Motor Works,industrial,industrial,OpenStreetMap,2022-03-08T23:01:07.000Z,,nashville-davidson,False
e23cd006-d68a-42f2-8b96-f786033f83e8,Boswell's Honky Tonk Harley-Davidson Apparel,motorcycle_dealer,"['clothing_store', 'shopping']",TN,Nashville,37201.0,203 3rd Ave S,36.1592079,-86.7745361,meta,2025-06-02T07:00:00.000Z,0.9784508333782836,e20cdc10-1378-4b30-80c8-e8aefc1331a8,Encore,residential,apartments,OpenStreetMap,2025-01-01T16:51:30.000Z,,nashville-davidson,False
c5c5f594-ef97-441f-8f76-b56625825001,Motor Harley Davidson Cycles,clothing_store,"['automotive', 'motorcycle_repair']",TN,Nashville,37201.0,180 2nd Ave N,36.164381,-86.776499,meta,2025-06-02T07:00:00.000Z,0.7548172757475083,f25326cb-fe27-49f1-9d78-cf2b6ddc8e19,,,,OpenStreetMap,2021-10-23T15:19:00.000Z,,nashville-davidson,False
c5c5f594-ef97-441f-8f76-b56625825001,Motor Harley Davidson Cycles,clothing_store,"['automotive', 'motorcycle_repair']",TN,Nashville,37201.0,180 2nd Ave N,36.164381,-86.776499,meta,2025-06-02T07:00:00.000Z,0.7548172757475083,4de5a469-f78e-476e-bc9a-b19f34f319c9,,,,OpenStreetMap,2021-10-23T15:19:00.000Z,,nashville-davidson,False
de86c2f8-54c9-4d6c-907e-ae05c779fc79,Boswell's Harley-Davidson,motorcycle_dealer,"['motorcycle_repair', 'motorsports_store']",TN,Nashville,37210.0,401 Fesslers Ln,36.1490051,-86.743598,meta,2025-06-02T07:00:00.000Z,0.9879256218304756,3dfac495-adad-4ed9-90ca-28225bf7a347,,,,OpenStreetMap,2022-06-25T16:19:40.000Z,,nashville-davidson,False
714d48f6-5f1f-4ffa-9824-cede8e64d33e,Harley Davidson Boswells,motorcycle_dealer,"['mens_clothing_store', 'family_practice']",TN,Nashville,37214.0,448 Opry Mills Dr,36.2028,-86.69244,meta,2025-06-02T07:00:00.000Z,0.5662921348314607,fd740af8-9bcc-4e2e-99e5-0ddc740e4280,Opry Mills,commercial,retail,OpenStreetMap,2024-07-31T17:04:14.000Z,,nashville-davidson,False
