id_left,primary_name_left,primary_category,alternate_category,region,locality,zipcode,address,latitude,longitude,plc_source_dataset,plc_source_update_time,plc_source_confidence,id_right,primary_name_right,subtype,class,bldg_dataset,bldg_update_time,bldg_confidence,source_city,is_office_by_pipeline
643ee750-64d8-4fa3-83c0-3a63cd1e75a3,Rita's Italian Ice & Frozen Custard,ice_cream_shop,"['diner', 'restaurant']",IN,Fort Wayne,46804,6312 Covington Rd,41.0600781,-85.2220775,meta,2025-06-02T07:00:00.000Z,0.9784508333782836,0a9661d0-6173-4d3e-81e8-ab21c1179829,,,,OpenStreetMap,2018-07-03T05:07:06.000Z,,fort-wayne,False
1fe009e0-fcf6-496c-83a5-06fca178cded,Handel's Ice Cream,ice_cream_shop,"['diner', 'smoothie_juice_bar']",IN,Fort Wayne,46804,4916 Illinois Rd,41.0753089,-85.2057621,meta,2025-06-02T07:00:00.000Z,0.9784508333782836,c7965aee-492f-4081-a70e-6640ec6583e1,,,,OpenStreetMap,2023-02-25T16:46:51.000Z,,fort-wayne,False
8101ef40-00aa-4b73-8cd6-472287404e10,Home City Ice,commercial_refrigeration,"['grocery_store', 'shopping']",IN,Fort Wayne,46808,3331 Congressional Pkwy,41.1107547,-85.1850409,meta,2025-06-02T07:00:00.000Z,0.9415384615384615,,,,,,,,fort-wayne,False
de1a72e1-7856-4b8d-a644-17e7867c654b,Zesto Ice Cream,ice_cream_shop,"['fast_food_restaurant', 'restaurant']",IN,Fort Wayne,46802,2225 Broadway St,41.0642207,-85.1522528,meta,2025-06-02T07:00:00.000Z,0.9784508333782836,2af2e70c-0205-4c7b-be6a-722804df358e,Zesto's,commercial,,OpenStreetMap,2024-06-18T18:54:16.000Z,,fort-wayne,False
f0b89723-3c57-4c48-8911-c03ca41b38f8,Baskin- Robbins 31 Ice Cream,ice_cream_shop,"['desserts', 'restaurant']",IN,Fort Wayne,46807,3826 S Calhoun St,41.0505034,-85.1361635,meta,2025-06-02T07:00:00.000Z,0.3961437335670464,,,,,,,,fort-wayne,False
79e20c29-1573-4f71-bd8d-1762aaae80ca,Can O' Corn & Ice Cream,ice_cream_shop,"['eat_and_drink', 'desserts']",IN,Fort Wayne,46802,1301 Ewing St,41.073896,-85.142632,meta,2025-06-02T07:00:00.000Z,0.296943231441048,bbd51a94-8a88-4ffd-a054-025acf2abc0f,,,,OpenStreetMap,2022-10-06T20:04:06.000Z,,fort-wayne,False
86d312f8-dedf-4d47-be30-540ac84d908d,Carmelita Ice Cream & Restaurante,mexican_restaurant,"['restaurant', 'ice_cream_shop']",IN,Fort Wayne,46802,202 W Superior St,41.082504,-85.142867,meta,2025-06-02T07:00:00.000Z,0.7548172757475083,,,,,,,,fort-wayne,False
c4ad1d79-8b64-49e1-b6c2-6acae0de115b,Pufferbelly Ice Cream ,candy_store,"['ice_cream_shop', 'train_station']",IN,Fort Wayne,46808,1022 Cass St,41.0840047,-85.1439041,meta,2025-06-02T07:00:00.000Z,0.5662921348314607,,,,,,,,fort-wayne,False
6ddcaeaa-bf56-4aac-b053-9134c87cb9cd,Headwaters Park Ice Rink,ice_skating_rink,"['active_life', 'park']",IN,Fort Wayne,46802,333 S Clinton St,41.0840313,-85.1383936,meta,2025-06-02T07:00:00.000Z,0.9784508333782836,4aa65d09-c301-48ab-8d52-2856554a0a9c,Lincoln Financial Pavilion,entertainment,,OpenStreetMap,2023-01-17T15:04:01.000Z,,fort-wayne,False
f802fcda-2d30-4fb2-81d9-e79bc28c329a,Murphy Ice & Koeneman,lawyer,"['legal_services', 'professional_services']",IN,Fort Wayne,46803,2020 E Washington Blvd,41.0785236,-85.1116817,meta,2025-06-02T07:00:00.000Z,0.9204819277108434,,,,,,,,fort-wayne,False
b4da2e24-540d-4a67-b564-c2cda6a32a03,ICE Pro Shop,active_life,"['sports_club_and_league', 'ice_cream_shop']",IN,Fort Wayne,46808,1455 Goshen Ave,41.1004889,-85.1626768,meta,2025-06-02T07:00:00.000Z,0.9784508333782836,06f53df8-57b5-41be-84a9-96ee5e239282,,commercial,commercial,OpenStreetMap,2023-07-29T21:29:42.000Z,,fort-wayne,False
8290399e-f007-4bc3-93ae-fbdb2cc4fcca,Dreyer's Grand Ice Cream,ice_cream_shop,"['food_beverage_service_distribution', 'business']",IN,Fort Wayne,46808,3426 N Wells St,41.1076814,-85.1460376,meta,2025-06-02T07:00:00.000Z,0.9784508333782836,2ce602d8-0677-4f3f-ba81-78012499a23e,,,,OpenStreetMap,2019-04-09T11:18:11.000Z,,fort-wayne,False
7738138a-148a-4003-8ebb-20dd6d4e5d04,Center Ice Inc,retail,,IN,Fort Wayne,46805,3869 Ice Way,41.1113238,-85.1470309,Microsoft,2011-07-06T17:47:48.170Z,0.77,,,,,,,,fort-wayne,False
3586433a-d2e8-4687-b854-89486339cadb,Ice Sports Fort Wayne,topic_concert_venue,"['landmark_and_historical_building', 'monument']",IN,Fort Wayne,46805,3869 Ice Way,41.1122,-85.14708,meta,2025-06-02T07:00:00.000Z,0.5662921348314607,e3d4533b-ff15-4c97-a87a-02410b3b677f,,,,OpenStreetMap,2024-10-16T04:01:15.000Z,,fort-wayne,False
ad13eebe-4350-44a6-9556-1a0e16cb6921,Canlan Ice Arena,ice_skating_rink,"['active_life', 'stadium_arena']",IN,Fort Wayne,46805,3869 Ice Way,41.1122842,-85.1470499,meta,2025-06-02T07:00:00.000Z,0.9784508333782836,e3d4533b-ff15-4c97-a87a-02410b3b677f,,,,OpenStreetMap,2024-10-16T04:01:15.000Z,,fort-wayne,False
dd2f866a-7e50-42ae-a6f6-7d0526b60a57,Fort Wayne Ice Skating Club,ice_skating_rink,"['sports_club_and_league', 'active_life']",IN,Fort Wayne,46805,3689 Ice Way,41.1126518,-85.1472147,meta,2025-06-02T07:00:00.000Z,0.5662921348314607,,,,,,,,fort-wayne,False
6c67b53d-cce9-4d1d-a170-681cd6faeead,Rusty's Ice Cream,ice_cream_shop,"['food_truck', 'restaurant']",IN,Fort Wayne,46818,9171 Lima Rd,41.1652803,-85.1672711,meta,2025-06-02T07:00:00.000Z,0.9784508333782836,,,,,,,,fort-wayne,False
331b6c1b-55a4-4154-a877-4b3fcd3503f8,Sweet Monster Ice Cream,ice_cream_shop,"['desserts', 'tea_room']",IN,Fort Wayne,46818,6421 Lima Rd,41.1386179,-85.1625174,meta,2025-06-02T07:00:00.000Z,0.9784508333782836,166d9388-5edd-4579-af75-8eeb7a7793fb,,commercial,retail,OpenStreetMap,2017-12-02T21:56:16.000Z,,fort-wayne,False
3efd0ffb-f097-4248-8b39-a819129cdb2c,Sno Balls Hawaiian Shaved Ice,hawaiian_restaurant,"['desserts', 'smoothie_juice_bar']",IN,Fort Wayne,46835,4526 Maplecrest Rd,41.1223475,-85.0611956,meta,2025-06-02T07:00:00.000Z,0.9784508333782836,63ff35d5-52cb-4623-8188-5d942b60e3c1,Hawiian Shaved Ice,commercial,commercial,OpenStreetMap,2017-09-22T22:39:36.000Z,,fort-wayne,False
8d9b3bbf-d662-4338-8d52-aecca8d073b6,Zesto Ice Cream,ice_cream_shop,"['hot_dog_restaurant', 'fast_food_restaurant']",IN,Fort Wayne,46835,6218 St Joe Center Rd,41.1345693,-85.0634039,meta,2025-06-02T07:00:00.000Z,0.9879256218304756,25e783b4-1ae0-4ad6-b7e9-df307e07e20b,Zesto,commercial,,OpenStreetMap,2021-11-21T00:01:04.000Z,,fort-wayne,False
236d3095-aa0e-4861-b4aa-75bea27201de,Larry Ice II,insurance_agency,,IN,Fort Wayne,46835,6221 Maplecrest Rd,41.1380025,-85.0628179,meta,2025-06-02T07:00:00.000Z,0.9879256218304756,f29734da-3435-4652-bb26-0d43da27ef6c,,,,OpenStreetMap,2017-11-12T03:30:49.000Z,,fort-wayne,False
c9f42cf6-c107-4100-9130-e3c1a9c53db1,Milwaukee Joe's Gourmet Ice Cream,desserts,"['ice_cream_and_frozen_yoghurt', 'food', 'restaurant']",TX,Southlake,76092,1417 Main St,32.942445,-97.130475,Microsoft,2019-07-02T18:03:03.533Z,0.77,4d8114c5-0f3a-40d1-96b8-6d69d3f4a207,,commercial,retail,OpenStreetMap,2019-10-24T16:59:20.000Z,,denton-lewisville,False
97305f7e-13e0-4de5-a312-c5af992b85a5,On The Rocks Ice,business_manufacturing_and_supply,,TX,Southlake,76092,2211 E Continental Blvd,32.9252722,-97.115321,meta,2025-06-02T07:00:00.000Z,0.8540983606557377,c3fc535c-1d2b-4bc0-a670-49230661e6f3,,,,OpenStreetMap,2019-01-28T20:34:26.000Z,,denton-lewisville,False
6938f9d0-ccec-49f3-b179-1b9c4d909f64,Handel's Ice Cream,ice_cream_shop,"['diner', 'smoothie_juice_bar']",TX,Southlake,76092,2645 E Southlake Blvd,32.938974,-97.1116729,meta,2025-06-02T07:00:00.000Z,0.9784508333782836,3a1651f9-4e1d-43ca-a52e-a2b36e2ea093,,,,Microsoft ML Buildings,2020-12-10T00:00:00.000Z,,denton-lewisville,False
4915eb8f-097f-4c51-8e31-782d252f3e79,Radiance and Ice,spas,"['health_and_medical', 'surgeon']",TX,Southlake,76092,2112 E State Highway 114,32.9466334,-97.1178102,meta,2025-06-02T07:00:00.000Z,0.909823677581864,7bb8a959-4c7c-47fe-99b9-14004e08d1d5,,,,OpenStreetMap,2024-12-23T17:34:55.000Z,,denton-lewisville,False
194fbf7e-5be3-4cac-82ca-c155d85bb99e,Kilwins Ice Cream - Chocolate - Fudge,desserts,"['ice_cream_and_frozen_yoghurt', 'chocolatier', 'restaurant', 'retail']",TX,Grapevine,76051,338 S Main St,32.937881591748535,-97.07859001165676,Microsoft,2025-05-02T11:20:31.503Z,0.77,97929cee-b2e5-44c2-b2a0-6ccd898cfc46,,,,OpenStreetMap,2019-08-23T01:19:13.000Z,,denton-lewisville,False
194fbf7e-5be3-4cac-82ca-c155d85bb99e,Kilwins Ice Cream - Chocolate - Fudge,desserts,"['ice_cream_and_frozen_yoghurt', 'chocolatier', 'restaurant', 'retail']",TX,Grapevine,76051,338 S Main St,32.937881591748535,-97.07859001165676,Microsoft,2025-05-02T11:20:31.503Z,0.77,ce7729ac-b17a-4f5d-81ea-42e3f33537a6,,,,OpenStreetMap,2019-08-23T01:19:13.000Z,,denton-lewisville,False
91518cb6-e2e4-48bf-b5ea-ad0c3b3caec9,Braum's Ice Cream and Dairy Store,ice_cream_shop,"['fast_food_restaurant', 'burger_restaurant']",TX,Grapevine,76051,307 E Northwest Hwy,32.9414484,-97.076036,meta,2025-06-02T07:00:00.000Z,0.9784508333782836,4eb4fa5d-972d-4882-a976-2d90fc39238e,Braum's,commercial,,OpenStreetMap,2024-01-17T09:46:09.000Z,,denton-lewisville,False
28683595-4263-4215-9d12-b0fcab6b0d71,ICE! at The Gaylord Texan,hotel,['accommodation'],TX,Grapevine,76051,1501 Gaylord Trl,32.9551239,-97.064353,meta,2025-06-02T07:00:00.000Z,0.909823677581864,206815f1-9b1b-4d63-b0a0-bfa4abf5dda4,Gaylord Texan Resort & Convention Center,commercial,hotel,OpenStreetMap,2023-08-23T18:55:52.000Z,,denton-lewisville,False
3aa0fee3-e88d-44af-b8ce-4ea9680459de,ICE! & SNOW Tubing - Gaylord Texan,arts_and_entertainment,"['hotel', 'landmark_and_historical_building']",TX,Grapevine,76051,1501 Gaylord Trl,32.952268,-97.06352,meta,2025-06-02T07:00:00.000Z,0.4929396662387676,1362238e-6f11-4d3d-8e7d-801a0dc87d41,Gaylord Texan,entertainment,,OpenStreetMap,2023-08-12T21:13:11.000Z,,denton-lewisville,False
3077e48d-7c32-478e-b302-eb75a299d7ac,Polar Ice House Grapevine,ice_skating_rink,"['american_restaurant', 'stadium_arena']",TX,Grapevine,76051,3000 Grapevine Mills Pkwy,32.96862,-97.03741,meta,2025-06-02T07:00:00.000Z,0.296943231441048,,,,,,,,denton-lewisville,False
bc5f70bd-e794-47e8-87b2-36093d8f0c06,Milwaukee Joe's Gourmet Ice Cream,ice_cream_shop,"['desserts', 'restaurant']",TX,Flower Mound,75022,901 Long Prairie Rd,32.995277,-97.0649233,meta,2025-06-02T07:00:00.000Z,0.3961437335670464,1b6e80bd-96a0-4dbe-8260-558ae43bac9f,,,,OpenStreetMap,2024-11-17T16:42:34.000Z,,denton-lewisville,False
8dcf3970-9575-483e-bb22-f25b5d4c146c,Handel's Homemade Ice Cream,ice_cream_shop,"['fast_food_restaurant', 'smoothie_juice_bar']",TX,Flower Mound,75028,2717 Cross Timbers Rd,33.0358461,-97.0727276,meta,2025-06-02T07:00:00.000Z,0.9784508333782836,38162477-efcd-4ada-b907-70523fae34df,,commercial,retail,OpenStreetMap,2021-10-15T12:54:54.000Z,,denton-lewisville,False
1d5e7caf-79ad-4f6f-b00c-272b0f6fcf26,Braum's Ice Cream and Dairy Store,ice_cream_shop,"['restaurant', 'american_restaurant']",TX,Flower Mound,75028,1025 Cross Timbers Rd,33.0421577,-97.0427959,meta,2025-06-02T07:00:00.000Z,0.9784508333782836,dd61fd0e-160f-4d91-9d97-75b556f8f5d6,Braum's,commercial,retail,OpenStreetMap,2024-01-05T23:20:18.000Z,,denton-lewisville,False
1cc6e308-d4fc-4f85-abf7-ddacf4e9fbcd,Sub Zero Nitrogen Ice Cream,desserts,"['ice_cream_and_frozen_yoghurt', 'restaurant']",TX,Flower Mound,75028,3721 Justin Rd Ste 150,33.0711642,-97.0874544,Microsoft,2018-09-05T05:48:12.130Z,0.77,64c41c98-605f-4154-a5d8-c2739f488305,,commercial,retail,OpenStreetMap,2020-12-10T17:48:47.000Z,,denton-lewisville,False
aa71ec9c-defb-4e8a-a673-43e3c388e9ad,Handel's Ice Cream,ice_cream_shop,"['diner', 'smoothie_juice_bar']",TX,Highland Village,75077,2200 FM-407,33.0717992,-97.0558223,meta,2025-06-02T07:00:00.000Z,0.9784508333782836,37594c2d-2cc1-430c-9904-e6271b391a11,Handel's Homemade Ice Cream,commercial,retail,OpenStreetMap,2024-06-09T04:11:16.000Z,,denton-lewisville,False
ef032717-4041-4f11-9ddc-d70213e10042,Sassy Sno Shaved Ice,shaved_ice_shop,"['food_stand', 'restaurant']",TX,Hickory Creek,75065,3900 FM 2181,33.12901,-97.04905,meta,2025-06-02T07:00:00.000Z,0.4929396662387676,,,,,,,,denton-lewisville,False
af075728-6c36-4cd9-acc0-fb70dfa1f0f3,Snowzilla Shaved Ice,shaved_ice_shop,['hawaiian_restaurant'],TX,Hickory Creek,75065,3700 FM 2181,33.1298151,-97.0509586,meta,2025-06-02T07:00:00.000Z,0.3961437335670464,,,,,,,,denton-lewisville,False
40040282-6ced-4a8d-a811-a3c574d869be,Twice the Ice DFW Hickory Creek on Swisher Rd,convenience_store,"['barbecue_restaurant', 'eat_and_drink']",TX,Hickory Creek,75065,3572 FM-2181,33.130281,-97.051631,meta,2025-06-02T07:00:00.000Z,0.5662921348314607,92c1f03a-71db-4ae9-905a-b5c11e7d4fe0,US Storage Centers,commercial,warehouse,OpenStreetMap,2022-04-04T09:57:30.000Z,,denton-lewisville,False
95837700-79e7-403b-8798-4691c2a0bfa8,Beth Marie's Old Fashioned Ice Cream,ice_cream_shop,"['bakery', 'restaurant']",TX,Denton,76210,2900 Wind River Ln,33.1749955,-97.0978846,meta,2025-06-02T07:00:00.000Z,0.9784508333782836,04946dcf-0e6c-4831-9d3a-e1478b9b3e4d,,,,OpenStreetMap,2022-04-25T10:08:59.000Z,,denton-lewisville,False
2066fee9-02a5-420c-95e1-8c4ae4edb7dd,Milwaukee Joe's Artisan Ice Creams,ice_cream_shop,"['fast_food_restaurant', 'diner']",TX,Irving,75063,901 MacArthur Park Dr,32.9145187,-96.9612432,meta,2025-06-02T07:00:00.000Z,0.9784508333782836,28907b57-68de-444b-85c4-8daffdb6c802,,commercial,retail,OpenStreetMap,2017-01-26T17:42:49.000Z,,denton-lewisville,False
1f82e822-9adb-435a-8975-30292efb1160,Let's Roll Ice Cream and Boba Tea,ice_cream_shop,"['desserts', 'bubble_tea']",TX,Irving,75063,8150 N MacArthur Blvd,32.9203517,-96.9571967,meta,2025-06-02T07:00:00.000Z,0.9784508333782836,7f42a1ee-4378-4056-85f2-c9bf52c4d986,,commercial,retail,OpenStreetMap,2022-11-21T17:10:36.000Z,,denton-lewisville,False
f5fef808-e8f1-43ed-bb8e-3199245c7347,Kwality Ice Cream,ice_cream_shop,"['diner', 'desserts']",TX,Irving,75063,8600 N MacArthur Blvd,32.9239022,-96.9538284,meta,2025-06-02T07:00:00.000Z,0.9784508333782836,f6384c43-28f1-43cf-907b-ff325211e4e9,,commercial,retail,OpenStreetMap,2017-01-26T17:29:07.000Z,,denton-lewisville,False
42b52b1e-a9f5-4343-90c7-ed715f1b5e65,Braum's Ice Cream & Dairy Store,ice_cream_shop,"['fast_food_restaurant', 'burger_restaurant']",TX,Dallas,75234,3441 Forest Ln,32.9100677,-96.8625973,meta,2025-06-02T07:00:00.000Z,0.9784508333782836,fbacdc35-0011-40d2-abd0-7c44a39b6377,Braum's,commercial,,OpenStreetMap,2024-01-17T09:45:24.000Z,,denton-lewisville,False
c7c33206-d3f9-4128-986f-9556109bb829,Beth Marie's Old Fashioned Ice Cream,ice_cream_shop,"['american_restaurant', 'desserts']",TX,Carrollton,75006,1020 W Main St,32.9525759,-96.907868,meta,2025-06-02T07:00:00.000Z,0.9784508333782836,32f175fb-9f18-4ce9-ad02-9c2aacbe141e,,commercial,retail,OpenStreetMap,2024-10-16T20:02:50.000Z,,denton-lewisville,False
7068fe6b-1aea-456d-a589-1593e55ce376,Dallas Stars Community Ice Rink,gym,"['active_life', 'sports_and_recreation_venue']",,,75234,,32.9199356,-96.897316,meta,2025-06-02T07:00:00.000Z,0.9459263554653524,d1f13453-f4d3-4a66-b4f8-76cf9fc56b4d,Children's Health StarCenter,entertainment,sports_centre,OpenStreetMap,2020-08-30T22:46:17.000Z,,denton-lewisville,False
db9d9934-7e2b-4668-98a0-731bdc11c585,Twice the Ice,ice_supplier,,TX,Farmers Branch,75234,14500 Josey Ln,32.9443359375,-96.8897399902344,Microsoft,2013-01-29T07:46:03.483Z,0.77,,,,,,,,denton-lewisville,False
d9972b59-5cb1-4c79-bfc2-3020f1a36336,10°F Rolling Ice Cream,ice_cream_shop,"['desserts', 'restaurant']",TX,Lewisville,75067,Vista Ridge Mall,33.002333,-96.971759,meta,2025-06-02T07:00:00.000Z,0.5662921348314607,9f94b685-c474-4928-beeb-34e4d681f208,Music City Mall Lewisville,commercial,retail,OpenStreetMap,2023-01-10T19:54:27.000Z,,denton-lewisville,False
269ee58d-c0de-4c44-ac85-1b521cf16fe4,Jeremiah's Italian Ice,ice_cream_and_frozen_yoghurt,['restaurant'],TX,Lewisville,75067,"980 W Round Grove Rd, Building B, Ste 200",33.00518,-97.01318,Microsoft,2025-02-16T14:15:02.913Z,0.77,98030884-8e8f-4897-9b94-eb3751b9e510,,commercial,retail,OpenStreetMap,2025-04-06T19:37:07.000Z,,denton-lewisville,False
ec22552f-8d49-4371-990b-22ca5e0811b6,JK's Shaved Ice,ice_cream_shop,"['shaved_ice_shop', 'food_stand']",TX,Lewisville,75067,121 E Vista Ridge Blvd,33.0265045,-96.9932158,meta,2025-06-02T07:00:00.000Z,0.9784508333782836,,,,,,,,denton-lewisville,False
6a1c1ed9-fa20-4eb3-803d-34fdf4edbd9d,Braum's Ice Cream and Dairy Store,ice_cream_shop,"['american_restaurant', 'burger_restaurant']",TX,Lewisville,75067,812 S Stemmons Fwy,33.0378312,-97.0004703,meta,2025-06-02T07:00:00.000Z,0.9784508333782836,23858870-66f3-427d-95f8-7726c0b3c668,,commercial,retail,OpenStreetMap,2022-04-07T17:29:42.000Z,,denton-lewisville,False
62165d92-24a5-47d8-83e7-d18f9e954737,Kona Ice of Coppell,shaved_ice_shop,"['food_truck', 'ice_cream_shop']",,,0,,33.0426217,-96.9806088,meta,2025-06-02T07:00:00.000Z,0.8980891719745223,a9de4411-b30f-4705-879f-3feb3be19070,,,,OpenStreetMap,2019-01-01T21:54:38.000Z,,denton-lewisville,False
932b085a-9c33-4cd3-979b-e87ad50444aa,Baloch Ice Cream & Juice,ice_cream_shop,"['fast_food_restaurant', 'smoothie_juice_bar']",TX,Carrollton,75007,2625 Old Denton Rd,32.986605,-96.910414,meta,2025-06-02T07:00:00.000Z,0.242152466367713,2e41b09b-f076-4c86-8ed8-08637a1a4c78,,commercial,retail,OpenStreetMap,2024-03-23T05:46:50.000Z,,denton-lewisville,False
ea6fc08d-f3d8-460f-baba-ec55096513db,Snow City Shaved Ice Cafe | Carrollton TX,cafe,"['eat_and_drink', 'shaved_ice_shop']",TX,Carrollton,75006,2540 Old Denton Rd,32.9817455,-96.9078747,meta,2025-06-02T07:00:00.000Z,0.9784508333782836,20fd4eba-ba2a-4bd6-99d6-d4a59b3a956d,,commercial,retail,OpenStreetMap,2022-07-29T15:52:12.000Z,,denton-lewisville,False
a36ac09f-0015-4c59-833e-fb93d50134db,Braum's Ice Cream and Dairy Store,ice_cream_shop,"['burger_restaurant', 'fast_food_restaurant']",TX,Carrollton,75006,2134 N Josey Ln,32.971891,-96.8894021,meta,2025-06-02T07:00:00.000Z,0.9784508333782836,e377dcd1-5526-4912-8593-0dcf690a6f98,Braum's,commercial,retail,OpenStreetMap,2024-02-11T20:17:08.000Z,,denton-lewisville,False
6a716253-4c5d-402d-8d50-eb9a70c5e25a,7 Degrees Ice Cream Rolls,desserts,"['ice_cream_and_frozen_yoghurt', 'restaurant']",TX,Carrollton,75006,2150 N Josey Ln #124,32.974686,-96.888497,Microsoft,2019-07-26T17:08:56.700Z,0.77,91775959-9590-4a2c-94d8-f415ad067166,Albertsons,commercial,retail,OpenStreetMap,2024-02-10T12:24:26.000Z,,denton-lewisville,False
25422b58-51db-4fdf-b276-5f68a02ddab4,Alsies DFW Ice Cream Truck,ice_cream_shop,,TX,Carrollton,0,,32.9891776,-96.8933387,meta,2025-06-02T07:00:00.000Z,0.672566371681416,,,,,,,,denton-lewisville,False
29cf3d59-6782-4627-a0bc-4b118b139f73,Ice Wizard Shaved Ice,ice_cream_shop,"['desserts', 'food_stand']",TX,Carrollton,75007,3050 N Josey Ln,32.9992979,-96.8862388,meta,2025-06-02T07:00:00.000Z,0.7548172757475083,,,,,,,,denton-lewisville,False
6c65d05a-5897-4894-8a34-5a82b682768d,Cauldron Ice Cream,ice_cream_shop,['coffee_shop'],TX,Carrollton,75010,4070 State Highway 121,33.0197922,-96.9325292,meta,2025-06-02T07:00:00.000Z,0.7548172757475083,,,,,,,,denton-lewisville,False
a8377a17-a98c-4b06-bd9c-969b4902db63,Ice Wizards Tg,ice_cream_shop,"['restaurant', 'shaved_ice_shop']",TX,Carrollton,75007,1000 W Rosemeade Pkwy,33.0116117,-96.9122341,meta,2025-06-02T07:00:00.000Z,0.3961437335670464,cc5937df-5628-4ab5-8be3-9e0b5fd5e405,,commercial,retail,OpenStreetMap,2021-09-16T21:20:24.000Z,,denton-lewisville,False
32093084-468d-4fa5-a3fb-2302aa514cb5,Gold Pops Fried Ice Cream,ice_cream_shop,"['eat_and_drink', 'restaurant']",TX,Carrollton,75007,4009 Old Denton Rd,33.017883,-96.9153627,meta,2025-06-02T07:00:00.000Z,0.9688311688311688,a52ad432-9d11-438a-861c-ac0a9ac93caf,,commercial,retail,OpenStreetMap,2024-01-13T21:59:26.000Z,,denton-lewisville,False
76076006-8f64-4f2d-8fd1-b5f4274ff729,Sweet Ice,smoothie_juice_bar,"['ice_cream_shop', 'desserts']",TX,Carrollton,75007,1824 Arundel Dr,33.00559,-96.88856,meta,2025-06-02T07:00:00.000Z,0.5662921348314607,158e9090-b467-46a7-a2cb-3e7cd64b54c2,,residential,house,OpenStreetMap,2018-12-08T03:16:25.000Z,,denton-lewisville,False
8c76de1e-68a5-4e91-81ba-3b00f7b40be2,Southern Shaved Ice,ice_cream_shop,"['desserts', 'shaved_ice_shop']",TX,Carrollton,75007,1927 E Rosemeade Pkwy,33.0119634,-96.8859612,meta,2025-06-02T07:00:00.000Z,0.9459263554653524,44cbba3d-2910-4ac3-8561-90639413a2b7,Trinity Pharmacy,commercial,retail,OpenStreetMap,2022-11-27T01:25:47.000Z,,denton-lewisville,False
00ba6d20-57b8-4579-95f4-3b56cac15971,Addison Ice House,american_restaurant,"['pub', 'bar']",TX,Addison,75001,3875 Ponte Ave,32.9353515,-96.85094,meta,2025-06-02T07:00:00.000Z,0.9784508333782836,b6d031d5-fbc2-4113-ae08-319e11af03fd,,residential,apartments,OpenStreetMap,2024-08-27T00:39:49.000Z,,denton-lewisville,False
942eac39-8a1d-4319-8435-b1eb98b251f9,Howdy Homemade Ice Cream,ice_cream_shop,"['cafe', 'restaurant']",TX,Dallas,75244,12300 Inwood Rd,32.9153472,-96.8175204,meta,2025-06-02T07:00:00.000Z,0.9784508333782836,,,,,,,,denton-lewisville,False
3a1cf19b-d2c0-48df-ae85-9d88d52de624,Galleria Ice Skating Center,ice_skating_rink,"['shopping_center', 'arts_and_entertainment']",TX,Dallas,75240,13350 Dallas Pkwy,32.9300084,-96.8195683,meta,2025-06-02T07:00:00.000Z,0.9879256218304756,402046ea-add4-4cce-a4d9-004ec5a29912,Galleria Dallas,,,OpenStreetMap,2025-04-22T04:48:18.000Z,,denton-lewisville,False
df7650d3-b0e0-40eb-ad46-f0d7246dfffd,Jeremiah's Italian Ice,ice_cream_and_frozen_yoghurt,['restaurant'],TX,Addison,75001,"14380 Marsh Ln, Building B",32.9394,-96.8538,Microsoft,2025-02-16T14:15:02.913Z,0.77,1ab4fad5-213d-4914-8aa5-1af2a2eabb63,,,,OpenStreetMap,2022-12-20T22:55:29.000Z,,denton-lewisville,False
acfeed67-694f-4755-b55c-a5e95353a571,Jeni's Splendid Ice Creams,ice_cream_and_frozen_yoghurt,['restaurant'],TX,Addison,75254,5290 Belt Line Rd Ste 112 B,32.9539483,-96.817845,Microsoft,2025-05-10T22:20:26.870Z,0.77,,,,,,,,denton-lewisville,False
0544bc3c-a2cf-4146-b67c-d1f980e3ee8e,Jeni's Splendid Ice Creams,ice_cream_shop,['restaurant'],TX,Addison,75254,5290 Belt Line Rd,32.95359,-96.8167443,meta,2025-06-02T07:00:00.000Z,0.9784508333782836,653427a5-14c5-4561-9c17-a06dca2b5631,,commercial,retail,OpenStreetMap,2024-04-07T21:05:06.000Z,,denton-lewisville,False
b2aad975-de12-4950-b2f1-7c81f51f9835,Reddy Ice Holdings Incorporated Dallas,commercial_refrigeration,"['professional_services', 'business']",TX,Dallas,75240,5720 Lyndon B Johnson Fwy,32.9237159,-96.8089039,meta,2025-06-02T07:00:00.000Z,0.3376623376623376,e2552b6e-34b6-41b1-9e80-67fdc10b3ab1,,commercial,office,OpenStreetMap,2019-08-22T20:01:28.000Z,,denton-lewisville,True
5bf03a99-ca6d-4f6e-911e-ab9189574c6f,Yonutz Donuts and Ice Cream,desserts,"['ice_cream_shop', 'smoothie_juice_bar']",TX,Dallas,75254,14902 Preston Rd,32.9512288,-96.8025766,meta,2025-06-02T07:00:00.000Z,0.9879256218304756,4d6e00ee-3812-4637-a31e-425c3fd58d53,,commercial,retail,OpenStreetMap,2024-11-11T03:10:21.000Z,,denton-lewisville,False
029b9b0f-46a4-4986-8210-ed544c867443,ICE Auto,automotive_repair,['professional_services'],TX,Addison,75001,16300 Midway Rd,32.9729309,-96.8422491,meta,2025-06-02T07:00:00.000Z,0.9459263554653524,ca973c83-1700-438b-9666-67fb706c1c87,,,,OpenStreetMap,2016-06-14T23:48:49.000Z,,denton-lewisville,False
87550c21-ffc8-427b-a0c0-03d80b081fa8,Braum's Ice Cream and Dairy Store,ice_cream_shop,"['restaurant', 'burger_restaurant']",TX,Carrollton,75287,3400 Trinity Mills Rd,32.9869684,-96.8400729,meta,2025-06-02T07:00:00.000Z,0.9784508333782836,2dd3d125-8965-486e-8ce8-38528c92d2ad,Braum's,commercial,commercial,OpenStreetMap,2024-01-17T09:44:11.000Z,,denton-lewisville,False
b7e2dbe7-44b4-4cb1-82b6-79d67a39c1a8,Ice Skating Institute,active_life,['sports_club_and_league'],TX,Dallas,75248,17120 Dallas Pkwy,32.983532,-96.828008,meta,2025-06-02T07:00:00.000Z,0.3376623376623376,d9ec4e11-db94-4ff2-ae8d-cbeffc5c3638,,commercial,commercial,OpenStreetMap,2017-01-30T19:11:05.000Z,,denton-lewisville,False
8e44c71f-7a1f-455d-8ee1-6d56754c4c40,Braum's Ice Cream and Dairy Store,ice_cream_shop,"['fast_food_restaurant', 'restaurant']",TX,Dallas,75252,17879 Preston Rd,32.9950854,-96.7996575,meta,2025-06-02T07:00:00.000Z,0.9784508333782836,,,,,,,,denton-lewisville,False
275c4d4d-01d8-4b44-9cb2-a2dc94e216d3,TWICE the ICE - Midway,bottled_water_company,"['retail', 'eat_and_drink']",TX,Dallas,75287,19002 Midway Rd,33.0107686,-96.842999,meta,2025-06-02T07:00:00.000Z,0.9300613496932516,d62b4d22-df6d-41b8-bad2-ea6346e60cf9,,commercial,commercial,OpenStreetMap,2017-01-27T22:22:46.000Z,,denton-lewisville,False
cd477f2a-da61-4ae7-9e26-ed8015ce3d99,10⁰ F Rolling Ice Cream,ice_cream_shop,"['fast_food_restaurant', 'restaurant']",TX,Plano,75093,6121 W Park Blvd,33.03145,-96.832743,meta,2025-06-02T07:00:00.000Z,0.3376623376623376,0dd2b473-4c55-4379-b6ae-8d0ac072c53b,Willow Bend Shopping Center,commercial,retail,OpenStreetMap,2024-12-14T19:32:53.000Z,,denton-lewisville,False
8cb979ff-7aaf-4de5-a89d-21184d19b1dc,Ice Stars Company,ice_skating_rink,"['arts_and_entertainment', 'active_life']",TX,Plano,75093,1900 Preston Rd,33.02592,-96.79183,meta,2025-06-02T07:00:00.000Z,0.3961437335670464,,,,,,,,denton-lewisville,True
6642f003-eca6-46f6-afd8-87e5ad3d1c20,Katy Trail Ice House Outpost,american_restaurant,"['beer_garden', 'bar']",TX,Plano,75093,4700 W Park Blvd,33.0264904,-96.7890047,meta,2025-06-02T07:00:00.000Z,0.9784508333782836,eee4722f-a6c6-42bc-8ed0-0216d971d847,Katy Trail Ice House Outpost,commercial,commercial,OpenStreetMap,2020-04-06T22:38:01.000Z,,denton-lewisville,False
dced997a-e65d-47e7-96d6-e36d3c68a67f,Marvel Ice Snow Cones,restaurant,"['cafe', 'desserts']",TX,Lake Dallas,75065,102 E Hundley Dr,33.1224587,-97.0297307,meta,2025-06-02T07:00:00.000Z,0.9415384615384615,,,,,,,,denton-lewisville,False
ddc6eb60-3fb0-429e-aef9-e9783066d363,Yumi Ice Cream,ice_cream_shop,"['food_beverage_service_distribution', 'desserts']",TX,The Colony,75056,3553 Plano Pkwy,33.0684139,-96.8689848,meta,2025-06-02T07:00:00.000Z,0.9415384615384615,e42d94f4-476a-458a-a197-252b8fc301a6,,,,OpenStreetMap,2016-06-09T21:30:22.000Z,,denton-lewisville,False
aa173aea-7069-406b-b64e-20082107a855,Kilwins Ice Cream - Chocolate - Fudge,ice_cream_shop,"['desserts', 'chocolatier']",TX,The Colony,75056,5752 Grandscape Blvd,33.0739584,-96.8605495,meta,2025-06-02T07:00:00.000Z,0.9784508333782836,608a2a7e-85cb-4a14-9553-32bbc9ccbc85,,commercial,retail,OpenStreetMap,2025-01-22T11:28:43.000Z,,denton-lewisville,False
daa11b34-db88-4120-bf63-3b8eaf527b86,Kilwins Ice Cream - Chocolate - Fudge,ice_cream_and_frozen_yoghurt,['restaurant'],TX,The Colony,75056,5752 Grandscape Blvd Ste 300,33.0745937,-96.8613761,Microsoft,2025-04-30T23:58:27.247Z,0.77,,,,,,,,denton-lewisville,False
6efc491d-bcae-4eea-bd48-c94563538670,Casa Del Bro Mexican Food & Ice Cream,texmex_restaurant,"['mexican_restaurant', 'restaurant']",TX,Frisco,75036,5444 FM 423,33.124194,-96.8903003,meta,2025-06-02T07:00:00.000Z,0.9784508333782836,fbc9c3a3-545d-44a6-9e30-2b3459c74d43,,commercial,retail,OpenStreetMap,2022-11-02T17:16:38.000Z,,denton-lewisville,False
b122fca9-b5e2-4df5-8d6c-737146c0c44e,Dat's a N'ice Italian Ice,ice_cream_shop,['smoothie_juice_bar'],TX,Little Elm,75068,3447 W FM 720,33.201572,-96.977961,meta,2025-06-02T07:00:00.000Z,0.3376623376623376,ba4f1ead-6fcc-4928-aa9c-91b4587b781b,,,,OpenStreetMap,2025-05-13T10:22:07.000Z,,denton-lewisville,False
877e6b44-f696-4c96-bba3-00495065db34,"Stella's Ice Cream - Little Elm, Texas",ice_cream_shop,,TX,Little Elm,75068,303 E Eldorado Pkwy,33.159781,-96.938636,meta,2025-06-02T07:00:00.000Z,0.5662921348314607,e2552be4-1646-4d56-94ce-50aa7199f779,,,,OpenStreetMap,2019-07-25T18:03:53.000Z,,denton-lewisville,False
3b431ad0-86fb-4b9d-82ad-47e65b69e558,Jeremiah's Italian Ice,ice_cream_shop,"['restaurant', 'smoothie_juice_bar']",TX,Frisco,75036,8555 FM 423,33.1500387,-96.8912643,meta,2025-06-02T07:00:00.000Z,0.9879256218304756,,,,,,,,denton-lewisville,False
1d02d111-0b48-479e-ae6a-78d95939bb54,Bruster's Real Ice Cream,ice_cream_shop,"['restaurant', 'frozen_yoghurt_shop']",TX,Frisco,75036,1648 FM 423,33.1560463,-96.891964,meta,2025-06-02T07:00:00.000Z,0.9879256218304756,4ddcc0df-0b79-484e-bf7a-9fdc715cc807,,,,OpenStreetMap,2022-02-16T14:19:32.000Z,,denton-lewisville,False
5ef61e11-046e-4e34-9668-1b0a48730d47,Braum's Ice Cream and Dairy Store,ice_cream_shop,"['american_restaurant', 'burger_restaurant']",TX,Frisco,75033,2680 Main St,33.1536765,-96.8670088,meta,2025-06-02T07:00:00.000Z,0.9784508333782836,,,,,,,,denton-lewisville,False
6d445d6b-2e4f-44e8-b371-da1e57b3b7b4,Handel's Ice Cream,ice_cream_shop,"['eat_and_drink', 'fast_food_restaurant']",TX,Little Elm,75068,2721 Little Elm Pkwy,33.1702445,-96.8892497,meta,2025-06-02T07:00:00.000Z,0.9784508333782836,,,,,,,,denton-lewisville,False
d6ea0e4d-6142-4727-9a34-fb454311f8b6,Bourbon Vanilla Ice Cream Company,ice_cream_shop,"['diner', 'smoothie_juice_bar']",TX,Plano,75024,7800 Windrose Ave,33.0834404,-96.8257986,meta,2025-06-02T07:00:00.000Z,0.9784508333782836,154e0cc7-1b13-40e8-b96c-1fb21c66de7d,,commercial,retail,OpenStreetMap,2023-07-12T08:57:54.000Z,,denton-lewisville,True
0925e081-a7e8-4718-9a96-e8444af8ae66,Hi Sweetie Ice Cream Rolls & Desserts,ice_cream_shop,"['smoothie_juice_bar', 'desserts']",TX,Plano,75024,8604 Preston Rd,33.095013,-96.8034405,meta,2025-06-02T07:00:00.000Z,0.9879256218304756,,,,,,,,denton-lewisville,False
ec916dc3-fa77-4a9d-b279-4765d2269530,Fire & Ice,sports_bar,"['bar', 'asian_fusion_restaurant', 'pan_asian_restaurant', 'restaurant']",TX,Frisco,75034,2550 Preston Rd,33.1000489,-96.8045819,Microsoft,2025-05-16T04:08:06.650Z,0.77,84324723-317e-49ec-a271-c5a8b0809ace,Fire & Ice,commercial,,OpenStreetMap,2020-08-27T07:17:04.000Z,,denton-lewisville,False
03b89339-f6bb-44c3-b7f3-df632bf1454f,Neighborhood Ice Cream Truck - Dallas Central District Cart,ice_cream_and_frozen_yoghurt,['restaurant'],TX,Frisco,75034,4760 Preston Rd Ste 244-234,33.1179977,-96.8042673,Microsoft,2017-05-23T17:30:03.760Z,0.77,,,,,,,,denton-lewisville,False
28b107d1-1967-4588-a3e4-a2ecfec63a78,Funky Munky Shaved Ice Frisco,cafe,"['shaved_ice_shop', 'desserts']",TX,Frisco,75035,10601 Ohio Dr,33.130285,-96.7883433,meta,2025-06-02T07:00:00.000Z,0.9879256218304756,56786ce5-7d39-4bde-8122-d1168633c957,,commercial,commercial,OpenStreetMap,2018-01-08T19:25:13.000Z,,denton-lewisville,False
d4d4c02e-6c75-4dee-8ac5-9704d3c09d9e,Skate the Square Outdoor Ice Rink,ice_skating_rink,"['attractions_and_activities', 'arts_and_entertainment']",TX,Frisco,75034,8874 Coleman Blvd,33.15248,-96.8352306,meta,2025-06-02T07:00:00.000Z,0.5662921348314607,,,,,,,,denton-lewisville,False
808c018c-aaf3-449d-8ecc-ba2b36cb0056,TC Shaved Ice Frisco & Plano,cafe,"['ice_cream_shop', 'desserts']",TX,Frisco,75033,8750 Main St,33.1517735,-96.8067498,meta,2025-06-02T07:00:00.000Z,0.9784508333782836,d5e6019d-7d84-4a04-ac77-df0b5171d5e4,,,,OpenStreetMap,2019-02-09T22:20:47.000Z,,denton-lewisville,False
6d9ba796-ef15-41c4-8704-b948537624d1,TC Shaved Ice,desserts,"['shaved_ice_shop', 'restaurant']",TX,Frisco,75033,8750 W Main St,33.151318,-96.806442,Microsoft,2013-12-18T16:03:21.827Z,0.77,,,,,,,,denton-lewisville,False
d4068f06-05a3-4149-be5c-be8d46377886,Joanne's Ice Cream Cafe,ice_cream_shop,"['cafe', 'coffee_shop']",CA,Half Moon Bay,94019,9 Johnson Pier,37.5035038,-122.482154,meta,2025-06-02T07:00:00.000Z,0.9459263554653524,6936e6f2-f0c7-4422-8d9b-3f30e1cfff24,,,,OpenStreetMap,2016-01-14T17:11:53.000Z,,san-francisco,False
3c538637-4295-4f77-b5b6-00e8d287c74d,It's-It Ice Cream,ice_cream_shop,"['desserts', 'food_beverage_service_distribution']",CA,Burlingame,94010,865 Burlway Rd,37.5944588,-122.3671296,meta,2025-06-02T07:00:00.000Z,0.9784508333782836,8d395387-ccbb-4a2f-baf4-22f8d1ba47f8,It's It Factory Shop,commercial,,OpenStreetMap,2025-02-03T20:11:58.000Z,,san-francisco,False
0508d227-e5ff-47de-ac8b-8a80adb6d2af,Preston's Candy & Ice Cream,candy_store,"['ice_cream_shop', 'desserts']",CA,Burlingame,94010,1170 Broadway,37.5866211,-122.364408,meta,2025-06-02T07:00:00.000Z,0.9784508333782836,4c6efdee-05d4-475f-9894-42be8fc78b52,,,,OpenStreetMap,2015-12-16T06:48:02.000Z,,san-francisco,False
f63f2636-3997-495a-9fd3-c1c8983c212f,Thrifty Ice Cream Counter,ice_cream_shop,"['bakery', 'desserts']",CA,Pacifica,94044,200 Fairmont Shopping Ctr,37.661449,-122.478021,meta,2025-06-02T07:00:00.000Z,0.5662921348314607,c89e59a4-ad11-434c-9ba3-97af3afdd4da,Rite Aid,medical,,OpenStreetMap,2024-06-19T11:21:23.000Z,,san-francisco,False
42df6d53-b1ea-4bf6-982a-85d8bb0b8964,Jeli Jelly ice cream,ice_cream_shop,['smoothie_juice_bar'],CA,San Bruno,94066,411 E San Bruno Ave,37.63108,-122.40909,meta,2025-06-02T07:00:00.000Z,0.296943231441048,dc32741c-57c6-450d-ac47-63e19c7de71f,Regency Inn,commercial,hotel,OpenStreetMap,2022-11-13T05:10:37.000Z,,san-francisco,False
d817430d-9ec2-4570-936d-d624c97ddeba,Lauren's Ice Cream Shop,fast_food_restaurant,"['restaurant', 'ice_cream_shop']",CA,San Francisco,94117,123 Ice Cream St,37.723972,-122.466703,meta,2025-06-02T07:00:00.000Z,0.4929396662387676,4e490105-0b7a-4a03-9957-fc8a7e3dbd2b,,,,OpenStreetMap,2020-07-09T04:45:06.000Z,,san-francisco,False
253383ca-11f7-4236-942f-74e281d60a99,Balboa Ice Cream,ice_cream_shop,"['diner', 'smoothie_juice_bar']",CA,San Francisco,94112,1844 San Jose Ave,37.7281498,-122.4407606,meta,2025-06-02T07:00:00.000Z,0.9784508333782836,9f68d645-52f1-429a-8b45-6a7de87da5bb,,,,OpenStreetMap,2020-07-09T04:24:35.000Z,,san-francisco,False
253383ca-11f7-4236-942f-74e281d60a99,Balboa Ice Cream,ice_cream_shop,"['diner', 'smoothie_juice_bar']",CA,San Francisco,94112,1844 San Jose Ave,37.7281498,-122.4407606,meta,2025-06-02T07:00:00.000Z,0.9784508333782836,751dc898-7d22-490c-b6ec-7bf21e24530c,,,,OpenStreetMap,2020-07-09T04:24:35.000Z,,san-francisco,False
253383ca-11f7-4236-942f-74e281d60a99,Balboa Ice Cream,ice_cream_shop,"['diner', 'smoothie_juice_bar']",CA,San Francisco,94112,1844 San Jose Ave,37.7281498,-122.4407606,meta,2025-06-02T07:00:00.000Z,0.9784508333782836,f3e1d625-3d2a-473c-bfff-497db82d8917,,,,OpenStreetMap,2020-07-09T04:24:35.000Z,,san-francisco,False
e79cc774-a084-4a43-ac04-2fe7d0c0ba37,Marco Polo Italian Ice Cream,ice_cream_shop,"['gelato', 'desserts']",CA,San Francisco,94122,3886 Noriega St,37.7531797,-122.5051474,meta,2025-06-02T07:00:00.000Z,0.9784508333782836,5332cfb1-d892-41a9-8712-5a272143959d,,residential,apartments,OpenStreetMap,2024-01-25T19:55:08.000Z,,san-francisco,False
e3bba6a5-8222-4197-8262-2e1feabb7ebc,Polly Ann Ice Cream,ice_cream_shop,"['restaurant', 'desserts']",CA,San Francisco,94122,3138 Noriega St,37.7534483,-122.4978201,meta,2025-06-02T07:00:00.000Z,0.9879256218304756,dabea03d-3dc0-4ed0-a55d-0b58a9ee2646,,,,OpenStreetMap,2017-04-05T05:57:54.000Z,,san-francisco,False
b3293242-d896-4d52-9bb0-19e0614c006f,San Francisco Ice Arena,active_life,"['beach', 'stadium_arena']",CA,San Francisco,94122,1557 48th Ave,37.757381,-122.508186,meta,2025-06-02T07:00:00.000Z,0.4929396662387676,bf355ace-738f-4c5b-a10a-98ccf63b8c05,,,,OpenStreetMap,2020-07-09T04:13:52.000Z,,san-francisco,False
b3293242-d896-4d52-9bb0-19e0614c006f,San Francisco Ice Arena,active_life,"['beach', 'stadium_arena']",CA,San Francisco,94122,1557 48th Ave,37.757381,-122.508186,meta,2025-06-02T07:00:00.000Z,0.4929396662387676,fbb7dadc-8e20-4ae3-b35c-00b7c1232a8b,,,,OpenStreetMap,2020-07-09T04:13:52.000Z,,san-francisco,False
b3293242-d896-4d52-9bb0-19e0614c006f,San Francisco Ice Arena,active_life,"['beach', 'stadium_arena']",CA,San Francisco,94122,1557 48th Ave,37.757381,-122.508186,meta,2025-06-02T07:00:00.000Z,0.4929396662387676,ab647863-ecc0-478c-9a26-094a266b5f4c,,,,OpenStreetMap,2020-07-09T04:13:52.000Z,,san-francisco,False
5c29385e-be2a-4e5a-9969-31b440ca6a36,Joe's Ice Cream,ice_cream_shop,"['burger_restaurant', 'american_restaurant']",CA,San Francisco,94121,5420 Geary Blvd,37.7805502,-122.4777458,meta,2025-06-02T07:00:00.000Z,0.9784508333782836,933551e8-bb9e-486d-b8c6-1385e7efef5a,,,,OpenStreetMap,2023-08-25T21:32:19.000Z,,san-francisco,False
75ebe47e-1704-4e8f-8e61-499b08edbf80,The Ice Cream Bar,ice_cream_shop,"['diner', 'american_restaurant']",CA,San Francisco,94117,815 Cole St,37.7664577,-122.4502572,meta,2025-06-02T07:00:00.000Z,0.9784508333782836,fe893df1-4383-43fc-ad55-c30f3ff527c7,,,,OpenStreetMap,2020-07-09T04:05:41.000Z,,san-francisco,False
75ebe47e-1704-4e8f-8e61-499b08edbf80,The Ice Cream Bar,ice_cream_shop,"['diner', 'american_restaurant']",CA,San Francisco,94117,815 Cole St,37.7664577,-122.4502572,meta,2025-06-02T07:00:00.000Z,0.9784508333782836,f69199a5-6e16-4bfd-a42d-2e53c78bcc52,,,,OpenStreetMap,2017-04-05T05:52:58.000Z,,san-francisco,False
75ebe47e-1704-4e8f-8e61-499b08edbf80,The Ice Cream Bar,ice_cream_shop,"['diner', 'american_restaurant']",CA,San Francisco,94117,815 Cole St,37.7664577,-122.4502572,meta,2025-06-02T07:00:00.000Z,0.9784508333782836,406fa20f-faff-45f8-a724-24dfe7f724a0,,,,OpenStreetMap,2017-04-05T05:53:30.000Z,,san-francisco,False
56eb5f65-29b9-46ab-ae3f-6472cb382ade,Double Rainbow Ice Cream,ice_cream_shop,"['cafe', 'smoothie_juice_bar']",CA,San Francisco,94114,415 Castro St,37.7622505,-122.4350478,meta,2025-06-02T07:00:00.000Z,0.9784508333782836,b1bdbb72-4bb8-48ba-8885-070b8d08d17e,,,,OpenStreetMap,2017-03-15T05:04:53.000Z,,san-francisco,False
56eb5f65-29b9-46ab-ae3f-6472cb382ade,Double Rainbow Ice Cream,ice_cream_shop,"['cafe', 'smoothie_juice_bar']",CA,San Francisco,94114,415 Castro St,37.7622505,-122.4350478,meta,2025-06-02T07:00:00.000Z,0.9784508333782836,828fc6be-e175-47e8-bd0b-5fe75847eb1b,,,,OpenStreetMap,2017-03-15T05:04:54.000Z,,san-francisco,False
3963628d-4dde-4d4b-a98e-39ebd66e151c,Miyako Old Fashion Ice Cream,ice_cream_shop,"['desserts', 'candy_store']",CA,San Francisco,94115,1470 Fillmore St,37.7830589,-122.432608,meta,2025-06-02T07:00:00.000Z,0.9784508333782836,65fc4d2b-94f5-4a49-b9d5-6b4572c56e01,,,,OpenStreetMap,2017-12-07T22:05:11.000Z,,san-francisco,False
18ac825d-ff98-4375-bc76-b6534c6ecf8c,Mitchell's Ice Cream,ice_cream_shop,"['restaurant', 'bakery']",CA,San Francisco,94110,688 San Jose Ave,37.7442123,-122.4227993,meta,2025-06-02T07:00:00.000Z,0.9784508333782836,9f5b9df2-8fed-414b-960f-0cacd8535234,,,,OpenStreetMap,2017-07-04T04:24:34.000Z,,san-francisco,False
600bc435-7866-45c7-85c8-6b007b9be470,San Francisco Ice Company,online_shop,"['ice_supplier', 'retail']",CA,San Francisco,94124,45 Williams Ave #A,37.7290992736816,-122.393981933594,Microsoft,2013-10-09T15:41:16.403Z,0.77,67cb0019-db1e-48da-b83b-78965e3716cb,,,,OpenStreetMap,2018-01-06T18:21:41.000Z,,san-francisco,True
f916832a-a84f-4bb9-9ad7-bb7adc1af75e,Smitten Ice Cream,ice_cream_shop,"['desserts', 'donuts']",CA,San Francisco,94110,904 Valencia St,37.7583071,-122.4213867,meta,2025-06-02T07:00:00.000Z,0.9784508333782836,54e4afe4-41c9-45a7-bc56-cb7c35655f46,,residential,apartments,OpenStreetMap,2020-05-09T20:47:18.000Z,,san-francisco,False
5d3e101d-c22e-4d2f-86b7-034b2011d8f0,Loard's Ice Cream San Francisco,ice_cream_shop,,CA,San Francisco,94107,1601 20th St,37.75976,-122.39741,meta,2025-06-02T07:00:00.000Z,0.3376623376623376,7a2f93b3-ac4c-4086-b41c-efbb7c4e3510,,,,OpenStreetMap,2020-07-09T04:30:41.000Z,,san-francisco,False
5d3e101d-c22e-4d2f-86b7-034b2011d8f0,Loard's Ice Cream San Francisco,ice_cream_shop,,CA,San Francisco,94107,1601 20th St,37.75976,-122.39741,meta,2025-06-02T07:00:00.000Z,0.3376623376623376,04cb733d-75c8-468e-ba46-ba591cedcef8,,,,OpenStreetMap,2020-07-09T04:30:41.000Z,,san-francisco,False
58ed3326-42df-4579-8585-3847b0e84238,Milkbomb Ice Cream,ice_cream_shop,"['desserts', 'eat_and_drink']",CA,San Francisco,94103,1717 17th St,37.7647775,-122.4012811,meta,2025-06-02T07:00:00.000Z,0.9784508333782836,7f106563-3fc2-4b4a-a0c5-999a7c5f8e86,,residential,residential,OpenStreetMap,2023-09-18T03:50:12.000Z,,san-francisco,False
49d2fb87-8f4c-4e65-a62b-c6a9d12ca517,Ice Diamond,jewelry_store,"['shopping', 'commercial_refrigeration']",CA,San Francisco,94103,2 Henry Adams St,37.7687711,-122.4045775,meta,2025-06-02T07:00:00.000Z,0.9204819277108434,7d7d5587-e4d7-486a-bb11-08eba13743d2,,,,OpenStreetMap,2021-11-20T00:07:58.000Z,,san-francisco,False
c9a6e37f-a6f1-48a4-8633-b4de48bb87d2,Modena Pizza & Ice Cream,pizza_restaurant,"['restaurant', 'diner']",CA,San Francisco,94103,32 6th St,37.7816642,-122.4096937,meta,2025-06-02T07:00:00.000Z,0.9459263554653524,,,,,,,,san-francisco,False
597f4d81-cd42-42d8-a315-fc2c12ed9a83,Ice N Tea,tea_room,"['cafe', 'smoothie_juice_bar']",CA,San Francisco,94102,986 Market St,37.7826403,-122.4101944,meta,2025-06-02T07:00:00.000Z,0.9459263554653524,c44457f8-9ba8-4f27-ae20-bdce53f4bd1c,Warfield Theatre,entertainment,,OpenStreetMap,2024-03-06T02:32:46.000Z,,san-francisco,False
5e8dd96a-64e9-47a9-80a1-861f419234ae,Humphry Slocombe Ice Cream,ice_cream_shop,"['restaurant', 'desserts']",CA,San Francisco,94102,169 Eddy St,37.784055,-122.410356,meta,2025-06-02T07:00:00.000Z,0.5662921348314607,3dc259b1-b176-4d69-a69c-bb9ceda832f1,,,,OpenStreetMap,2020-07-09T03:50:16.000Z,,san-francisco,False
404db71a-2fde-4907-8291-8547fe04cda0,ICU Market Deli and Ice Cream,ice_cream_shop,"['delicatessen', 'smoothie_juice_bar']",CA,San Francisco,94103,514 Minna St,37.780491,-122.40837,meta,2025-06-02T07:00:00.000Z,0.9784508333782836,807f5979-e0ff-42ba-9295-3b9082a394a1,,,,OpenStreetMap,2020-07-09T04:28:12.000Z,,san-francisco,False
806f0fa7-cd5c-42f1-bbe3-423350971b8a,Modena Pizza & Ice Cream 24 Hours,ice_cream_and_frozen_yoghurt,"['pizza_restaurant', 'food', 'restaurant']",CA,San Francisco,94103,32 6th St,37.7816739,-122.409597,Microsoft,2025-01-14T18:22:38.383Z,0.77,,,,,,,,san-francisco,False
6149f55c-29cd-47a8-a1a8-583d11440856,Ice Cream Shop,ice_cream_shop,"['eat_and_drink', 'restaurant']",CA,San Francisco,94107,185 Berry St,37.7758109,-122.39279,meta,2025-06-02T07:00:00.000Z,0.3376623376623376,1a9cf93c-79b8-4070-bd3c-dda9ffd61e91,China Basin - Berry Street Building,commercial,office,OpenStreetMap,2024-09-03T03:30:54.000Z,,san-francisco,False
7a560b13-c260-4d43-a47a-2e83e4e8d836,SanFran Sundays and Ice Cream,fast_food_restaurant,"['ice_cream_shop', 'desserts']",CA,San Francisco,94107,541 Brannan St,37.777501,-122.397192,meta,2025-06-02T07:00:00.000Z,0.3961437335670464,1160214a-adfa-4830-8c4b-785cb186e6d8,,,,OpenStreetMap,2022-10-23T16:57:46.000Z,,san-francisco,False
7a560b13-c260-4d43-a47a-2e83e4e8d836,SanFran Sundays and Ice Cream,fast_food_restaurant,"['ice_cream_shop', 'desserts']",CA,San Francisco,94107,541 Brannan St,37.777501,-122.397192,meta,2025-06-02T07:00:00.000Z,0.3961437335670464,b9101f46-b5ff-4d4e-b751-8c949e902a17,,,,OpenStreetMap,2022-12-05T01:54:32.000Z,,san-francisco,False
5ccc3551-42fd-4e7b-bb6f-78cbf465cca5,Yerba Buena Ice Skating and Bowling Center,ice_skating_rink,"['bowling_alley', 'active_life']",CA,San Francisco,94107,750 Folsom St,37.7828485,-122.4006602,meta,2025-06-02T07:00:00.000Z,0.9784508333782836,a1f0363b-d71f-4c50-a714-632c120b0b3d,Yerba Buena Ice Skating Center,,,OpenStreetMap,2022-12-11T05:06:25.000Z,,san-francisco,False
177e54f3-6e45-4fd1-83d0-30094d2436f6,Union Square Ice Rink,arts_and_entertainment,"['ice_skating_rink', 'active_life']",CA,San Francisco,94108,333 Post St,37.787915,-122.406954,meta,2025-06-02T07:00:00.000Z,0.7548172757475083,21dc254a-3888-4d72-8efc-d23031b8f31a,,outbuilding,roof,OpenStreetMap,2022-11-15T06:51:15.000Z,,san-francisco,False
177e54f3-6e45-4fd1-83d0-30094d2436f6,Union Square Ice Rink,arts_and_entertainment,"['ice_skating_rink', 'active_life']",CA,San Francisco,94108,333 Post St,37.787915,-122.406954,meta,2025-06-02T07:00:00.000Z,0.7548172757475083,5c039235-3235-4491-9aad-6747b383056e,,entertainment,pavilion,OpenStreetMap,2018-08-13T04:34:41.000Z,,san-francisco,False
eb03dee3-3a7b-4a88-adef-02c8f57253ac,Ghirardelli Ice Cream and Chocolate Shop,ice_cream_shop,"['desserts', 'chocolatier']",CA,San Francisco,94105,2 New Montgomery St,37.7885279,-122.4021064,meta,2025-06-02T07:00:00.000Z,0.9784508333782836,e1e9bac0-57a6-4cdb-81e8-325419fa592c,Palace Hotel,,,OpenStreetMap,2024-07-07T18:57:07.000Z,,san-francisco,False
eb03dee3-3a7b-4a88-adef-02c8f57253ac,Ghirardelli Ice Cream and Chocolate Shop,ice_cream_shop,"['desserts', 'chocolatier']",CA,San Francisco,94105,2 New Montgomery St,37.7885279,-122.4021064,meta,2025-06-02T07:00:00.000Z,0.9784508333782836,9520af8a-a99a-4068-b7d5-7ef9acbcb382,Montgomery Street Station,transportation,train_station,OpenStreetMap,2023-05-20T19:06:46.000Z,,san-francisco,False
1459269b-2175-45eb-b625-43573f15cb7d,New York Stock Exchange,financial_service,"['jewelry_store', 'shopping']",CA,San Francisco,94104,220 Montgomery St,37.7915114,-122.401902,meta,2025-06-02T07:00:00.000Z,0.3376623376623376,4f3c97d9-edf4-42c0-8c91-3a8f14030dc4,Mills Building,,,OpenStreetMap,2024-08-21T00:34:31.000Z,,san-francisco,False
d3758212-20ff-4b7f-b57e-9e931b3ab82a,The Original Ghirardelli Ice Cream and Chocolate Shop at Ghirardelli Square,chocolatier,['retail'],CA,San Francisco,94109,900 N Point St,37.8056437,-122.42251242,Microsoft,2023-11-18T07:06:04.260Z,0.77,a5cff186-454a-4fa1-8066-7124322ba16c,Mustard Building,,,OpenStreetMap,2021-05-05T21:58:24.000Z,,san-francisco,False
c5444d37-4942-45a6-8c79-228460f21c54,The Original Ghirardelli Chocolate & Ice Cream Shop,chocolatier,['retail'],CA,San Francisco,94109,900 N Point St Ste 52,37.8056625,-122.4222875,Microsoft,2025-01-21T20:22:56.440Z,0.77,6ffc0614-2a08-4c8e-9394-99f6a2c407da,Clock Tower Building,,,OpenStreetMap,2021-05-05T21:58:24.000Z,,san-francisco,False
303a8b4e-002f-4a7a-988b-9a711ff0bb2c,Ghiradelli's Ice Cream & Chocolate Shop,candy_store,"['ice_cream_shop', 'desserts']",CA,San Francisco,94109,900 N Point St,37.805903,-122.421906,meta,2025-06-02T07:00:00.000Z,0.5662921348314607,aed75343-2c46-4f05-8206-807a1e2cbefc,,,,OpenStreetMap,2023-10-13T00:33:44.000Z,,san-francisco,False
699a09cf-9585-4f1e-8051-a5d7c57d30d2,Norman's Ice Cream & Freezes,ice_cream_shop,"['desserts', 'frozen_yoghurt_shop']",CA,San Francisco,94133,2801 Leavenworth St,37.8074622,-122.4196584,meta,2025-06-02T07:00:00.000Z,0.9784508333782836,3f00c9fe-9e06-4ddb-b1a6-2d388404962e,,,,OpenStreetMap,2023-03-23T21:31:34.000Z,,san-francisco,False
674fde44-b2b4-4a62-81d3-0aae68c1e75f,Lappert's Ice Cream Shop,ice_cream_shop,"['fast_food_restaurant', 'american_restaurant']",,,94133,Pier 39,37.8091542,-122.4099079,meta,2025-06-02T07:00:00.000Z,0.9784508333782836,13e9a351-489a-4964-aa5e-dab6fb4615f9,Building Q,commercial,retail,OpenStreetMap,2023-12-18T04:21:24.000Z,,san-francisco,False
4cd57228-2db3-4fb2-853a-d6b40c79a3fa,Fire + Ice San Francisco,restaurant,,CA,San Francisco,94133,209 Beach St,37.8101024,-122.4103246,meta,2025-06-02T07:00:00.000Z,0.5662921348314607,68198bd7-4adf-4dba-b61b-d2beba22bb1e,Building O,,,OpenStreetMap,2023-12-18T04:21:24.000Z,,san-francisco,False
ca3f2ea6-c738-4e9d-ad99-6faaad5c0fc8,Magical Ice Cream,ice_cream_shop,"['business', 'eat_and_drink']",CA,San Francisco,94108,900 Grant Ave,37.7952513,-122.4064233,meta,2025-06-02T07:00:00.000Z,0.9784508333782836,c2788ebf-9201-494e-8493-ff251a67c0ff,,,,OpenStreetMap,2023-12-08T22:57:58.000Z,,san-francisco,False
6cb3ca50-8629-4593-9e9a-94ae37cbd1ec,Gelato Classico Italian Ice Cream,ice_cream_shop,"['restaurant', 'gelato']",CA,San Francisco,94133,576 Union St,37.8005495,-122.4088393,meta,2025-06-02T07:00:00.000Z,0.9784508333782836,fdae263e-e751-4505-a8f4-149791b414f2,,,,OpenStreetMap,2018-01-22T17:40:57.000Z,,san-francisco,False
7923b49e-5d0f-4f5b-915f-7cf7fcf04f58,Kristi Yamaguchi Holiday Ice Rink,active_life,"['ice_skating_rink', 'ice_cream_shop']",CA,San Francisco,94111,50 Drumm St,37.7936,-122.39637,meta,2025-06-02T07:00:00.000Z,0.296943231441048,,,,,,,,san-francisco,False
6036e2d7-4741-4582-b892-22c1a0da1ae6,Rita's Italian Ice and Frozen Custard,ice_cream_shop,"['restaurant', 'shaved_ice_shop']",CA,San Carlos,94070,740 El Camino Real,37.5053098,-122.2581674,meta,2025-06-02T07:00:00.000Z,0.9784508333782836,a11a6a1d-29fc-488e-8af5-b0fc257a514f,,commercial,retail,OpenStreetMap,2021-03-12T01:11:12.000Z,,san-francisco,False
2f1d7c65-33b6-4992-b0ed-a54d94416356,Thrifty Ice Cream Counter,ice_cream_shop,"['fast_food_restaurant', 'restaurant']",CA,Redwood City,94061,2150 Roosevelt Ave,37.465947,-122.242445,meta,2025-06-02T07:00:00.000Z,0.4929396662387676,fe7b94b8-fc30-458e-a895-2be64ba90889,,,,OpenStreetMap,2015-12-02T20:13:09.000Z,,san-francisco,False
0ce9b407-5e92-4fa6-9361-7f72662dc00e,Monarca Ice Cream & Snacks | Redwood City CA,ice_cream_shop,"['desserts', 'food_stand']",CA,Redwood City,94063,3196 Middlefield Rd,37.4721511,-122.2047309,meta,2025-06-02T07:00:00.000Z,0.9784508333782836,c0be9b06-6b38-4ebc-bb4b-8a817aa9808b,,,,OpenStreetMap,2014-02-01T21:57:05.000Z,,san-francisco,False
d9e173a6-77f4-4708-9382-7d69724a56fe,Airgas Dry Ice Distribution,ice_supplier,,CA,San Carlos,94070,961 Bing St,37.4974221,-122.2435031,Microsoft,2013-11-18T17:22:23.677Z,0.77,,,,,,,,san-francisco,False
6ca31c25-8e9e-4989-a888-302749944c12,Aili Ice Designs Event Gallery,event_planning,"['topic_concert_venue', 'comedy_club']",CA,Redwood City,94063,2363 Broadway St,37.4865492,-122.2306777,meta,2025-06-02T07:00:00.000Z,0.3961437335670464,287c6fec-3994-4842-80ae-ee87803a916b,Chase,,,OpenStreetMap,2024-01-17T09:57:54.000Z,,san-francisco,False
e43f848d-f0f0-4cfe-891f-f626708390f7,Aili Ice Designs,flowers_and_gifts_shop,"['fashion', 'professional_services']",CA,Redwood City,94063,2081 Broadway,37.486298,-122.2279923,meta,2025-06-02T07:00:00.000Z,0.3376623376623376,a39fd506-195f-4e77-a422-040875945b32,,commercial,retail,OpenStreetMap,2019-10-28T22:36:25.000Z,,san-francisco,False
dbc051a1-5e39-42d4-a3a3-bb509d9b97d0,Aili Ice Designs,flowers_and_gifts_shop,"['shopping', 'art_gallery']",CA,Menlo Park,94025,3517 Haven Ave,37.4873431,-122.1889989,meta,2025-06-02T07:00:00.000Z,0.9784508333782836,d13964d4-3c80-4d73-a609-c5c2dc98eb33,,,,OpenStreetMap,2015-12-02T20:34:33.000Z,,san-francisco,False
cdab0497-4018-4206-a4bd-eb41d19f5986,San Mateo on Ice,ice_skating_rink,"['active_life', 'skate_park']",CA,San Mateo,94401,50 E 5th Ave,37.5617556,-122.3233952,meta,2025-06-02T07:00:00.000Z,0.9204819277108434,,,,,,,,san-francisco,False
9559d430-78d4-4f9e-8eff-fdf525a6bbf6,San Mateo on Ice Holiday Skating Rink,ice_skating_rink,"['active_life', 'arts_and_entertainment']",CA,San Mateo,94401,5 N El Camino Real,37.56546,-122.32834,meta,2025-06-02T07:00:00.000Z,0.5662921348314607,,,,,,,,san-francisco,False
627a7409-f777-4a0a-9eec-21a8a3008533,Blind Tiger Ice,business_management_services,"['professional_services', 'food_beverage_service_distribution']",CA,San Mateo,94402,1027 S Claremont St,37.56081,-122.31409,meta,2025-06-02T07:00:00.000Z,0.5662921348314607,f884a510-c7ed-4905-8133-dc8f8d757c90,,,,OpenStreetMap,2015-12-18T13:27:35.000Z,,san-francisco,False
324676b2-5bdc-425c-98e5-fde4522707a9,Nazareth Ice Oasis,ice_skating_rink,"['active_life', 'stadium_arena']",CA,San Mateo,94404,2202 Bridgepointe Pkwy,37.5617204,-122.2812968,meta,2025-06-02T07:00:00.000Z,0.9784508333782836,,,,,,,,san-francisco,False
922b169e-55cb-4082-9535-b0511944eed7,The Little Ice Rink,ice_skating_rink,"['topic_concert_venue', 'arts_and_entertainment']",CA,Alameda,94501,1951 Monarch St,37.7802043,-122.3094919,meta,2025-06-02T07:00:00.000Z,0.9415384615384615,ef459d8a-ba9f-4291-8f55-3bce2d4aa1b8,Hangar 25,transportation,hangar,OpenStreetMap,2023-09-04T18:41:58.000Z,,san-francisco,False
473d8c06-b8b9-4247-8dcd-64e13060a86a,Rita's Italian Ice and Frozen Custard,ice_cream_shop,"['restaurant', 'shaved_ice_shop']",CA,Alameda,94501,417 S Shore Ctr,37.7564708,-122.2511974,meta,2025-06-02T07:00:00.000Z,0.9879256218304756,cfc3f3f4-7f24-4803-8d7a-2aa3d0fd2304,,commercial,retail,OpenStreetMap,2012-11-17T08:53:37.000Z,,san-francisco,False
8b271b0e-d15c-4a8c-b704-f63fbb8ccf02,Loard's Ice Cream,ice_cream_shop,"['restaurant', 'desserts']",CA,Alameda,94501,2265 S Shore Ctr,37.7579256,-122.251934,meta,2025-06-02T07:00:00.000Z,0.9784508333782836,be2de666-e1d2-497f-a90b-bd7cae25f92c,,commercial,retail,OpenStreetMap,2012-11-17T08:53:36.000Z,,san-francisco,False
7e619b04-d24f-4ada-81a9-0e76f354d508,Rita's Italian Ice & Frozen Custard,desserts,"['ice_cream_and_frozen_yoghurt', 'fast_food_restaurant', 'food', 'restaurant']",CA,Alameda,94501,417 S Shore Ctr,37.75837,-122.25294,Microsoft,2025-05-23T14:13:27.250Z,0.77,be2de666-e1d2-497f-a90b-bd7cae25f92c,,commercial,retail,OpenStreetMap,2012-11-17T08:53:36.000Z,,san-francisco,False
87ae7006-b5cf-499d-9555-9f2f7996b927,The Little Ice Skating Rink,ice_skating_rink,['topic_concert_venue'],CA,Alameda,94501,450 Park St,37.7556799,-122.2496897,meta,2025-06-02T07:00:00.000Z,0.3961437335670464,,,,,,,,san-francisco,False
aa084444-9128-46a4-b259-6858c2bbb900,Tucker's Ice Cream,ice_cream_shop,"['desserts', 'eat_and_drink']",CA,Alameda,94501,1349 Park St,37.7637824,-122.2433402,meta,2025-06-02T07:00:00.000Z,0.9784508333782836,3c0b4337-7c54-4b92-aaf5-b834876cc7e3,,,,OpenStreetMap,2020-09-18T17:44:56.000Z,,san-francisco,False
aa084444-9128-46a4-b259-6858c2bbb900,Tucker's Ice Cream,ice_cream_shop,"['desserts', 'eat_and_drink']",CA,Alameda,94501,1349 Park St,37.7637824,-122.2433402,meta,2025-06-02T07:00:00.000Z,0.9784508333782836,5a2278d2-c84b-486e-8655-4974b045f599,,,,OpenStreetMap,2020-09-18T13:35:45.000Z,,san-francisco,False
1d78cd59-6fe5-4067-9ccb-c5e6b7e429ed,Cheri's Ice Cream and Deli,ice_cream_shop,"['delicatessen', 'restaurant']",CA,Oakland,94601,3206 International Blvd,37.777659,-122.2254744,meta,2025-06-02T07:00:00.000Z,0.9415384615384615,3dbcae8d-7e61-4f7b-a530-5a758358b5b3,,,,OpenStreetMap,2020-09-18T20:46:53.000Z,,san-francisco,False
1d78cd59-6fe5-4067-9ccb-c5e6b7e429ed,Cheri's Ice Cream and Deli,ice_cream_shop,"['delicatessen', 'restaurant']",CA,Oakland,94601,3206 International Blvd,37.777659,-122.2254744,meta,2025-06-02T07:00:00.000Z,0.9415384615384615,48bf8664-6391-41a9-8b74-770c13756d8c,Castro's Design,,,OpenStreetMap,2016-07-27T08:48:49.000Z,,san-francisco,False
aab25a97-3e55-43bc-ab6b-bea9e5249df2,Disney Princesses on Ice,amusement_park,"['arts_and_entertainment', 'stadium_arena']",CA,Oakland,94621,"Oakland Arena, 7000 Coliseum Way",37.7502333,-122.2028236,meta,2025-06-02T07:00:00.000Z,0.1666666666666666,9babc2e7-5374-4691-aa4e-4d37e7168236,Oakland Arena,,,OpenStreetMap,2024-07-24T19:06:54.000Z,,san-francisco,False
28b181c1-d3fd-4016-aed6-904010eb277e,J's Ice Cream,ice_cream_shop,"['desserts', 'restaurant']",CA,Oakland,94621,1408 67th Ave,37.761463,-122.1915738,meta,2025-06-02T07:00:00.000Z,0.9459263554653524,b05dec35-887d-4f45-951a-e35bf9bddf6b,,,,OpenStreetMap,2020-09-18T20:37:31.000Z,,san-francisco,False
db75d554-72e9-459a-b22d-4e620dc7579d,Old Oakland Holiday Ice Rink,ice_skating_rink,['skate_park'],CA,Oakland,94607,806 Washington St,37.800962,-122.274291,meta,2025-06-02T07:00:00.000Z,0.296943231441048,406171d1-094a-4374-b674-83d6c72d2fc1,Ross House,,,OpenStreetMap,2020-09-18T20:17:17.000Z,,san-francisco,False
5786e3c6-ca49-4f19-9f66-5d7ee1764b90,D&H Vegan Ice Cream,ice_cream_and_frozen_yoghurt,"['food', 'restaurant']",CA,Oakland,94607,77 8th St Ste. 101,37.7967447,-122.26497,Microsoft,2019-07-03T21:21:26.437Z,0.77,,,,,,,,san-francisco,False
8a5e6ccb-65cd-4e9d-af2d-38df0df0a9a2,ICE Beauty Spa,beauty_salon,"['beauty_and_spa', 'spas']",CA,Oakland,94606,1236 2nd Ave,37.7976918,-122.2565461,meta,2025-06-02T07:00:00.000Z,0.9784508333782836,49e53df6-4887-498f-8afe-b10ed753e948,,,,OpenStreetMap,2020-09-18T20:46:55.000Z,,san-francisco,False
c3847579-ab05-4e69-9fd1-d31b731e2789,Sharks Ice Curling,sports_club_and_league,"['community_services_non_profits', 'sports_and_recreation_venue']",CA,Oakland,94612,519 18th St,37.8075167,-122.271347,meta,2025-06-02T07:00:00.000Z,0.3961437335670464,21734b73-f564-42ae-af51-cba9768c953a,Oakland Ice Center,,,OpenStreetMap,2023-01-21T23:31:35.000Z,,san-francisco,False
f97f7688-c235-436e-a235-fea04b84bd09,Oakland Ice Center Operated by Sharks Ice,ice_skating_rink,"['active_life', 'stadium_arena']",CA,Oakland,94612,519 18th St,37.8075512,-122.2713135,meta,2025-06-02T07:00:00.000Z,0.9784508333782836,21734b73-f564-42ae-af51-cba9768c953a,Oakland Ice Center,,,OpenStreetMap,2023-01-21T23:31:35.000Z,,san-francisco,False
77ad6409-f3a8-4f55-a8bf-71606846b8b4,Miharu Ice Cream,ice_cream_shop,"['restaurant', 'desserts']",CA,Oakland,94612,1951 Telegraph Ave,37.8090891,-122.2699334,meta,2025-06-02T07:00:00.000Z,0.9784508333782836,423311c2-8f01-4323-b647-63cacfe1250a,The Uptown,residential,apartments,OpenStreetMap,2023-11-28T18:38:42.000Z,,san-francisco,False
12147ec4-01d2-4b2c-9220-2f5f62887030,Loard's Ice Cream,ice_cream_shop,"['restaurant', 'grocery_store']",CA,Oakland,94602,2825 MacArthur Blvd,37.7985035,-122.2080746,meta,2025-06-02T07:00:00.000Z,0.909823677581864,4b185de7-967a-459d-9665-cd63f1a9f3e5,,,,OpenStreetMap,2017-02-24T11:06:13.000Z,,san-francisco,False
7ee1e6c4-050a-42e6-b842-0a6c08b04efe,Olmsted Ice,party_equipment_rental,['ice_supplier'],OH,Olmsted Twp,44138,8134 Bronson Rd,41.37413787841797,-81.96927642822266,Microsoft,2016-02-24T14:49:04.680Z,0.77,,,,,,,,cleveland,False
55a8afec-c0be-4545-a4f2-6700ff648c2c,Handel's Ice Cream,ice_cream_shop,"['diner', 'smoothie_juice_bar']",OH,Avon,44011,35925 Detroit Rd,41.4589302,-82.0185071,meta,2025-06-02T07:00:00.000Z,0.9784508333782836,cef75e99-7242-476b-99c8-88f57aa077bf,,,,Microsoft ML Buildings,2020-09-25T00:00:00.000Z,0.9904999732971193,cleveland,False
ff415a9d-9308-4fa3-8e82-50f9219c2c3f,808 Shave Ice,ice_cream_shop,"['professional_services', 'desserts']",OH,Avon,44011,35715 Detroit Rd,41.4575832,-82.0137745,meta,2025-06-02T07:00:00.000Z,0.9784508333782836,,,,,,,,cleveland,False
87334fdc-a13e-4aec-b100-1019cf83cf98,Mitchell's Ice Cream,ice_cream_shop,"['restaurant', 'eat_and_drink']",OH,Avon,44011,35520 Detroit Rd,41.4572335,-82.0107849,meta,2025-06-02T07:00:00.000Z,0.9784508333782836,b54d4f19-e8fc-4fba-a12c-6f9bb165c217,Mitchell's Ice Cream,commercial,,OpenStreetMap,2017-05-29T18:48:40.000Z,,cleveland,False
775adebc-1141-4277-92c6-c38c182d6c39,Bruster's Real Ice Cream,ice_cream_shop,"['restaurant', 'frozen_yoghurt_shop']",OH,North Olmsted,44070,27045 Lorain Rd,41.4166141,-81.9214132,meta,2025-06-02T07:00:00.000Z,0.9784508333782836,da7fd365-e2b4-4a92-8d77-572d63c0bcc1,,,,OpenStreetMap,2021-07-23T02:08:43.000Z,,cleveland,False
b7db26d5-8f98-4297-b25a-86d6a564cdf5,Mickey's Ice Arena,ice_skating_rink,"['stadium_arena', 'topic_concert_venue']",OH,Avon Lake,44012,31960 Krebs Rd,41.4785841,-81.9849077,meta,2025-06-02T07:00:00.000Z,0.9784508333782836,,,,,,,,cleveland,False
ed0d18cc-05d0-4d82-9384-3ff8f560718a,Graeter's Ice Cream,ice_cream_shop,"['cafe', 'restaurant']",OH,Westlake,44145,261 Main St,41.4566152,-81.951382,meta,2025-06-02T07:00:00.000Z,0.9784508333782836,28bcd381-2725-4ae4-8733-a4bd70d6e98d,,commercial,retail,OpenStreetMap,2023-03-08T23:31:23.000Z,,cleveland,False
71283842-75a6-411a-bbb1-4c0e682b2d69,Shobita dairy & ice cream stores,ice_cream_shop,"['dairy_farm', 'cafe']",,Cairo,0,. ..    . المهندسين :خلف جامع انس بن مالك ش.العراق من اول شهاب خلف التوحيد والنور ,41.4450209,-81.930006,meta,2025-06-02T07:00:00.000Z,0.4929396662387676,c0c4d57b-f3af-41d0-b67f-ae453343b9bf,Brighton Gardens of Westlake,,,OpenStreetMap,2019-09-21T19:19:28.000Z,,cleveland,False
9436085c-ba8f-47cb-9f76-67783075713e,Mitchell's Ice Cream,ice_cream_shop,"['american_restaurant', 'restaurant']",OH,Strongsville,44136,18832 Westwood Dr,41.3154813,-81.8340753,meta,2025-06-02T07:00:00.000Z,0.9784508333782836,4b89c4cb-4204-49bd-b947-bb406632c16d,Mitchell’s Ice Cream,commercial,,OpenStreetMap,2025-03-08T05:55:00.000Z,,cleveland,False
72eaf010-d2d1-409e-82b9-4dfb78cf9dab,808 Shave Ice,ice_cream_shop,"['shaved_ice_shop', 'desserts']",OH,Strongsville,44136,12457 Pearl Rd,41.322231,-81.8357161,meta,2025-06-02T07:00:00.000Z,0.9784508333782836,1d8e48da-a10f-4268-8367-0dad19b2e5a2,,,,OpenStreetMap,2020-12-04T06:32:11.000Z,,cleveland,False
05e97dc2-e348-47a9-a185-83f7f756a797,Falls Ice Cream,ice_cream_shop,"['desserts', 'eat_and_drink']",OH,Olmsted Falls,44138,8094 Columbia Rd,41.3744487,-81.9019345,meta,2025-06-02T07:00:00.000Z,0.9784508333782836,3deb1840-0eb2-4ae7-9688-3353be56487d,,,,Microsoft ML Buildings,2020-10-14T00:00:00.000Z,,cleveland,False
38693ac8-12cb-49ff-9f1c-a9ff527ff837,Pinecone Ice Cream Shop,ice_cream_shop,"['desserts', 'eat_and_drink']",OH,North Royalton,44133,10301 W 130th St,41.3345618,-81.7847906,meta,2025-06-02T07:00:00.000Z,0.9784508333782836,e02e2491-912a-4e0b-a072-e79bb722ebbc,,,,Microsoft ML Buildings,2020-10-14T00:00:00.000Z,,cleveland,False
74fdb194-a4ed-439c-9f39-e7700d611576,Country Parlour Ice Cream Company,ice_cream_shop,['restaurant'],OH,North Royalton,44133,12905 York Delta Dr,41.3203007,-81.7595988,meta,2025-06-02T07:00:00.000Z,0.909823677581864,6fc5ef14-b19f-4c75-b4b8-eff44c0c2593,,,,Microsoft ML Buildings,2020-10-14T00:00:00.000Z,,cleveland,True
179d85b7-4a52-4b41-bc94-9b972e4c03a6,Greenbrier Ice Rink,park,"['active_life', 'sports_club_and_league']",OH,Cleveland,44130,6281 Pearl Rd,41.3926098,-81.7619299,meta,2025-06-02T07:00:00.000Z,0.7548172757475083,,,,,,,,cleveland,False
3885f1ff-e61d-4d41-a99c-ee26f5c7288f,Cleveland Ice Storm Skating Club,ice_skating_rink,"['sports_club_and_league', 'community_services_non_profits']",OH,North Olmsted,44070,26000 Lorain Rd,41.42347,-81.9101699,meta,2025-06-02T07:00:00.000Z,0.5662921348314607,e419b671-35bf-454d-9765-3b21fc3a88f3,,,,OpenStreetMap,2021-07-23T15:46:55.000Z,,cleveland,False
7d04bf28-6ffc-42fa-aa7e-b2e908158583,Euclid CE Orr Ice Skating,arts_and_entertainment,"['active_life', 'amusement_park']",OH,Cleveland,44126,22550 Morton Ave,41.437693,-81.869399,meta,2025-06-02T07:00:00.000Z,0.4929396662387676,30dd99d6-e5f2-441a-a419-8840026cbd6d,,,,Microsoft ML Buildings,2020-09-25T00:00:00.000Z,,cleveland,False
773da8f5-64d5-41aa-9043-2711e388ad49,Mitchell's Ice Cream Westlake,ice_cream_shop,"['restaurant', 'desserts']",OH,Westlake,44145,26161 Detroit Rd,41.468235,-81.909657,meta,2025-06-02T07:00:00.000Z,0.7548172757475083,542076bb-09d7-4f1d-9afc-c28aac479bb0,,commercial,retail,OpenStreetMap,2017-12-20T15:30:54.000Z,,cleveland,False
a36388bd-8e0d-410c-8235-bdfe1b1e96b0,808 Shave Ice,ice_cream_shop,"['cafe', 'shaved_ice_shop']",OH,Fairview Park,44126,21280 Lorain Rd,41.4449461,-81.8564742,meta,2025-06-02T07:00:00.000Z,0.9879256218304756,9f12bcd4-39e5-47a7-a7e9-3fe113d17b99,,,,OpenStreetMap,2021-11-09T02:23:22.000Z,,cleveland,False
76632fec-340b-4ba6-be07-b8e58e5a930e,Rita's Italian Ice & Frozen Custard,ice_cream_shop,"['diner', 'restaurant']",OH,Rocky River,44116,21960 Center Ridge Rd,41.4598898,-81.8630019,meta,2025-06-02T07:00:00.000Z,0.9879256218304756,7411294a-ed25-4d75-933d-ffd81c4c079b,,commercial,retail,OpenStreetMap,2023-10-28T04:25:29.000Z,,cleveland,False
8dd26382-3187-4f7e-a51b-93e2e177ed1b,Weber's Premium Custard and Ice Cream,ice_cream_shop,"['desserts', 'eat_and_drink']",OH,Fairview Park,44126,20230 Lorain Rd,41.4492458,-81.8439526,meta,2025-06-02T07:00:00.000Z,0.9784508333782836,,,,,,,,cleveland,False
c6166ee7-4692-4d29-9cce-16f0a1cb1fb7,Hamilton Ice Arena,gym,"['active_life', 'sports_and_recreation_venue']",OH,Rocky River,44116,21018 Hilliard Blvd,41.4674866,-81.8566838,meta,2025-06-02T07:00:00.000Z,0.9784508333782836,465eb674-a75a-495f-916c-2d3b48a4e740,Hamilton Ice Arena,,,OpenStreetMap,2022-02-24T01:32:25.000Z,,cleveland,False
ebdea6db-ec1d-43b1-8e5f-d1fee544651a,Handel's Ice Cream,ice_cream_shop,"['smoothie_juice_bar', 'diner']",OH,Rocky River,44116,19935 Center Ridge Rd,41.4640806,-81.8434659,meta,2025-06-02T07:00:00.000Z,0.9784508333782836,b8408124-f1a8-4af8-b49a-ed4cf1e8420c,,,,OpenStreetMap,2019-07-06T14:24:30.000Z,,cleveland,False
6f79e53e-a45d-46c5-a708-79a4f4c669d7,Mitchell's Ice Cream,ice_cream_shop,"['restaurant', 'desserts']",OH,Rocky River,44116,19700 Detroit Rd,41.4800638,-81.8404162,meta,2025-06-02T07:00:00.000Z,0.9784508333782836,97fd3455-9bbe-4387-abd1-696d33757dd3,Mitchell's Ice Cream,commercial,,OpenStreetMap,2024-02-05T03:10:13.000Z,,cleveland,False
4c741b5a-40f9-4e7e-a8c5-6ae58d96b913,Charlie And Tango Ice Cream And Smoothies,ice_cream_shop,"['smoothie_juice_bar', 'desserts']",OH,Brook Park,44142,13357 Snow Rd,41.4048044,-81.784625,meta,2025-06-02T07:00:00.000Z,0.9784508333782836,b75c2a08-4c12-4a4c-bb0e-22f950f435c8,,,,OpenStreetMap,2019-09-23T17:45:10.000Z,,cleveland,False
11f46499-595d-46f0-9fdd-4e32db446dff,Abraxus Snow and Ice Management,contractor,['professional_services'],OH,Brooklyn,44130,11444 Brookpark Rd,41.4207235,-81.7682819,meta,2025-06-02T07:00:00.000Z,0.9459263554653524,,,,,,,,cleveland,False
d4cd1906-0427-4de0-a1c4-98512fb88acb,Ice House Tavern and Grill,bar,"['bar_and_grill_restaurant', 'restaurant']",OH,Brooklyn,44130,10036 Brookpark Rd,41.4187401,-81.7583766,meta,2025-06-02T07:00:00.000Z,0.9784508333782836,3079efea-763c-45a1-be74-2cd9115916c5,,,,OpenStreetMap,2025-05-18T11:21:04.000Z,,cleveland,False
a0dcbc75-7f84-400a-9842-8ccb2875c24e,Brooklyn City-Ice Skate Rink,ice_skating_rink,"['sports_and_recreation_venue', 'gym']",OH,Brooklyn,44144,9619 Memphis Ave,41.439917,-81.752457,meta,2025-06-02T07:00:00.000Z,0.3961437335670464,5f3f3721-15ce-4e93-b860-bd3321a09c57,,,,Microsoft ML Buildings,2020-09-25T00:00:00.000Z,,cleveland,False
4754d3e0-22bd-4dce-90d3-abd0e446a727,Kamm's Corners Ice Cream Company,ice_cream_shop,"['cafe', 'tea_room']",OH,Cleveland,44111,3764 Rocky River Dr,41.4517488,-81.8175658,meta,2025-06-02T07:00:00.000Z,0.9784508333782836,ee20e456-a99d-4818-a38e-a4d80e274752,,commercial,retail,OpenStreetMap,2012-03-27T08:24:46.000Z,,cleveland,True
cdec3ef9-4dcd-4ffe-a062-830aa5c67e68,Winterhurst Ice Arena,ice_skating_rink,"['active_life', 'stadium_arena']",OH,Lakewood,44107,14740 Lakewood Heights Blvd,41.4701535,-81.7987341,meta,2025-06-02T07:00:00.000Z,0.9784508333782836,47d17424-e0b2-4d0e-b07e-af35528c14d8,Serpentini Arena at Winterhurst,,,OpenStreetMap,2020-12-13T04:19:30.000Z,,cleveland,False
f2a3acd7-42ed-4fb2-b645-0d913cfb5e1f,Ice Land Usa,active_life,"['eat_and_drink', 'ice_cream_shop']",OH,Lakewood,44107,14740 Lakewood Heights Blvd,41.470092,-81.798661,meta,2025-06-02T07:00:00.000Z,0.4929396662387676,47d17424-e0b2-4d0e-b07e-af35528c14d8,Serpentini Arena at Winterhurst,,,OpenStreetMap,2020-12-13T04:19:30.000Z,,cleveland,False
f25dd755-3993-4a94-877a-7534a445daab,Frosty's Cake and Ice Cream,bakery,"['desserts', 'ice_cream_shop']",OH,Lakewood,44107,13343 Madison Ave,41.4769004,-81.7833722,meta,2025-06-02T07:00:00.000Z,0.9784508333782836,be679aaa-70ec-4306-9a5c-1be919b6c119,,,,OpenStreetMap,2018-02-10T19:58:57.000Z,,cleveland,False
9e58e01f-02a1-4731-9320-bd3bb29435af,Brooklyn Blades on Ice,ice_skating_rink,"['active_life', 'sports_and_recreation_venue']",OH,Brooklyn,44144,7600 Memphis Ave,41.4408974,-81.7391291,meta,2025-06-02T07:00:00.000Z,0.9415384615384615,bf88284e-4ce9-4d2e-96b2-5cc6fddec9a9,,,,OpenStreetMap,2021-07-03T16:34:53.000Z,,cleveland,False
d8a19053-26c9-4aad-ac9e-475b48c07403,Classic Ice Cream Shop,ice_cream_shop,"['bakery', 'desserts']",OH,Cleveland,44102,9200 Denison Ave,41.4649691,-81.7470171,meta,2025-06-02T07:00:00.000Z,0.9879256218304756,,,,,,,,cleveland,False
4e73c120-cb3a-4c9e-911e-cae12afcdbfb,Handel's Ice Cream,ice_cream_shop,"['fast_food_restaurant', 'eat_and_drink']",OH,Broadview Heights,44147,103 E Royalton Rd,41.3143171,-81.6830963,meta,2025-06-02T07:00:00.000Z,0.9784508333782836,50cd0249-6e74-4505-a73a-2d55a9eeb4e5,,,,OpenStreetMap,2022-06-28T15:26:22.000Z,,cleveland,False
e55882e8-3e99-42f0-aed6-69751734428b,Jo Ann's Donuts and Ice Cream,donuts,"['cafe', 'bakery']",OH,Broadview Heights,44147,8140 Broadview Rd,41.3444648,-81.6850147,meta,2025-06-02T07:00:00.000Z,0.9784508333782836,011f2a05-8fb1-474e-b1cf-b09d05262aa9,,commercial,retail,OpenStreetMap,2024-02-25T15:00:21.000Z,,cleveland,False
6e5afb4d-3b86-49f6-aa2e-6516162b524a,Honey Hut Ice Cream,ice_cream_shop,"['diner', 'desserts']",OH,Parma,44134,6250 State Rd,41.3937512,-81.7106027,meta,2025-06-02T07:00:00.000Z,0.9784508333782836,057ba6f4-8b44-4dd9-a668-1e56da15701d,Honey Hut Ice Cream Shoppe,commercial,,OpenStreetMap,2019-03-16T19:13:49.000Z,,cleveland,False
9ef11a72-78cd-4a94-97e8-0d1ad682a254,Honey Hut Ice Cream,ice_cream_shop,"['desserts', 'restaurant']",OH,Brecksville,44141,7304 Chippewa Rd,41.3197532,-81.6259215,meta,2025-06-02T07:00:00.000Z,0.9784508333782836,4dd34b22-5942-4cee-98e1-5a8617535641,Bruegger's Bagels,commercial,,OpenStreetMap,2023-11-24T23:36:09.000Z,,cleveland,False
9ef11a72-78cd-4a94-97e8-0d1ad682a254,Honey Hut Ice Cream,ice_cream_shop,"['desserts', 'restaurant']",OH,Brecksville,44141,7304 Chippewa Rd,41.3197532,-81.6259215,meta,2025-06-02T07:00:00.000Z,0.9784508333782836,0e6c8b42-95d8-41a4-b700-ae5d5d825163,Honey Hut,commercial,,OpenStreetMap,2018-07-20T00:38:59.000Z,,cleveland,False
2664037e-08cf-4475-9e5d-f2a0a9483ccb,Corradi’s Scoops Ice Cream Shop,ice_cream_shop,"['diner', 'smoothie_juice_bar']",OH,Brecksville,44141,7059 Mill Rd,41.3228218,-81.6270879,meta,2025-06-02T07:00:00.000Z,0.9784508333782836,c06afa95-b6c1-4ab1-a4d8-cb22ec4c8649,,,,Microsoft ML Buildings,2020-09-21T00:00:00.000Z,,cleveland,False
9a22c91e-e6af-4678-9337-f31e401571db,Park Place Ice Cream,american_restaurant,"['fast_food_restaurant', 'burger_restaurant']",OH,Walton Hills,44146,6980 Dunham Rd,41.3730638,-81.579726,meta,2025-06-02T07:00:00.000Z,0.9784508333782836,34e34864-a472-4be2-b1c7-e13166676422,Park Place,commercial,,OpenStreetMap,2018-12-19T23:29:08.000Z,,cleveland,False
1e95ef1c-73d7-4ff2-8d19-7651c1d4e2b5,Braysons Ice Cream Parlor,ice_cream_shop,"['frozen_yoghurt_shop', 'eat_and_drink']",OH,Parma,44129,5840 Ridge Rd,41.4039355,-81.7350849,meta,2025-06-02T07:00:00.000Z,0.9784508333782836,3ae1c24c-ed95-43df-89a9-4bab8e5fbcdf,,commercial,,OpenStreetMap,2018-10-22T14:15:13.000Z,,cleveland,False
c50b15c5-b8d0-4063-8d79-54e0875bd545,Michael A Ries Ice Arena,gym,"['sports_and_recreation_venue', 'park']",OH,Parma,44134,5000 Forestwood Dr,41.402756,-81.7212436,meta,2025-06-02T07:00:00.000Z,0.9784508333782836,018ffcda-5182-4578-a82d-824e97c7cbdd,,,,Microsoft ML Buildings,2000-01-01T00:00:00.000Z,,cleveland,False
23a89a8e-57bf-4405-86f6-c49b61eb0469,Bulldog Ice Cream,ice_cream_shop,"['desserts', 'smoothie_juice_bar']",OH,Brooklyn,44144,7467 Memphis Ave,41.4397095,-81.737008,meta,2025-06-02T07:00:00.000Z,0.9879256218304756,be896873-03bd-4b2b-a355-36f3b38b551a,Bulldog Ice Cream,commercial,,OpenStreetMap,2021-06-06T14:47:20.000Z,,cleveland,False
14acef13-af92-4c80-8226-30dd2e296282,Honey Hut Ice Cream,ice_cream_shop,"['desserts', 'eat_and_drink']",OH,Cleveland,44109,4674 State Rd,41.4272826,-81.7092489,meta,2025-06-02T07:00:00.000Z,0.9784508333782836,f30b0993-7c46-430b-8da3-03420ab6dcbd,Honey Hut Ice Cream,commercial,,OpenStreetMap,2023-03-01T06:15:00.000Z,,cleveland,False
ef9ac63c-f5ac-4c5d-8c69-004681893bb5,Images In Ice,professional_services,"['real_estate', 'restaurant']",OH,Cleveland,44125,4800 Warner Rd,41.4291833,-81.6338472,meta,2025-06-02T07:00:00.000Z,0.9300613496932516,d2f63c11-249c-43aa-aa4b-c680b69c8b9f,,industrial,industrial,OpenStreetMap,2025-05-19T21:23:22.000Z,,cleveland,False
9a2d9440-413b-4b0c-a16b-8a96223b2a37,Moksa Dry Ice,surgical_appliances_and_supplies,,OH,Maple Heights,44137,14501 S Industrial Ave,41.4109363,-81.5803747,meta,2025-06-02T07:00:00.000Z,0.9204819277108434,,,,,,,,cleveland,False
9b4f2317-f880-449b-9493-75a21f99d7bb,Islas Ice Cream,ice_cream_shop,"['restaurant', 'smoothie_juice_bar']",OH,Avon Lake,44012,140 Lear Rd,41.5085224,-81.9884876,meta,2025-06-02T07:00:00.000Z,0.9784508333782836,3c87d8e9-eb1d-4d30-85b5-4838d9cb77be,Divine Scoops,commercial,,OpenStreetMap,2017-05-13T04:11:57.000Z,,cleveland,False
9b4f2317-f880-449b-9493-75a21f99d7bb,Islas Ice Cream,ice_cream_shop,"['restaurant', 'smoothie_juice_bar']",OH,Avon Lake,44012,140 Lear Rd,41.5085224,-81.9884876,meta,2025-06-02T07:00:00.000Z,0.9784508333782836,8c150603-13e4-4b04-8533-3b489a98f8ac,The Laundry Dock,,,OpenStreetMap,2017-05-11T20:54:48.000Z,,cleveland,False
4126f5a9-6935-4133-82b2-dc650d4b1554,Remixx Ice Cream and Cereal Bar,ice_cream_shop,"['shopping', 'bar']",OH,Cleveland,44102,11512 Clifton Blvd,41.4873102,-81.7666583,meta,2025-06-02T07:00:00.000Z,0.9784508333782836,7d4d7b75-f7da-40a1-b55f-652d41e78f0e,,,,OpenStreetMap,2016-01-17T14:52:15.000Z,,cleveland,False
2dc8b655-27a4-4ce8-9b11-0254b79ce385,Honey Hut Ice Cream Shoppe,ice_cream_shop,"['desserts', 'eat_and_drink']",OH,Cleveland,44102,6600 Cleveland Memorial Shoreway,41.49156,-81.73072,meta,2025-06-02T07:00:00.000Z,0.4929396662387676,,,,,,,,cleveland,False
74f86729-ead7-4d04-a995-ff5148e0d04a,Vienna Corned Beef & Reuben and Homemade Ice Cream,restaurant,"['delicatessen', 'ice_cream_shop']",OH,Cleveland,44113,1836 W 25th St,41.4860348,-81.7052086,meta,2025-06-02T07:00:00.000Z,0.9297091412742382,83fc7571-8ad1-417c-ada5-6e4cdf8c0535,,,,OpenStreetMap,2022-04-08T20:33:40.000Z,,cleveland,False
ceb5b016-4243-42b9-8e73-874fe28651c6,Mitchell's Ice Cream,ice_cream_shop,['smoothie_juice_bar'],OH,Cleveland,44113,1867 W 25th St,41.4857824,-81.7045183,meta,2025-06-02T07:00:00.000Z,0.9784508333782836,8ff7b505-0a85-493d-8b30-078bacfd84a8,,,,OpenStreetMap,2025-05-30T22:37:29.000Z,,cleveland,False
2dc7fcdf-4a0b-4ee9-a439-2bac06ebaf6e,Ice Rink at Public Square,ice_skating_rink,"['travel', 'transportation']",,,44113,Public Square,41.499525,-81.693012,meta,2025-06-02T07:00:00.000Z,0.5662921348314607,fc69eb9c-6b6a-4683-8c85-7effd74a5f8b,,,,OpenStreetMap,2022-07-13T16:55:47.000Z,,cleveland,False
5fccf440-3316-483a-bbda-fa6470a65c70,Pierre's Ice Cream Company,ice_cream_shop,"['desserts', 'food_beverage_service_distribution']",OH,Cleveland,44103,6200 Euclid Ave,41.503064,-81.6478934,meta,2025-06-02T07:00:00.000Z,0.9879256218304756,,,,,,,,cleveland,True
b04a9fda-26f4-4484-9ba2-51270e495005,Mitchell's Ice Cream,ice_cream_shop,"['restaurant', 'desserts']",OH,Cleveland,44106,11444 Uptown Ave,41.5094645,-81.6034163,meta,2025-06-02T07:00:00.000Z,0.9784508333782836,eed3a4d7-cb06-4f12-93f8-8124ce30eca1,The Triangle Tower 2,residential,apartments,OpenStreetMap,2022-09-04T19:07:43.000Z,,cleveland,False
833fe0a1-c77f-43b4-945d-544de20d6011,Mount Granita Italian Ice,ice_cream_shop,"['italian_restaurant', 'food_stand']",OH,Cleveland,44106,2024 Murray Hill Rd,41.507877,-81.5980395,meta,2025-06-02T07:00:00.000Z,0.9879256218304756,24690c01-0481-4afb-91f5-b7be0371752c,,residential,apartments,OpenStreetMap,2021-09-18T15:17:15.000Z,,cleveland,False
97d4c26e-54b2-43a3-b3c6-5598f6fb82c9,Ebony's Ice Cream,ice_cream_shop,['smoothie_juice_bar'],OH,Northfield,44067,115 E Aurora Rd,41.3143425,-81.5346327,meta,2025-06-02T07:00:00.000Z,0.9784508333782836,,,,,,,,cleveland,False
c639b0f6-ba49-4ca8-8483-1264f2414f68,Handel's Homemade Ice Cream,ice_cream_shop,"['desserts', 'frozen_yoghurt_shop']",OH,Northfield,44067,10333 Northfield Rd,41.3417334,-81.5287027,meta,2025-06-02T07:00:00.000Z,0.9784508333782836,,,,,,,,cleveland,False
f2b18baa-8d8a-4e4a-b0f0-536df938fc06,Danny's Ice Cream & Burgers,burger_restaurant,"['ice_cream_shop', 'fast_food_restaurant']",OH,Macedonia,44056,1206 E Aurora Rd,41.3129424,-81.4950505,meta,2025-06-02T07:00:00.000Z,0.9784508333782836,,,,,,,,cleveland,False
06b58eb8-87b5-4c34-b275-b19221ad1053,Home City Ice,commercial_refrigeration,"['professional_services', 'shopping']",OH,Walton Hills,44146,20282 Hannan Pkwy,41.3641987,-81.5328009,meta,2025-06-02T07:00:00.000Z,0.9300613496932516,,,,,,,,cleveland,False
b3e75b73-21e4-4d9b-9e9a-d467d96b3850,Chris's Ice Cream Treats,ice_cream_shop,"['food_truck', 'fast_food_restaurant']",OH,Oakwood,44146,616 Golden Oak Pkwy,41.3541525,-81.4974117,meta,2025-06-02T07:00:00.000Z,0.9300613496932516,,,,,,,,cleveland,False
9560fab0-a6d4-472d-8ea3-874d05c84823,Handel's Homemade Ice Cream,ice_cream_shop,"['restaurant', 'desserts']",OH,Twinsburg,44087,10735 Ravenna Rd,41.3308202,-81.4643743,meta,2025-06-02T07:00:00.000Z,0.9784508333782836,,,,,,,,cleveland,False
f57a5b67-a241-49f0-ae6a-aff60ab7d09d,Mitchell's Ice Cream,ice_cream_shop,"['desserts', 'business']",OH,Solon,44139,6130 Kruse Dr,41.392081,-81.44223,meta,2025-06-02T07:00:00.000Z,0.9784508333782836,7e650a2c-eec2-4975-aa4b-9fe354531e37,,commercial,retail,OpenStreetMap,2018-04-09T02:48:33.000Z,,cleveland,False
6c75b93c-958d-48e6-b6a2-691679956b20,Honey Hut Ice Cream,ice_cream_shop,"['restaurant', 'fast_food_restaurant']",OH,Solon,44139,28300 Miles Rd,41.4240776,-81.4781427,meta,2025-06-02T07:00:00.000Z,0.9784508333782836,313b51e4-3f40-4eaa-b8f9-a90ea7af2895,,,,Microsoft ML Buildings,2020-09-19T00:00:00.000Z,,cleveland,False
7e99bbb6-731b-4279-abd5-a5d1c456757f,Airgas Dry Ice,natural_gas_supplier,"['utility_service', 'ice_supplier']",OH,Warrensville Heights,44128,4382 Cranwood Pkwy,41.4409216,-81.5501298,Microsoft,2024-04-22T16:26:36.877Z,0.77,1b5eb00c-b977-4630-a95b-416452667b6c,,,,OpenStreetMap,2024-06-06T23:18:08.000Z,,cleveland,False
8d0c29e4-5248-431b-ab4d-2964da90a0c4,Mitchell's Ice Cream,ice_cream_shop,"['fast_food_restaurant', 'eat_and_drink']",OH,Shaker Heights,44122,3400 Tuttle Rd,41.4667611,-81.53741,meta,2025-06-02T07:00:00.000Z,0.9784508333782836,aa726a21-8fa8-42b4-8470-af48efd52cc8,Mitchell's Ice Cream,commercial,retail,OpenStreetMap,2023-07-23T01:15:22.000Z,,cleveland,False
768b67da-61f4-4808-8aa6-b6ba3a772bb9,Graeter's Ice Cream,ice_cream_shop,"['cafe', 'desserts']",OH,Beachwood,44122,10 Park Ave,41.4549614,-81.4863087,meta,2025-06-02T07:00:00.000Z,0.9784508333782836,8605a021-63ff-410f-9a1b-8ce8aede5119,,,,OpenStreetMap,2024-10-24T16:14:23.000Z,,cleveland,False
768b67da-61f4-4808-8aa6-b6ba3a772bb9,Graeter's Ice Cream,ice_cream_shop,"['cafe', 'desserts']",OH,Beachwood,44122,10 Park Ave,41.4549614,-81.4863087,meta,2025-06-02T07:00:00.000Z,0.9784508333782836,14560428-b505-4b50-921d-88650b8a43fa,,,,OpenStreetMap,2024-10-24T16:14:23.000Z,,cleveland,False
bfc1e093-464d-44a8-8eb6-1346186c00e1,"Jason T Ice - Private Wealth Advisor, Ameriprise Financial Services, LLC",financial_advising,"['investing', 'professional_services']",OH,Beachwood,44122,25201 Chagrin Blvd,41.465102,-81.500704,meta,2025-06-02T07:00:00.000Z,0.9204819277108434,8bc62cc5-f7b0-426f-9edc-022c2a9f833a,,,,OpenStreetMap,2024-09-05T18:23:42.000Z,,cleveland,False
afe3d3bb-3b44-4698-84a0-0876ce49c229,Jeni's Splendid Ice Creams,ice_cream_and_frozen_yoghurt,"['food', 'restaurant']",OH,Chagrin Falls,44022,67 N Main St,41.4314384460449,-81.3923492431641,Microsoft,2017-09-11T15:42:08.633Z,0.77,8d68ac62-cd56-411b-842e-3f1ec5832402,Starbucks,commercial,commercial,OpenStreetMap,2024-08-16T00:52:43.000Z,,cleveland,False
afe3d3bb-3b44-4698-84a0-0876ce49c229,Jeni's Splendid Ice Creams,ice_cream_and_frozen_yoghurt,"['food', 'restaurant']",OH,Chagrin Falls,44022,67 N Main St,41.4314384460449,-81.3923492431641,Microsoft,2017-09-11T15:42:08.633Z,0.77,c56fdb8a-5d0e-4633-9e08-27b921d0fb32,Jeni's Splindid Ice Creams,commercial,commercial,OpenStreetMap,2024-08-16T01:04:29.000Z,,cleveland,False
39e170f3-ec3d-411c-b24a-eeaaa6d7e401,Jeni's Splendid Ice Creams,ice_cream_shop,"['restaurant', 'desserts']",OH,Chagrin Falls,44022,67 N Main St,41.4313636,-81.39197,meta,2025-06-02T07:00:00.000Z,0.9784508333782836,,,,,,,,cleveland,False
b26af209-8388-44c6-8393-3c8fa9352f6f,Rita's Italian Ice & Frozen Custard,ice_cream_shop,"['diner', 'restaurant']",OH,South Euclid,44121,1976 Warrensville Center Rd,41.5058721,-81.5368399,meta,2025-06-02T07:00:00.000Z,0.9459263554653524,c7bdd8b1-a95a-4ebe-a2e5-bd4d2c93edbe,,,,Microsoft ML Buildings,2020-09-22T00:00:00.000Z,,cleveland,False
9144255c-a6a8-4db2-8bec-48c5d9000533,Mitchell's Ice Cream,ice_cream_shop,"['desserts', 'business']",OH,Beachwood,44122,2101 Richmond Rd,41.5003738,-81.496226,meta,2025-06-02T07:00:00.000Z,0.9784508333782836,bf1ebf50-7362-4fec-aedb-982f639afbb8,La Place at Beachwood Place,commercial,retail,OpenStreetMap,2024-12-20T13:40:29.000Z,,cleveland,False
507daffd-845c-430b-9216-e1b2483f1044,JDL Ice Cream Shoppe,ice_cream_shop,"['american_restaurant', 'cafe']",OH,East Cleveland,44112,2153 Noble Rd,41.5381385,-81.5576696,meta,2025-06-02T07:00:00.000Z,0.9459263554653524,,,,,,,,cleveland,False
bfeda8dd-2587-4754-9e13-a33d39583e1b,Gilmour Academy Ice Arena,sports_and_recreation_venue,"['active_life', 'ice_skating_rink']",OH,Gates Mills,44040,2045 Som Center Rd,41.5045001,-81.4352679,meta,2025-06-02T07:00:00.000Z,0.9784508333782836,7010e37f-9f08-4eef-983b-85dccc11a638,,,,Microsoft ML Buildings,2020-09-22T00:00:00.000Z,,cleveland,False
589ffade-4c68-4fb6-9b43-e23bcd689430,C.E. Orr Ice Arena,ice_skating_rink,"['active_life', 'stadium_arena']",OH,Euclid,44123,22550 Milton Dr,41.6007123,-81.5230609,meta,2025-06-02T07:00:00.000Z,0.9784508333782836,cd1bd144-7559-4f54-a5fd-eb9316ea3b12,C. E. Orr Ice Arena,,,OpenStreetMap,2013-10-19T20:21:48.000Z,,cleveland,False
4848e819-b081-49e8-ae4a-ab6de93a0007,Foster's Homemade Ice Cream,ice_cream_shop,"['desserts', 'eat_and_drink']",OH,Willoughby Hills,44094,30551 Chardon Rd,41.5838057,-81.4552524,meta,2025-06-02T07:00:00.000Z,0.9784508333782836,,,,,,,,cleveland,False
2386b6cf-3729-40c8-9b35-3aef0e04bd4e,CP's Cooler homemade ice cream & treats,ice_cream_shop,"['desserts', 'smoothie_juice_bar']",OH,Willowick,44095,32433 Vine St,41.6427389,-81.4571873,meta,2025-06-02T07:00:00.000Z,0.9784508333782836,0a60bfae-8a2b-41aa-bca9-d96d6b845262,CP's Cooler,commercial,,OpenStreetMap,2017-12-31T20:15:41.000Z,,cleveland,False
e38cede6-a747-41f8-9dc0-04cceeb36ff6,Mickey's Ice Cream & Hot Dogs,ice_cream_shop,"['smoothie_juice_bar', 'diner']",OH,Willoughby,44094,14 Public Sq,41.639774,-81.4062156,meta,2025-06-02T07:00:00.000Z,0.9784508333782836,6119126c-e119-4c49-b527-9d541283b4d6,,,,OpenStreetMap,2024-04-15T19:05:11.000Z,,cleveland,False
a2719b3f-f576-4614-beea-33d6d48c55ac,Handel's Homemade Ice Cream,ice_cream_shop,"['diner', 'smoothie_juice_bar']",CA,Visalia,93277,3301 S Mooney Blvd,36.3008342,-119.3141514,meta,2025-06-02T07:00:00.000Z,0.9784508333782836,9eabf2b5-295f-4166-80ce-412176466c41,,,,OpenStreetMap,2024-03-02T01:16:49.000Z,,visalia,False
a34186d7-a75d-4ac7-9e2a-b7d0921e9a4e,How We Roll Ice Cream,ice_cream_shop,"['restaurant', 'eat_and_drink']",CA,Visalia,93291,104 S Church St,36.3299347,-119.2910974,meta,2025-06-02T07:00:00.000Z,0.9784508333782836,fdc71e9b-8932-4a8f-9a1e-5eef907fd868,,,,OpenStreetMap,2024-10-07T20:10:24.000Z,,visalia,False
9502d2aa-ab9a-4f8f-ac7d-f3453c87a2fe,Ice House Theater,theatre,"['topic_concert_venue', 'arts_and_entertainment']",CA,Visalia,93291,410 E Race Ave,36.3356777,-119.2882452,meta,2025-06-02T07:00:00.000Z,0.9784508333782836,52becbc7-05e1-4551-8918-ece0ac291598,,,,Microsoft ML Buildings,2022-05-30T00:00:00.000Z,,visalia,False
e73dccfb-3f70-4deb-bd98-a9ba01423d7f,Meet Your Ice Maker,shopping,['business_manufacturing_and_supply'],DE,Newark,19702,2565 Pulaski Hwy,39.60433,-75.7526506,meta,2025-06-02T07:00:00.000Z,0.8831168831168831,06c832fd-b129-4884-b51c-0847060ebdde,Valero,outbuilding,roof,OpenStreetMap,2024-06-16T21:20:22.000Z,,philadelphia,False
1bc69424-1b8e-45de-8fbb-2755c2f428c3,Bruster's Real Ice Cream,ice_cream_shop,"['desserts', 'frozen_yoghurt_shop']",DE,Newark,19702,2394 Pulaski Hwy,39.6049167,-75.7444226,meta,2025-06-02T07:00:00.000Z,0.9879256218304756,,,,,,,,philadelphia,False
b1f92a4a-2e63-4381-8efa-afbdf2dc422a,Bongo's Ice Cream and Crepes,ice_cream_shop,"['diner', 'desserts']",DE,Bear,19701,1941 Pulaski Hwy,39.6095257,-75.7095496,meta,2025-06-02T07:00:00.000Z,0.9784508333782836,,,,,,,,philadelphia,False
81c8f622-bf32-4ace-9f8b-52d823156245,Cool J's Premium Water Ice,ice_cream_shop,"['desserts', 'restaurant']",DE,Bear,19701,1857 Pulaski Hwy,39.6109792,-75.7074265,meta,2025-06-02T07:00:00.000Z,0.9784508333782836,9ab165e9-5d10-4eae-b7cb-11d25e250efa,,,,OpenStreetMap,2019-10-28T15:31:08.000Z,,philadelphia,False
feec4af2-c18b-47d8-86d6-7ccf92ad43e7,Rita's Italian Ice and Frozen Custard,ice_cream_shop,"['restaurant', 'shaved_ice_shop']",DE,Bear,19701,1673 Pulaski Hwy,39.6199935,-75.6943127,meta,2025-06-02T07:00:00.000Z,0.9784508333782836,,,,,,,,philadelphia,False
5b6fdd79-4de9-4403-94ee-6e425eba829c,Fred Rust Ice Arena,ice_skating_rink,"['active_life', 'stadium_arena']",DE,Newark,19716,549 S College Ave,39.664505,-75.7506974,meta,2025-06-02T07:00:00.000Z,0.9784508333782836,667b5a87-3cec-444f-867a-971cac02fbf0,Fred Rust Ice Arena,,,OpenStreetMap,2023-11-23T23:45:49.000Z,,philadelphia,False
3a90bd63-2c7e-489c-b755-72be21a11777,Delaware Ice Hockey,amateur_sports_team,"['sports_club_and_league', 'mens_clothing_store']",DE,Newark,19716,549 S College Ave,39.6646368,-75.7505053,meta,2025-06-02T07:00:00.000Z,0.8860580325548478,667b5a87-3cec-444f-867a-971cac02fbf0,Fred Rust Ice Arena,,,OpenStreetMap,2023-11-23T23:45:49.000Z,,philadelphia,False
5e273d5c-28cf-488f-9890-8c4e2b4a4cc8,Patriot Ice Center,ice_skating_rink,"['skate_park', 'topic_concert_venue']",DE,Newark,19711,101 John F Campbell Dr,39.6822671,-75.7286275,meta,2025-06-02T07:00:00.000Z,0.9784508333782836,1f1d5969-6b15-4a8f-89ae-c26f8702102f,,,,Microsoft ML Buildings,2020-09-05T00:00:00.000Z,,philadelphia,False
51646423-c8fc-4f7c-b18b-88004e3afc98,Rita's Italian Ice,ice_cream_shop,"['restaurant', 'shaved_ice_shop']",DE,Newark,19711,600 Newark Shopping Ctr,39.6845512,-75.7442016,meta,2025-06-02T07:00:00.000Z,0.9784508333782836,d7c25107-bcf9-42e7-aa08-8e96d69c075b,Newark Shopping Center,commercial,retail,OpenStreetMap,2019-02-08T23:18:25.000Z,,philadelphia,False
6b4b222c-39f0-4c87-998b-b9c14b5e8be2,Bruster's Real Ice Cream,ice_cream_and_frozen_yoghurt,['restaurant'],DE,Newark,19711,1620 Capitol Trl,39.699849,-75.702103,Microsoft,2019-04-25T17:58:32.890Z,0.77,2528593d-ee4f-4c79-912d-42e6c8889945,Bruster's Ice Cream,commercial,,OpenStreetMap,2024-01-17T03:40:21.000Z,,philadelphia,False
1b506615-cb3d-4c66-a562-001b74d4f9e5,Dino's ice cream truck,ice_cream_shop,"['grocery_store', 'desserts']",DE,New Castle,19720,2 Nicole Ct,39.660993,-75.646807,meta,2025-06-02T07:00:00.000Z,0.3961437335670464,e9e34239-0cd8-49ec-ab65-c1275eef3c9c,,,,Microsoft ML Buildings,2020-09-05T00:00:00.000Z,,philadelphia,False
239ab5e3-4980-4b7f-abbe-1b16aa650efb,Rita's Italian Ice & Frozen Custard,desserts,"['ice_cream_and_frozen_yoghurt', 'shaved_ice_shop', 'restaurant']",DE,New Castle,19720,287 Christiana Rd Ste 19,39.6619983,-75.6398476,Microsoft,2023-05-08T23:34:22.830Z,0.77,,,,,,,,philadelphia,False
79c58120-8971-46b4-89c1-4c27901ea11d,Rita's Water Ice,ice_cream_shop,"['restaurant', 'desserts']",DE,New Castle,19720,287 Christiana Rd,39.6625922,-75.6403908,meta,2025-06-02T07:00:00.000Z,0.9784508333782836,,,,,,,,philadelphia,False
ff3fba1f-d893-4612-9dfc-78aaf2f483f9,Passion Driver.2 Dry Ice Restoration,automotive_services_and_repair,"['auto_restoration_services', 'automotive_repair']",DE,New Castle,19720,4b King Ct,39.6799275,-75.6276106,meta,2025-06-02T07:00:00.000Z,0.9300613496932516,,,,,,,,philadelphia,False
6181592b-f664-4de6-8db1-b843eba74777,Rivera Artisan Ice Cream,ice_cream_shop,"['diner', 'smoothie_juice_bar']",DE,New Castle,19720,527 E Basin Rd,39.6734969,-75.5864383,meta,2025-06-02T07:00:00.000Z,0.9784508333782836,0d5b15cb-51d6-4b17-9db5-d3d7ca09b034,,,,OpenStreetMap,2018-09-20T20:48:03.000Z,,philadelphia,False
c4c9ac5c-8ec4-4d16-9d1b-899ff0c4591b,La Guerrerense Ice Cream,ice_cream_shop,"['cafe', 'desserts']",DE,Wilmington,19804,2307 W Newport Pike,39.7149731,-75.6427691,meta,2025-06-02T07:00:00.000Z,0.9784508333782836,,,,,,,,philadelphia,False
ecae39a9-a4a3-4479-ab07-ff5f9f43e39a,Rita's Italian Ice and Frozen Custard,ice_cream_shop,"['shaved_ice_shop', 'desserts']",NJ,Pennsville,8070,277 N Broadway,39.670083,-75.50532,meta,2025-06-02T07:00:00.000Z,0.9784508333782836,,,,,,,,philadelphia,False
4154beed-84c7-4d48-adf6-1367f84c70b1,Woodstown Ice & Coal Co.,hardware_store,"['industrial_equipment', 'shopping']",NJ,Woodstown,8098,50 E Grant St,39.6538661,-75.3252194,meta,2025-06-02T07:00:00.000Z,0.9879256218304756,,,,,,,,philadelphia,False
bb4d96ad-d74d-4b60-869e-90ed0f5d6178,Reno's Ice Cream & Water Ice,ice_cream_shop,"['restaurant', 'desserts']",DE,Wilmington,19808,4748 Limestone Rd,39.7404166,-75.6918082,meta,2025-06-02T07:00:00.000Z,0.9784508333782836,869dd76e-96bd-424c-8411-f784e4094093,,commercial,retail,OpenStreetMap,2016-09-05T20:35:13.000Z,,philadelphia,False
8a0ee41d-77f9-4407-a830-6f912f6310bf,Rita's Italian Ice and Frozen Custard,ice_cream_shop,"['shaved_ice_shop', 'desserts']",DE,Hockessin,19707,7313 Lancaster Pike,39.7882377,-75.6933805,meta,2025-06-02T07:00:00.000Z,0.9784508333782836,,,,,,,,philadelphia,False
4d011571-7f48-4923-b229-7962f20abd61,Fusco’s Water Ice,ice_cream_shop,"['diner', 'shaved_ice_shop']",DE,Wilmington,19808,3926 Kirkwood Hwy,39.7283098,-75.6483113,meta,2025-06-02T07:00:00.000Z,0.9784508333782836,8b79a860-d128-4f02-adc2-37e3dd0ef645,,commercial,commercial,OpenStreetMap,2024-06-19T19:30:03.000Z,,philadelphia,False
ac4f22fb-4cf7-4077-a116-036c350c4563,Rita's Italian Ice & Frozen Custard,ice_cream_shop,"['restaurant', 'shaved_ice_shop']",DE,Wilmington,19808,3730 Kirkwood Hwy,39.7319435,-75.6419529,meta,2025-06-02T07:00:00.000Z,0.9784508333782836,,,,,,,,philadelphia,False
50550d72-5b3a-4518-af04-91ebb992acd8,A&B Ice,commercial_refrigeration,['shopping'],DE,Wilmington,19808,3626 Old Capitol Trl,39.7295469,-75.6336727,meta,2025-06-02T07:00:00.000Z,0.9784508333782836,,,,,,,,philadelphia,False
f0bfef14-620c-4ba6-8515-5cfd9389d7c0,Bruster's Real Ice Cream,ice_cream_shop,"['frozen_yoghurt_shop', 'restaurant']",DE,Wilmington,19808,3616 Kirkwood Hwy,39.7339866,-75.6371149,meta,2025-06-02T07:00:00.000Z,0.9879256218304756,,,,,,,,philadelphia,False
5ff6290a-25b4-4c46-861f-678c5bbe09cb,Avocado's from Mexico and Ice Cream,mexican_restaurant,"['restaurant', 'ice_cream_shop']",DE,Wilmington,19805,2405 Kirkwood Hwy,39.7383039,-75.6128331,meta,2025-06-02T07:00:00.000Z,0.9784508333782836,23181ba5-b503-4a79-8d5f-a95ad82e542d,,,,OpenStreetMap,2023-04-06T18:18:32.000Z,,philadelphia,False
18ae3284-f6a4-4e90-a3ba-d212352cbd13,Dally's Ice Cream,grocery_store,"['desserts', 'cafe']",DE,Wilmington,19805,1716 W Gilpin Dr,39.7452609,-75.6103203,meta,2025-06-02T07:00:00.000Z,0.9297091412742382,8907e885-70e6-4284-a4d6-f7280a8cdef5,,commercial,commercial,OpenStreetMap,2017-12-28T08:35:26.000Z,,philadelphia,False
d59b3b54-7431-4f78-8c38-71cc1852a174,La Bamba Ice Cream and Snacks,ice_cream_shop,"['restaurant', 'food_stand']",PA,New Garden Twp,19348,739 W Cypress St,39.8437614,-75.7282601,meta,2025-06-02T07:00:00.000Z,0.9784508333782836,93702568-d290-4d27-88ad-bc30bd1ae631,,,,OpenStreetMap,2019-02-01T20:27:15.000Z,,philadelphia,False
ba43bef1-3fe3-45d1-8b03-2b6a1b1a2e2a,La Michoacana Homemade Ice Cream,ice_cream_shop,"['restaurant', 'fast_food_restaurant']",PA,Kennett Square,19348,231 E State St,39.8475392,-75.7093625,meta,2025-06-02T07:00:00.000Z,0.9784508333782836,36c180f2-e764-4eaf-ae13-fe8adcb9eec8,La Michoacana Homemade Ice Cream,commercial,,OpenStreetMap,2024-05-07T15:53:58.000Z,,philadelphia,False
c401bf1e-9bd9-43ea-be02-b29cca0319ec,John M Cleveland Ice Rink,ice_skating_rink,['active_life'],PA,Kennett Square,19348,619 Byrd Rd,39.8642332,-75.7582003,meta,2025-06-02T07:00:00.000Z,0.7548172757475083,bb3ed6e5-e9f9-4c62-b338-708b3ff1a223,,,,Esri Community Maps,2024-10-15T00:00:00.000Z,,philadelphia,False
662f35a8-889b-403b-9019-666d78b47246,Rita's Italian Ice and Frozen Custard,ice_cream_shop,"['shaved_ice_shop', 'desserts']",PA,Kennett Square,19348,826 E Baltimore Pike,39.86075,-75.6837598,meta,2025-06-02T07:00:00.000Z,0.9784508333782836,061fee9c-a9f2-4720-9e84-1bb5e1473530,,,,OpenStreetMap,2019-03-22T21:32:51.000Z,,philadelphia,False
98485c82-3a1d-4321-809c-bee9a6574f71,Earth Wind Fire and Ice,shopping,"['flowers_and_gifts_shop', 'gift_shop']",PA,Pennsbury Twp,19317,640 Baltimore Pike,39.8730409,-75.6275007,meta,2025-06-02T07:00:00.000Z,0.9784508333782836,4b220c71-79de-47ae-bcb8-185503f9981c,,,,Microsoft ML Buildings,2020-10-14T00:00:00.000Z,,philadelphia,False
98485c82-3a1d-4321-809c-bee9a6574f71,Earth Wind Fire and Ice,shopping,"['flowers_and_gifts_shop', 'gift_shop']",PA,Pennsbury Twp,19317,640 Baltimore Pike,39.8730409,-75.6275007,meta,2025-06-02T07:00:00.000Z,0.9784508333782836,4c6e0446-0218-4ef6-a644-57364d25d09f,,,,Esri Community Maps,2024-10-15T00:00:00.000Z,,philadelphia,False
9b6e82dd-818e-4ec7-bd2a-ddeb39803304,Antique Ice Tool Museum,museum,"['history_museum', 'community_services_non_profits']",PA,East Bradford Twp,19382,825 Sconnelltown Rd,39.9459555,-75.6156331,meta,2025-06-02T07:00:00.000Z,0.9784508333782836,,,,,,,,philadelphia,False
c2e5de05-5577-4efb-9674-83c81363d57c,Bert's Homemade Ice Cream and Italian Ice,ice_cream_shop,"['diner', 'smoothie_juice_bar']",PA,West Chester,19380,660 Downingtown Pike,39.9595717,-75.6204289,meta,2025-06-02T07:00:00.000Z,0.9459263554653524,a142a7ae-6f29-454d-8570-f23c15940843,,,,OpenStreetMap,2022-07-07T08:02:46.000Z,,philadelphia,False
35fda49f-e2ec-4aa8-942b-2b5b93beb93e,Sal’s Ice - Premium Italian Sorbetto,desserts,"['smoothie_juice_bar', 'bakery']",PA,West Chester,19382,208 Carter Dr,39.94898,-75.58792,meta,2025-06-02T07:00:00.000Z,0.2456896551724137,e6f2b990-2b76-4df2-83b7-f17590379be4,,,,OpenStreetMap,2012-03-05T22:49:13.000Z,,philadelphia,False
dc1a5e45-ffe1-4d6d-8580-d085ee612a19,Kilwins Ice Cream - Chocolate - Fudge,desserts,"['ice_cream_and_frozen_yoghurt', 'restaurant']",PA,West Chester,19380,1 N Church St,39.95935649744336,-75.60562111060572,Microsoft,2025-05-02T11:20:31.503Z,0.77,f9549f18-a42c-4ba5-8781-28b8f613ef20,,commercial,retail,OpenStreetMap,2023-03-08T22:02:16.000Z,,philadelphia,False
dc1a5e45-ffe1-4d6d-8580-d085ee612a19,Kilwins Ice Cream - Chocolate - Fudge,desserts,"['ice_cream_and_frozen_yoghurt', 'restaurant']",PA,West Chester,19380,1 N Church St,39.95935649744336,-75.60562111060572,Microsoft,2025-05-02T11:20:31.503Z,0.77,d2ff52af-4cc6-4119-928b-634a27870b13,,,,OpenStreetMap,2012-02-29T19:40:26.000Z,,philadelphia,False
e882bdfa-f6a6-43a9-961c-da661722bc9d,Salty Paws Doggie Ice Cream Shop and Bakery,pet_store,['shopping'],PA,West Chester,19380,27 W Gay St,39.9602468,-75.6060547,meta,2025-06-02T07:00:00.000Z,0.9459263554653524,82d19ec2-c7c6-4a4c-94da-4077fe1f6dd4,,,,OpenStreetMap,2021-12-31T13:44:13.000Z,,philadelphia,False
e882bdfa-f6a6-43a9-961c-da661722bc9d,Salty Paws Doggie Ice Cream Shop and Bakery,pet_store,['shopping'],PA,West Chester,19380,27 W Gay St,39.9602468,-75.6060547,meta,2025-06-02T07:00:00.000Z,0.9459263554653524,99a1701e-4104-4c7d-93ff-da38b2bc9659,,,,OpenStreetMap,2021-12-31T13:44:13.000Z,,philadelphia,False
80c6559c-2404-4f09-95af-5eb27b3e98e3,Rita's Italian Ice and Frozen Custard,ice_cream_shop,"['shaved_ice_shop', 'desserts']",PA,West Chester,19380,323 E Gay St,39.9628643,-75.6002417,meta,2025-06-02T07:00:00.000Z,0.9784508333782836,,,,,,,,philadelphia,False
59b1fe9b-5d78-43ab-a890-28ef76c9c677,Rita's Italian Ice & Frozen Custard,ice_cream_shop,"['shaved_ice_shop', 'desserts']",PA,Downingtown,19335,84 W Lancaster Ave,40.0035547,-75.7081029,meta,2025-06-02T07:00:00.000Z,0.9784508333782836,68763eb6-70d6-4e7c-bf71-06b168484519,El Limon,commercial,,OpenStreetMap,2024-03-11T22:44:45.000Z,,philadelphia,False
3ffd2eb3-2bcd-4ddb-bd7a-fb87af08cf48,La Mexicana Ice Cream,ice_cream_shop,"['diner', 'smoothie_juice_bar']",PA,Downingtown,19335,895 E Lancaster Ave,40.0180804,-75.6865548,meta,2025-06-02T07:00:00.000Z,0.9879256218304756,acfa0475-6f4d-473c-b658-dfdbdb07a973,,commercial,retail,OpenStreetMap,2021-07-12T02:28:28.000Z,,philadelphia,False
46c56d15-c7ca-4afd-a1a0-fe2f598e699a,Rita's Italian Ice,ice_cream_shop,"['italian_restaurant', 'restaurant']",PA,Exton,19341,543 Wellington Sq,40.0617803,-75.6845362,meta,2025-06-02T07:00:00.000Z,0.9459263554653524,5101770b-0196-4e0e-a18f-b9060205c866,,commercial,commercial,OpenStreetMap,2021-02-19T05:38:00.000Z,,philadelphia,False
d6188772-9cd8-4f46-a6eb-ca85d79157a2,Eagleview Rita's Italian Ice & Frozen Custard,ice_cream_shop,"['shaved_ice_shop', 'desserts']",PA,Exton,19341,543 Wellington Square Eagleview Town Center Retail Building I,40.0619313,-75.6847459,meta,2025-06-02T07:00:00.000Z,0.7548172757475083,,,,,,,,philadelphia,False
4daf1ef4-3a7a-440e-80ae-37ccee86d254,Rita's Italian Ice & Frozen Custard,ice_cream_and_frozen_yoghurt,"['shaved_ice_shop', 'restaurant']",PA,Exton,19341,101 Woodcutter St,40.02353,-75.6287,Microsoft,2025-05-23T15:58:41.643Z,0.77,a1e38901-3944-4864-a3a9-6612205d6cbc,Rita's Italian Ice,commercial,,OpenStreetMap,2024-09-10T12:18:06.000Z,,philadelphia,False
94f2129f-7485-4ba4-b375-9472387e9c21,Rita's Italian Ice and Frozen Custard,ice_cream_shop,"['restaurant', 'shaved_ice_shop']",PA,Exton,19341,101 Woodcutter St,40.0234062,-75.6286613,meta,2025-06-02T07:00:00.000Z,0.9784508333782836,a1e38901-3944-4864-a3a9-6612205d6cbc,Rita's Italian Ice,commercial,,OpenStreetMap,2024-09-10T12:18:06.000Z,,philadelphia,False
1bc6ad39-22a9-4472-88cc-73d69dc8c738,Rita's Italian Ice & Frozen Custard,ice_cream_shop,"['italian_restaurant', 'restaurant']",DE,Wilmington,19804,317 N Maryland Ave,39.7316411,-75.5813915,meta,2025-06-02T07:00:00.000Z,0.9784508333782836,,,,,,,,philadelphia,False
e771874d-9d2e-417d-a32f-6260c64e156d,Dino's Ice Cream & Water Ice,ice_cream_shop,"['italian_restaurant', 'restaurant']",DE,Wilmington,19805,6 S Union St,39.746593,-75.5746437,meta,2025-06-02T07:00:00.000Z,0.9784508333782836,8d0d9ab3-f94f-429d-ab00-06aafd10d904,,,,Microsoft ML Buildings,2020-09-20T00:00:00.000Z,,philadelphia,False
989170b0-053a-48b4-b1fe-94317e3e296d,All Service Ice Corporation,commercial_refrigeration,"['professional_services', 'ice_cream_shop']",DE,Wilmington,19805,3005 Lancaster Ave,39.7511759,-75.5849612,meta,2025-06-02T07:00:00.000Z,0.9784508333782836,,,,,,,,philadelphia,True
5676d745-a6d2-4312-9edd-c2afd8d31dc9,Fusco's Italian Water Ice,ice_cream_shop,"['shaved_ice_shop', 'restaurant']",DE,Wilmington,19805,610 N Union St,39.7509869,-75.5716704,meta,2025-06-02T07:00:00.000Z,0.9784508333782836,bd2f6e95-5ab4-4520-ad6b-0692fedca81e,,,,Microsoft ML Buildings,2020-09-20T00:00:00.000Z,,philadelphia,False
3478ce93-d946-4f51-8115-765ac691b7ef,Bernie's Italian Water Ice,italian_restaurant,"['pizza_restaurant', 'desserts']",DE,Wilmington,19805,1701 W 8th St,39.750937,-75.5674862,meta,2025-06-02T07:00:00.000Z,0.9784508333782836,4447b52e-44f9-4cfa-a8ec-7204fa279a5e,,,,Microsoft ML Buildings,2020-09-20T00:00:00.000Z,,philadelphia,False
3478ce93-d946-4f51-8115-765ac691b7ef,Bernie's Italian Water Ice,italian_restaurant,"['pizza_restaurant', 'desserts']",DE,Wilmington,19805,1701 W 8th St,39.750937,-75.5674862,meta,2025-06-02T07:00:00.000Z,0.9784508333782836,d127c892-80eb-41cd-ab35-9a1a9e7af4f9,,,,Microsoft ML Buildings,2020-09-20T00:00:00.000Z,,philadelphia,False
ce9bff5f-b74a-4174-a38e-5d193c6df39d,Rockford Ice,meat_wholesaler,"['food', 'business_manufacturing_and_supply']",DE,Wilmington,19802,1027 W 25th St,39.7638924,-75.5439069,meta,2025-06-02T07:00:00.000Z,0.9300613496932516,78ff6116-e288-474f-a7aa-12ff3f9d5dcd,,,,Microsoft ML Buildings,2020-09-20T00:00:00.000Z,,philadelphia,False
9e427619-cf4b-4b77-b85c-834d1e488607,Wilmington Ice Arena,ice_skating_rink,"['stadium_arena', 'active_life']",DE,Wilmington,19803,1301 Carruthers Ln,39.769574,-75.538801,meta,2025-06-02T07:00:00.000Z,0.7548172757475083,921f17c8-fe70-48a6-b3eb-3f2065a10d02,,,,Microsoft ML Buildings,2020-09-20T00:00:00.000Z,,philadelphia,False
52b20937-7524-4b89-a8a5-0d666ffcd961,Ice Cream Shoppe,ice_cream_shop,"['hot_dog_restaurant', 'desserts']",DE,Wilmington,19809,700 Philadelphia Pike,39.7696215,-75.502087,meta,2025-06-02T07:00:00.000Z,0.9784508333782836,,,,,,,,philadelphia,False
eb5df08e-f6ae-4721-8dca-e6ef4bb82dc1,Rita's Italian Ice & Frozen Custard,desserts,"['ice_cream_and_frozen_yoghurt', 'restaurant']",DE,Wilmington,19803,2909 Concord Pike,39.7989113,-75.5476389,Microsoft,2023-05-08T23:34:05.610Z,0.77,,,,,,,,philadelphia,False
4d056f5f-75b3-48ba-8436-a2947278a26d,Rita's Italian Ice & Frozen Custard,ice_cream_shop,"['restaurant', 'shaved_ice_shop']",DE,Wilmington,19803,2909 Concord Pike,39.7989958,-75.547416,meta,2025-06-02T07:00:00.000Z,0.9784508333782836,01956bc3-dc29-40a5-a569-856a28f07ee2,Rita's Italian Ice,commercial,,OpenStreetMap,2024-01-17T03:40:21.000Z,,philadelphia,False
