id_left,primary_name_left,primary_category,alternate_category,id_right,primary_name_right,subtype,class,source_city,region,locality,zipcode,address,latitude,longitude,plc_source_dataset,plc_source_update_time,plc_source_confidence,bldg_dataset,bldg_update_time,bldg_confidence,is_office_by_pipeline
64e34731-ad45-424b-b6b0-67a0f633d4fc,Leidos QTC Health Services,hospital,"['health_and_medical', 'pharmacy']",2c8d141d-b459-4ad7-961a-452a0ca8478d,Physician's and Surgeon's Building,commercial,office,oklahoma-city,OK,Oklahoma City,73103.0,1211 N Shartel Ave,35.4804312,-97.5261857,meta,2025-06-02T07:00:00.000Z,0.9459263554653524,OpenStreetMap,2013-11-24T22:45:44.000Z,,True
b62bb330-c6c6-4833-83f6-4ab01e0218d7,Leidos QTC Health Services,hospital,"['doctor', 'health_and_medical']",ac4967c2-fa6a-499b-88e7-1333071c1c98,,commercial,office,houston,TX,Houston,77074.0,6671 Southwest Fwy,29.7146951,-95.4989821,meta,2025-06-02T07:00:00.000Z,0.9784508333782836,OpenStreetMap,2020-09-12T21:21:13.000Z,,True
0de43fe7-f98d-41e9-ba9b-afe701a2846e,Leidos,engineering_services,"['event_planning', 'professional_services']",ca8e19af-6453-4b88-83c8-6660fdd949a5,,,,syracuse,NY,Salina,13212.0,301 Plainfield Rd,43.099926,-76.1603499,meta,2025-06-02T07:00:00.000Z,0.8860580325548478,OpenStreetMap,2021-06-01T00:19:56.000Z,,True
23644fc6-12aa-49d7-988b-dfeeebceacc5,Leidos,professional_services,['bar'],d1e7426d-42a4-4bfb-8912-0c192cd12f59,,commercial,office,harrisburg,PA,Camp Hill,17011.0,4640 Trindle Rd,40.230151,-76.957045,meta,2025-06-02T07:00:00.000Z,0.296943231441048,OpenStreetMap,2023-05-24T13:07:53.000Z,,False
21ea97cf-d92c-403d-b49d-4855de5b7b99,Leidos,engineering_services,"['professional_services', 'b2b_science_and_technology']",fa874b1c-ffc3-4cf5-9984-90d5da4aaae6,,,,harrisburg,PA,Harrisburg,17112.0,6310 Allentown Blvd,40.3256612,-76.7799457,meta,2025-06-02T07:00:00.000Z,0.9300613496932516,OpenStreetMap,2009-08-11T22:31:48.000Z,,False
cf6e2646-5454-4355-a5ad-61babf073aa1,Leidos Health,hospital,"['professional_services', 'physical_therapy']",ecaa4f58-e2c8-47ab-bc5e-86cbd50be73d,,,,indianapolis,IN,Westfield,46074.0,705 E Main St,40.0424843,-86.1178013,meta,2025-06-02T07:00:00.000Z,0.9300613496932516,OpenStreetMap,2018-12-06T04:13:44.000Z,,False
f1451aed-5cbc-4ce2-9d70-4c5c13a76405,Leidos QTC Health Services,hospital,"['pharmacy', 'laboratory_testing']",76a8d543-f67c-47ff-a7c9-fc8c8ea0b2aa,Potomac Medical Plaza,commercial,office,denver,CO,Aurora,80012.0,1550 S Potomac St,39.688967,-104.8306039,meta,2025-06-02T07:00:00.000Z,0.9784508333782836,OpenStreetMap,2022-04-11T13:13:26.000Z,,True
e0d10247-10ad-4296-a2d8-186fdd460386,Leidos,professional_services,['bar'],ffe8249f-6b55-4bf5-a361-ddff038c0290,,commercial,office,denver,CO,Aurora,80011.0,3950 Lewiston St,39.7712302,-104.7989878,meta,2025-06-02T07:00:00.000Z,0.9297091412742382,OpenStreetMap,2022-03-08T15:09:25.000Z,,False
9a5686e6-7c1d-4d22-9f0b-cb883518d036,Canyon Medical Group and Leidos QTC Health Services,hospital,"['doctor', 'health_and_medical']",54f92ad1-6d14-4824-886d-2d5377ee9e9f,,,,los-angeles,CA,Los Angeles,91303.0,22030 Sherman Way,34.2007745,-118.6071679,meta,2025-06-02T07:00:00.000Z,0.9784508333782836,OpenStreetMap,2021-12-24T08:31:10.000Z,,False
1491e845-480b-4d2b-9228-9aefcdf89202,Leidos,professional_services,"['shopping', 'financial_service']",a61ce30c-4084-453b-a64f-afcb970c1ad1,,,,orlando,FL,Orlando,32822.0,6333 McCoy Rd,28.453487,-81.294159,meta,2025-06-02T07:00:00.000Z,0.296943231441048,OpenStreetMap,2018-07-17T10:30:03.000Z,,False
1d332d7c-a7b0-4177-a905-62de9efe5d5f,Leidos QTC Health Services,health_and_medical,"['laboratory_testing', 'public_and_government_association']",2013a50e-3b6b-4195-be3a-7f0c9f161de1,,,,orlando,FL,Orlando,32835.0,1603 S Hiawassee Rd,28.5227443,-81.4706266,meta,2025-06-02T07:00:00.000Z,0.9459263554653524,OpenStreetMap,2018-05-14T21:19:04.000Z,,False
09f070aa-4bbd-4efe-aeae-085dca17341a,Leidos,engineering_services,"['public_service_and_government', 'commercial_industrial']",7b3c3b89-b63b-4953-877c-23e958c34777,Leidos,commercial,commercial,orlando,FL,Orlando,32826.0,12901 Science Dr,28.5795752,-81.1954686,meta,2025-06-02T07:00:00.000Z,0.9784508333782836,OpenStreetMap,2018-02-11T17:49:35.000Z,,False
5efa3fd9-937d-4eab-a645-ef1851e8291f,Leidos Dynetics,software_development,"['business_to_business_services', 'engineering_services']",fdb4a936-d238-4262-aa35-e119f6534b0c,Leidos - Solution Complex,commercial,commercial,huntsville,AL,Huntsville,35806.0,1002 Explorer Blvd NW,34.7364306,-86.6835296,meta,2025-06-02T07:00:00.000Z,0.3961437335670464,OpenStreetMap,2024-04-12T03:22:06.000Z,,True
99df1560-d650-4d32-99dd-88099787cc4d,Leidos,event_planning,"['business', 'it_service_and_computer_repair']",,,,,huntsville,AL,Huntsville,35806.0,6723 Odyssey Dr NW,34.7212696,-86.6755876,meta,2025-06-02T07:00:00.000Z,0.9300613496932516,,,,False
afe264b3-53ce-4553-af3c-7246810e5e17,Leidos,engineering_services,"['it_service_and_computer_repair', 'professional_services']",31d7c5de-bb0d-4af8-9575-2711f6780552,RTC West,commercial,office,washington-dc,VA,Reston,20190.0,12100 Sunset Hills Rd,38.9551766,-77.3638452,meta,2025-06-02T07:00:00.000Z,0.9204819277108434,OpenStreetMap,2022-05-17T14:43:36.000Z,,False
909ab4e2-d744-4654-8a4f-09cf94c15b34,Leidos,contractor,,9629ebb3-4560-4558-bc31-3e7a50592377,One Freedom Square,,,washington-dc,VA,Reston,20190.0,11955 Freedom Dr,38.95924,-77.35889,meta,2025-06-02T07:00:00.000Z,0.8980891719745223,OpenStreetMap,2023-10-01T17:47:29.000Z,,False
624a23df-52dd-4770-b2b2-e3f8362007c1,Leidos,contractor,"['home_improvement_store', 'bar']",,,,,washington-dc,VA,Alexandria,22310.0,6909 Metro Park Dr,38.7683132,-77.1560856,meta,2025-06-02T07:00:00.000Z,0.9415384615384615,,,,False
34e6d38a-ee16-42a8-952d-07b947b45349,"CloudShield, a Leidos Company",event_planning,"['engineering_services', 'professional_services']",d77fe3b0-2469-4f7e-9337-4088fd62e962,,commercial,commercial,washington-dc,VA,McLean,22102.0,8301 Greensboro Dr,38.9239986,-77.2332034,meta,2025-06-02T07:00:00.000Z,0.242152466367713,OpenStreetMap,2022-06-23T15:04:26.000Z,,True
7b6fcb23-97cc-4053-b1f5-76c8cc0933d7,Leidos,shopping,"['ice_cream_shop', 'professional_services']",1058f123-a7de-4a73-b869-ef3f13cea4ac,,commercial,office,washington-dc,MD,Rockville,20850.0,9231 Corporate Blvd,39.108476,-77.191637,meta,2025-06-02T07:00:00.000Z,0.3376623376623376,OpenStreetMap,2024-01-16T08:15:13.000Z,,False
02e1bc6e-915e-483a-93cb-f89263dfbe32,Leidos,professional_services,['bar'],fbed39d3-d93d-4441-800c-b2dc7164d81d,,,,washington-dc,MD,Gaithersburg,20879.0,700 N Frederick Ave,39.152209,-77.216409,meta,2025-06-02T07:00:00.000Z,0.3961437335670464,OpenStreetMap,2024-10-01T08:15:32.000Z,,False
fd9d273a-5a6c-4efc-a077-1ba604fa78a3,Leidos,professional_services,"['bar', 'shopping']",bcd04195-0123-483d-8133-de2b0d5bef33,,,,washington-dc,MD,Columbia,21046.0,7035 Albert Einstein Dr,39.1760999,-76.8082742,meta,2025-06-02T07:00:00.000Z,0.9204819277108434,OpenStreetMap,2021-11-09T07:50:44.000Z,,False
fe548073-b800-4c4f-bc25-9f0c2ffa8130,Leidos,professional_services,"['b2b_science_and_technology', 'information_technology_company']",64e038c6-89be-41bb-94dd-fd53572bb72a,,commercial,office,washington-dc,MD,Columbia,21046.0,6841 Benjamin Franklin Dr,39.1770348,-76.7955742,meta,2025-06-02T07:00:00.000Z,0.9297091412742382,OpenStreetMap,2023-07-25T01:45:07.000Z,,True
0972f563-9a47-42f4-b925-2f924b516c76,Leidos QTC Health Services,health_and_medical,"['business', 'shopping']",f2176901-56f9-4a43-b8fa-b6ac1b7a76a3,,commercial,retail,chicago,IL,Bedford Park,60638.0,7456 S State Rd,41.7568913,-87.7442457,meta,2025-06-02T07:00:00.000Z,0.9459263554653524,OpenStreetMap,2023-03-28T03:48:19.000Z,,False
2ed122ed-8f90-477f-b52e-55b8a14f35a1,Leidos,engineering_services,"['business_management_services', 'business_manufacturing_and_supply']",980d0698-a387-46e9-b953-66914d6bf7dd,,,,san-diego,CA,San Diego,92121.0,4161 Campus Point Ct,32.8897366,-117.2259767,meta,2025-06-02T07:00:00.000Z,0.9459263554653524,OpenStreetMap,2022-04-07T22:31:53.000Z,,False
252e4ef9-1af2-4faf-80ef-ab6fecf9b84c,Leidos QTC Health Services,hospital,"['doctor', 'pharmacy']",1371ecf6-758e-4ada-ab0d-eb14cda5c28b,Gyft Clinic,commercial,commercial,seattle,WA,Tacoma,98405.0,2201 S 19th St,47.2429731,-122.46611,meta,2025-06-02T07:00:00.000Z,0.9784508333782836,OpenStreetMap,2025-03-19T03:53:59.000Z,,False
d3b65aec-dcdc-4faf-9cdb-6880d1ee14f6,Leidos QTC Health Services,hospital,"['health_and_medical', 'doctor']",45e250ed-ce9b-4773-b816-80798f0a93ca,,,,seattle,WA,Tukwila,98168.0,13030 Military Rd S,47.4860308,-122.2950619,meta,2025-06-02T07:00:00.000Z,0.9300613496932516,OpenStreetMap,2024-03-28T19:44:28.000Z,,False
28e13536-891d-4c71-9c3e-371d3b8f75c5,Leidos QTC Health Services,health_and_medical,"['diagnostic_services', 'doctor']",91eeaede-a753-447b-a9d2-66543de98952,,,,minneapolis,MN,Golden Valley,55422.0,5851 Duluth St,44.9988227,-93.3543771,meta,2025-06-02T07:00:00.000Z,0.9204819277108434,OpenStreetMap,2017-03-15T00:22:37.000Z,,False
d10e4254-4fc0-4c59-9003-83c8a27620ce,Leidos QTC Health Services,health_and_medical,"['doctor', 'pharmacy']",30d77ff0-0e7c-49b4-a571-83e73e642be7,North Spokane Professional Building,commercial,office,spokane,WA,Spokane,99208.0,5901 N Lidgerwood St,47.7118012,-117.406971,meta,2025-06-02T07:00:00.000Z,0.9297091412742382,OpenStreetMap,2025-04-01T17:11:29.000Z,,True
f89d02bf-2336-403c-8a98-11b6321adf00,Leidos,professional_services,"['bar', 'shopping']",cf418c54-aa8a-45bb-887b-a03455f3c22d,Leidos,commercial,commercial,st-louis,MO,St Louis,63104.0,2337 S Grand Blvd,38.6084368,-90.2413758,meta,2025-06-02T07:00:00.000Z,0.9300613496932516,OpenStreetMap,2021-10-29T05:35:35.000Z,,False
c831e94e-833a-411d-b52c-185580bfea03,Leidos,engineering_services,['professional_services'],ebbb9674-d1f2-45f2-aa0d-f7321007f7fd,,,,st-louis,MO,Earth City,63045.0,13397 Lakefront Dr,38.7673935,-90.4561304,meta,2025-06-02T07:00:00.000Z,0.9415384615384615,OpenStreetMap,2016-04-12T21:13:48.000Z,,False
c220601f-57d9-4f0e-a7e2-414a9785f728,Leidos,engineering_services,"['bar', 'professional_services']",916b69d4-b95f-44a6-9755-203aee06f6c5,,,,boston,MA,Framingham,1701.0,550 Cochituate Rd,42.3078391,-71.3912651,meta,2025-06-02T07:00:00.000Z,0.9297091412742382,OpenStreetMap,2023-06-14T13:11:06.000Z,,False
fd9d273a-5a6c-4efc-a077-1ba604fa78a3,Leidos,professional_services,"['bar', 'shopping']",bcd04195-0123-483d-8133-de2b0d5bef33,,,,baltimore,MD,Columbia,21046.0,7035 Albert Einstein Dr,39.1760999,-76.8082742,meta,2025-06-02T07:00:00.000Z,0.9204819277108434,OpenStreetMap,2021-11-09T07:50:44.000Z,,False
fe548073-b800-4c4f-bc25-9f0c2ffa8130,Leidos,professional_services,"['b2b_science_and_technology', 'information_technology_company']",64e038c6-89be-41bb-94dd-fd53572bb72a,,commercial,office,baltimore,MD,Columbia,21046.0,6841 Benjamin Franklin Dr,39.1770348,-76.7955742,meta,2025-06-02T07:00:00.000Z,0.9297091412742382,OpenStreetMap,2023-07-25T01:45:07.000Z,,True
