id_left,primary_name_left,primary_category,alternate_category,id_right,primary_name_right,subtype,class,source_city,region,locality,zipcode,address,latitude,longitude,plc_source_dataset,plc_source_update_time,plc_source_confidence,bldg_dataset,bldg_update_time,bldg_confidence,is_office_by_pipeline
a6e1e046-98b6-4a20-9fe1-e0402e7b0991,Lennar at The Cascades,real_estate,['real_estate_agent'],,,,,philadelphia,DE,Newark,19702.0,2961 Pulaski Hwy,39.60557,-75.774697,meta,2025-06-02T07:00:00.000Z,0.5662921348314607,,,,False
378dd27e-b587-4b53-ae26-f3318031d962,Lennar PA/DE,real_estate,,,,,,philadelphia,,,0.0,,39.9136863,-75.3878403,meta,2025-06-02T07:00:00.000Z,0.3313953488372093,,,,False
8805fb44-3c18-4ad5-b9a6-ddd8b9013600,Lennar at Iron Gate,real_estate,['real_estate_agent'],,,,,philadelphia,NJ,Sicklerville,8081.0,1600 Williamstown Erial Rd,39.7654134,-75.0026225,meta,2025-06-02T07:00:00.000Z,0.9784508333782836,,,,False
b491b77d-1236-41a4-a9f6-18904ca062e3,Lennar Homes,home_developer,"['real_estate', 'professional_services']",53617c6b-533b-4371-ade0-ffc4156a63c5,Glenhardie Corporate Center Two,commercial,commercial,philadelphia,PA,Tredyffrin Twp,19087.0,1285 Drummers Ln,40.0861135,-75.4134689,meta,2025-06-02T07:00:00.000Z,0.8540983606557377,OpenStreetMap,2015-02-07T06:08:15.000Z,,False
bdc5681d-ddf4-4d6b-9e68-1e5e74965028,Lennar at Upper Providence,real_estate,['real_estate_service'],,,,,philadelphia,,,19460.0,Rivercrest Drive,40.1515528,-75.4880641,meta,2025-06-02T07:00:00.000Z,0.3376623376623376,,,,False
47975a87-9bf4-484a-84ce-9d3383d2906d,Lennar at Summers Landing West,real_estate,['construction_services'],,,,,minneapolis,MN,Cottage Grove,55016.0,6720 93rd St S,44.8145171,-92.9728053,meta,2025-06-02T07:00:00.000Z,0.9459263554653524,,,,False
3d7ee155-753a-4737-beb4-3a073be00dad,Lennar at Stonehaven,retirement_home,"['contractor', 'real_estate_agent']",6e2980d8-bd9b-4c9d-8839-a03a3a34f4aa,,residential,house,minneapolis,MN,Eagan,55123.0,3603 Springwood Ct,44.826076,-93.140828,meta,2025-06-02T07:00:00.000Z,0.296943231441048,OpenStreetMap,2017-09-23T05:42:21.000Z,,False
ec453995-fb27-4e58-9def-90e782ac3d55,Lennar at Highlands at Settlers Ridge,real_estate,"['construction_services', 'real_estate_agent']",de215586-3acd-4b54-a96b-05be17be368a,,,,minneapolis,MN,Inver Grove Heights,55077.0,7214 Auburn Ln,44.8445919,-93.0860962,meta,2025-06-02T07:00:00.000Z,0.9204819277108434,Microsoft ML Buildings,2023-09-13T00:00:00.000Z,0.9926999807357788,False
34113b01-be90-464d-8523-920075df16b0,Lennar at Calarosa,construction_services,['real_estate'],12e54498-2b83-4e59-859a-d15ecee402b9,,,,minneapolis,MN,Cottage Grove,55016.0,8200 63rd St S,44.8558061,-92.9398384,meta,2025-06-02T07:00:00.000Z,0.9784508333782836,OpenStreetMap,2025-05-04T16:35:22.000Z,,False
abd3ba26-cfab-4c8c-9602-687e4c24ca74,Lennar at Bridlewood Farms Landmark Collection,real_estate_agent,['real_estate'],348f254e-cd61-4d8b-9171-af6395e3989b,,,,minneapolis,MN,Woodbury,55129.0,4785 Stable View Dr,44.87961,-92.93951,meta,2025-06-02T07:00:00.000Z,0.4929396662387676,Microsoft ML Buildings,2023-09-13T00:00:00.000Z,0.973900020122528,False
ccc87d33-aa08-4dca-a23c-656e5211a702,Lennar at East Pointe,real_estate,"['construction_services', 'professional_services']",,,,,minneapolis,MN,Woodbury,55129.0,5022 Useppa Trl,44.8761813,-92.8910094,meta,2025-06-02T07:00:00.000Z,0.9204819277108434,,,,False
0a48b551-b1c0-4dc7-884a-a60b155d555f,Lennar at Savona,real_estate_agent,['real_estate'],da0c404f-5a74-4d84-9399-a3ae4a720d0c,,,,minneapolis,MN,Lake Elmo,55042.0,9768 7th St N,44.954704,-92.908934,meta,2025-06-02T07:00:00.000Z,0.296943231441048,Microsoft ML Buildings,2023-09-13T00:00:00.000Z,0.9785000085830688,False
9a14e5f0-7a63-4fb0-a5b3-1f763b32f3fd,Lennar at Spancil Hill,construction_services,['real_estate'],,,,,minneapolis,MN,Woodbury,55129.0,968 Spancil Hill Dr,44.9346161,-92.8771662,meta,2025-06-02T07:00:00.000Z,0.9415384615384615,,,,False
78c51aa4-df25-497c-88ad-0e14a58b278d,Lennar at Royal Club,real_estate,"['construction_services', 'professional_services']",10e17695-fde7-4866-9dac-a509fdad59ee,,,,minneapolis,MN,Lake Elmo,55042.0,1491 Palmer Dr N,44.9705661,-92.8756857,meta,2025-06-02T07:00:00.000Z,0.9297091412742382,Microsoft ML Buildings,2023-09-13T00:00:00.000Z,0.9878000020980836,False
f3cb9a77-ddbc-467e-b9bd-b417f11e3676,Lennar at Ravinia,construction_services,"['real_estate', 'real_estate_agent']",,,,,minneapolis,MN,Corcoran,55340.0,6570 Bridle Path,45.0731052,-93.5247953,meta,2025-06-02T07:00:00.000Z,0.7548172757475083,,,,False
38864a54-d4b6-4072-9191-f24442de8757,Lennar Homes Minnesota,home_developer,['builders'],,,,,minneapolis,MN,Plymouth,55446.0,16305 36th Ave N Ste 600,45.0203572,-93.4885924,Microsoft,2013-01-28T22:38:28.563Z,0.77,,,,False
73867b87-c8ad-43ce-a2ae-d8d9d409180e,Lennar Minnesota Division Office,contractor,"['real_estate', 'real_estate_agent']",febbbfb4-8786-4bf6-b05d-7647d0b962ca,,,,minneapolis,MN,Plymouth,55446.0,16305 36th Ave N,45.02072,-93.489071,meta,2025-06-02T07:00:00.000Z,0.7548172757475083,OpenStreetMap,2016-10-16T21:25:07.000Z,,True
b5639dc3-7708-4157-a1db-25683c68b093,Lennar Minnesota,marriage_or_relationship_counselor,['construction_services'],447da717-e4ab-4cc2-9b20-732305d844a8,,,,minneapolis,MN,Plymouth,55446.0,16355 36th Ave N,45.0216828,-93.4878642,meta,2025-06-02T07:00:00.000Z,0.8384615384615385,OpenStreetMap,2016-10-16T21:26:39.000Z,,False
215a065a-4100-49da-a485-aeefd87994b0,Lennar at Hamlets at Rush Creek,hotel,"['business', 'construction_services']",,,,,minneapolis,MN,Maple Grove,55311.0,18505 70th Ave N,45.08199,-93.5149413,meta,2025-06-02T07:00:00.000Z,0.296943231441048,,,,False
c86e7d87-ba0e-4a7e-a7f4-6f4f150f6e76,Lennar at Weston Commons,construction_services,"['professional_services', 'real_estate']",6305cd59-433b-49fb-8f63-e910bf7d8574,,,,minneapolis,MN,Maple Grove,55369.0,10529 Weston Way,45.1457619,-93.4843235,meta,2025-06-02T07:00:00.000Z,0.909823677581864,Microsoft ML Buildings,2023-09-13T00:00:00.000Z,0.995299994945526,False
46c3ee94-ea43-4b94-912b-d21a40411dc5,Lennar at Sundance Greens,construction_services,['real_estate'],7887e9c9-2118-4f30-bbfb-b95923ce4790,,,,minneapolis,MN,Osseo,55369.0,14521 109th Ave N,45.1563989,-93.4643364,meta,2025-06-02T07:00:00.000Z,0.9415384615384615,Microsoft ML Buildings,2023-09-13T00:00:00.000Z,0.9850000143051147,False
115e4699-3aaf-4783-9614-21e83ff48387,Lennar at Wicklow Cove,real_estate,['construction_services'],,,,,minneapolis,MN,Blaine,55434.0,1148 111th Ave NE,45.1703307,-93.2415763,meta,2025-06-02T07:00:00.000Z,0.3961437335670464,,,,False
8f227a6d-6b17-43bb-b21d-ae7b6da86cf4,Lennar at Edgewater Discovery Collection,real_estate,['construction_services'],10e6fc61-c60b-4909-aa90-283db0c4761f,,,,minneapolis,MN,Dayton,55327.0,13848 144th Ave N,45.21375,-93.45766,meta,2025-06-02T07:00:00.000Z,0.4929396662387676,Microsoft ML Buildings,2023-09-13T00:00:00.000Z,0.9836999773979188,False
6e58fd66-f6ba-460b-9b8d-3ef5b5ec062a,Lennar at Lynwood,real_estate,"['construction_services', 'real_estate_agent']",4b3e086e-fc6c-48cc-8cf0-e41e2cb8083b,,,,minneapolis,MN,Ramsey,55303.0,8014 149th Ln NW,45.2416853,-93.4707442,meta,2025-06-02T07:00:00.000Z,0.9300613496932516,Microsoft ML Buildings,2023-09-13T00:00:00.000Z,0.987600028514862,False
e2e11a02-a09a-461a-9190-450685723c96,Lennar at Watermark,real_estate,['real_estate_agent'],27ecbe22-7f9c-4f11-9fe7-5c34aaa9cdd1,,residential,terrace,minneapolis,MN,Lino Lakes,55038.0,Rehbein and County Road 21,45.1680228,-93.0350643,meta,2025-06-02T07:00:00.000Z,0.4929396662387676,OpenStreetMap,2024-08-04T20:44:05.000Z,,False
ec7235b0-472f-4e89-a9e3-e87db41a3025,Lennar at Lexington Cove,construction_services,['real_estate'],0b395101-2687-4f2b-9c74-6a6a8a7944ae,,,,minneapolis,MN,Blaine,55449.0,12911 Lexington Ave NE,45.2033765,-93.1618111,meta,2025-06-02T07:00:00.000Z,0.5662921348314607,Microsoft ML Buildings,2023-09-13T00:00:00.000Z,0.977500021457672,False
08547a7a-a20d-40e2-82b4-77095247004b,Lennar at The Riviera,real_estate,"['real_estate_agent', 'construction_services']",e0b7382a-3dae-4542-a7d6-e93a123294f6,,,,miami,FL,Homestead,33033.0,328th St SW & 152nd Ave,25.458061,-80.4366994,meta,2025-06-02T07:00:00.000Z,0.7548172757475083,OpenStreetMap,2024-02-04T12:19:40.000Z,,False
38aa4868-8c63-452c-ace4-91bb890a0992,Lennar at Avalon Square,home_developer,"['construction_services', 'professional_services']",,,,,miami,FL,Princeton,33032.0,SW 242nd St & SW 129th Ave,25.5423695,-80.3997016,meta,2025-06-02T07:00:00.000Z,0.9415384615384615,,,,False
eae4afbf-18a3-41b3-83da-1f78c5e7fc31,Lennar at Siena Reserve,real_estate,['construction_services'],dd487ad4-599e-4e3f-ae3b-1bcef19769d8,,residential,house,miami,FL,Miami,33170.0,SW 232 St & SW 130 Ave,25.5533808,-80.4018745,meta,2025-06-02T07:00:00.000Z,0.9459263554653524,OpenStreetMap,2024-09-26T22:49:48.000Z,,False
eae4afbf-18a3-41b3-83da-1f78c5e7fc31,Lennar at Siena Reserve,real_estate,['construction_services'],dd336f88-f155-45c5-a49b-d0e93ab4214a,,residential,house,miami,FL,Miami,33170.0,SW 232 St & SW 130 Ave,25.5533808,-80.4018745,meta,2025-06-02T07:00:00.000Z,0.9459263554653524,OpenStreetMap,2024-09-26T22:49:48.000Z,,False
3c264348-153f-447e-82a6-20d6fc5d29f8,Lennar at Siena Estates,construction_services,"['professional_services', 'real_estate']",,,,,miami,FL,Miami,33170.0,12705 SW 232nd St,25.5517121,-80.3972568,meta,2025-06-02T07:00:00.000Z,0.9459263554653524,,,,False
68a1a6cf-b9ac-4a28-8910-a0864d85794f,Lennar at Silver Palms,home_improvement_store,"['retirement_home', 'contractor']",e3bb2892-ccc1-4b4b-859e-d6d6662bd547,,,,miami,FL,Homestead,33032.0,23770 SW 115th Ave,25.5461537,-80.3788072,meta,2025-06-02T07:00:00.000Z,0.9459263554653524,OpenStreetMap,2022-05-25T16:27:51.000Z,,False
381c7fcf-12f2-4ff4-9315-94c7673b5d42,Lennar at Salerno,real_estate,"['construction_services', 'professional_services']",,,,,miami,,,33187.0,"SW 160 St &, SW 152nd Ct",25.6177908,-80.4324084,meta,2025-06-02T07:00:00.000Z,0.9204819277108434,,,,False
50ff756d-fc3f-48dd-b2e2-8697015bea1f,Lennar at Serenity,real_estate_agent,"['real_estate', 'appliance_store']",b4e84f95-791d-4192-a351-6de503021579,,,,miami,FL,Miami,33196.0,15909 SW 136th Way,25.6387518,-80.4520107,meta,2025-06-02T07:00:00.000Z,0.3376623376623376,OpenStreetMap,2020-07-28T02:49:32.000Z,,False
b648e36d-8d64-4b1a-8d28-dbe0398a0b13,Lennar at Serenity,home_improvement_store,['real_estate'],8cf83cc3-14b9-494b-86bf-c52572aa171d,,residential,house,miami,FL,Miami,33196.0,15492 SW 119th Ter,25.65517,-80.446217,meta,2025-06-02T07:00:00.000Z,0.242152466367713,OpenStreetMap,2019-05-05T11:15:40.000Z,,False
b3f40e81-05e7-482e-8469-87cc2abadbbd,Lennar at Gardens by The Hammocks,real_estate,"['professional_services', 'landmark_and_historical_building']",f62edf2a-79a6-413c-86d7-d9cb17aca090,,,,miami,FL,Miami,33196.0,11656 SW 151st Ave,25.6582606,-80.4381356,meta,2025-06-02T07:00:00.000Z,0.9204819277108434,OpenStreetMap,2020-07-29T23:52:34.000Z,,False
fad4ec84-7399-41f4-ba1e-3d928d011c71,Lennar at Verdana Estates,real_estate,['real_estate_agent'],,,,,miami,FL,Miami,33177.0,18897 SW 137th Ave,25.59116,-80.41318,meta,2025-06-02T07:00:00.000Z,0.5662921348314607,,,,False
f6060608-be9e-48a8-9724-7b729caa1b4e,Lennar at Kendall Square,real_estate,['landmark_and_historical_building'],749faabc-54f5-4200-90ee-7b13ce5f4a80,,,,miami,FL,Miami,33196.0,16985 SW 90th Ter,25.683421,-80.469776,meta,2025-06-02T07:00:00.000Z,0.3376623376623376,Microsoft ML Buildings,2021-04-02T00:00:00.000Z,0.9954000115394592,False
f6060608-be9e-48a8-9724-7b729caa1b4e,Lennar at Kendall Square,real_estate,['landmark_and_historical_building'],be76176c-a2b2-4571-96c0-309bb741705c,,residential,house,miami,FL,Miami,33196.0,16985 SW 90th Ter,25.683421,-80.469776,meta,2025-06-02T07:00:00.000Z,0.3376623376623376,OpenStreetMap,2019-05-05T22:34:39.000Z,,False
52d8528e-a96e-4f26-a635-b830a9b7ba67,Lennar at Galiano Pointe,construction_services,['real_estate'],,,,,miami,FL,Miami,33177.0,SW 184th St & SW 134th Ave,25.67191,-80.36518,meta,2025-06-02T07:00:00.000Z,0.5662921348314607,,,,False
45fe7364-2b93-4735-afc8-035dfdf2223b,Lennar at Sanctuary Grande,home_developer,"['construction_services', 'professional_services']",f374a2c6-f7b2-4092-8153-cfbb4fdc701c,,residential,house,miami,FL,Kendall,33176.0,SW 112th Street & SW 92nd Ave,25.6665079,-80.3422995,meta,2025-06-02T07:00:00.000Z,0.9415384615384615,OpenStreetMap,2024-07-09T17:33:36.000Z,,False
0d098054-f8a0-40a4-bc51-5f60128fb882,Lennar Homes Dade Div,contractor,"['real_estate_agent', 'real_estate']",ed8d2abc-8df2-4eac-b1a2-e05ac16b0c6d,,,,miami,FL,Miami,33172.0,760 NW 107th Ave,25.776926,-80.37042,meta,2025-06-02T07:00:00.000Z,0.5662921348314607,OpenStreetMap,2018-03-14T03:04:32.000Z,,False
26952ad9-1a26-4147-80cf-3a2d20b66fe7,Lennar Miami Office,business,"['real_estate', 'professional_services']",ed8d2abc-8df2-4eac-b1a2-e05ac16b0c6d,,,,miami,FL,Miami,33172.0,700 NW 107th Ave,25.777004,-80.370341,meta,2025-06-02T07:00:00.000Z,0.7548172757475083,OpenStreetMap,2018-03-14T03:04:32.000Z,,True
90d4cdfe-7939-4b66-8fb1-a598a305e78e,Um Lennar Cafe,fast_food_restaurant,"['cafe', 'restaurant']",649bfb8b-2662-4542-8c9b-6688498fef9d,The Lennar Foundation Medical Center,medical,,miami,FL,Coral Gables,33146.0,5555 Ponce de Leon Blvd,25.713459,-80.280121,meta,2025-06-02T07:00:00.000Z,0.5662921348314607,OpenStreetMap,2024-09-11T19:55:56.000Z,,False
3ff1c32c-92e9-4c31-b3ae-e0121ab90c72,The Lennar Foundation Medical Center,hospital,"['medical_service_organizations', 'doctor']",649bfb8b-2662-4542-8c9b-6688498fef9d,The Lennar Foundation Medical Center,medical,,miami,FL,Coral Gables,33146.0,5555 Ponce de Leon Blvd,25.7135584,-80.2802387,meta,2025-06-02T07:00:00.000Z,0.9784508333782836,OpenStreetMap,2024-09-11T19:55:56.000Z,,False
cb11d052-c9cf-420c-bf01-cb4b15291d3c,Lennar,contractor,"['home_improvement_store', 'laboratory_testing']",9742826e-c405-46b4-9946-e6cb316853c2,,,,miami,FL,Coral Gables,33134.0,2800 Ponce de Leon Blvd,25.74592,-80.25923,meta,2025-06-02T07:00:00.000Z,0.296943231441048,OpenStreetMap,2018-11-19T17:10:53.000Z,,False
f942cba3-c46e-4f9e-9c22-3312d81ad9c4,Lennar Title,real_estate,['professional_services'],d27c6468-da33-4111-8ab3-a785ff3ac779,Burger King Headquarters,commercial,commercial,miami,FL,Miami,33126.0,5505 Blue Lagoon Dr,25.7824874,-80.2871435,meta,2025-06-02T07:00:00.000Z,0.9784508333782836,OpenStreetMap,2023-09-24T21:20:58.000Z,,False
26ebacbf-3bc1-4779-b4c3-890a726d304f,E. Robert Ummg Lennar Family Med,health_and_medical,"['hospital', 'dentist']",115e72b2-e2ea-4ab2-9b06-27850bfab8a4,Professional ArtsCenter,,,miami,FL,Miami,33136.0,1150 NW 14th St,25.7874091,-80.213793,meta,2025-06-02T07:00:00.000Z,0.3376623376623376,OpenStreetMap,2011-06-29T09:58:49.000Z,,False
d2944435-ba48-4398-a21d-305853c60e9d,Aquabella by Lennar Official,landmark_and_historical_building,"['real_estate', 'property_management']",8cb9f015-bd07-4ad4-93e3-c4ce36d10e5c,,,,miami,FL,Hialeah,33018.0,10401 W 35th Ln,25.9165,-80.35566,meta,2025-06-02T07:00:00.000Z,0.5662921348314607,OpenStreetMap,2025-04-28T14:59:54.000Z,,False
eb21313b-830c-43cb-a904-d968cf4f263f,Lennar - Aquabella,construction_services,['real_estate'],ec4284ce-7863-4090-91c3-42120e5126a5,,,,miami,FL,Hialeah,0.0,,25.9196275,-80.3520712,meta,2025-06-02T07:00:00.000Z,0.3376623376623376,OpenStreetMap,2020-07-30T19:49:11.000Z,,False
3fb40b4a-d8b5-4fff-a423-b012ce391411,Lennar at Turquesa,real_estate_agent,['bar'],,,,,miami,FL,Hialeah,33015.0,18600 NW 87th Ave,25.9438581,-80.3437583,meta,2025-06-02T07:00:00.000Z,0.296943231441048,,,,False
89cee7ee-bb6f-4f0c-a96b-78d157059eca,Lennar at Marbella,real_estate,['bar'],,,,,miami,FL,Miramar,33027.0,Bass Creek and 172 Avenue,25.971365,-80.375363,meta,2025-06-02T07:00:00.000Z,0.5662921348314607,,,,False
a9cda0e1-bfd9-426f-873c-99ab907c194f,Lennar at Tuscan Pines,landmark_and_historical_building,"['construction_services', 'professional_services']",a5846557-4123-4818-8c01-ed47f4898f89,,commercial,commercial,miami,FL,Pembroke Pines,33029.0,18501 Pines Blvd,26.0100751,-80.3960241,meta,2025-06-02T07:00:00.000Z,0.9784508333782836,OpenStreetMap,2022-03-18T02:42:35.000Z,,False
209b298d-01d2-4ed2-a95d-e182c1ba8944,Lennar at Westview,real_estate,,bfa99dbd-cccc-476c-bcab-81ecf6dc4752,,,,miami,FL,Westview,33167.0,NW 119th Street & West Golf Drive,25.8825564,-80.2427699,meta,2025-06-02T07:00:00.000Z,0.5662921348314607,OpenStreetMap,2016-08-04T01:11:18.000Z,,False
4d11ec58-0c9a-48ca-abf2-06b7698de448,CalAtlantic at Montclair by Lennar,home_improvement_store,"['home_developer', 'real_estate_service']",,,,,miami,FL,Miramar,33025.0,2701 Montclair Blvd,25.981685,-80.304938,meta,2025-06-02T07:00:00.000Z,0.3961437335670464,,,,False
b765c2b9-c466-4d3c-bae2-f64e875ebf26,Raintree By Lennar Homes,real_estate,"['real_estate_agent', 'home_developer']",,,,,miami,FL,Pembroke Pines,33025.0,1603 SW 114th Ave,26.00085,-80.29989,meta,2025-06-02T07:00:00.000Z,0.5662921348314607,,,,False
0940ed28-40e5-4a81-84b2-449a544679c5,Lennar at Crescent Ridge,real_estate,['professional_services'],,,,,miami,FL,Davie,33330.0,12248 SW 43rd St,26.0667125,-80.3115811,meta,2025-06-02T07:00:00.000Z,0.909823677581864,,,,False
95304093-25fb-4210-b8d3-6339b0bc3f67,Lennar at Magnolia Trails,home_developer,['property_management'],e39f171f-cadc-4728-9fdd-0825e438e4c7,,,,miami,FL,Davie,33314.0,5001 SW 64th Ave,26.059323,-80.232275,meta,2025-06-02T07:00:00.000Z,0.5662921348314607,OpenStreetMap,2022-02-01T16:07:17.000Z,,False
bc8a7e12-9f61-4dd3-a2bd-c6ce902640cb,Lennar at Palomino Lake,construction_services,"['real_estate', 'real_estate_agent']",d9257255-0b71-48bd-9930-375b4e08ea9a,,,,miami,FL,Davie,33314.0,5800 Griffin Rd,26.0632721,-80.2254324,meta,2025-06-02T07:00:00.000Z,0.9784508333782836,OpenStreetMap,2021-08-25T08:06:00.000Z,,False
ea355584-6ead-414d-a620-1f6bab809832,CalAtlantic Palm Beach Design Center by Lennar,real_estate_service,['home_developer'],6cbf0948-2d95-406e-adfe-7fa5da8c2170,,,,miami,FL,Parkland,33076.0,11131 Watercrest Cir W,26.33498,-80.27775,meta,2025-06-02T07:00:00.000Z,0.3376623376623376,OpenStreetMap,2023-02-03T15:36:09.000Z,,False
481ffc9b-6899-4ffd-90b2-71312c8d986e,Lennar at Cascata at MiraLago,landmark_and_historical_building,"['real_estate', 'construction_services']",cc48afb7-1c93-4f3e-9383-40d573ba66f2,,,,miami,FL,Parkland,33076.0,10657 N Lago Vista Cir,26.3422219,-80.2715424,meta,2025-06-02T07:00:00.000Z,0.3961437335670464,OpenStreetMap,2023-02-18T12:55:33.000Z,,False
c5b04955-1e78-4594-945d-db7ebf9787df,Lennar at MiraLago at Parkland,real_estate,"['contractor', 'property_management']",f9ce1bb1-cafc-44bd-8b1d-20106e83a5d2,MiraLago Clubhouse,,,miami,FL,Parkland,33076.0,10320 Peninsula Pl,26.3426795,-80.2662662,meta,2025-06-02T07:00:00.000Z,0.4929396662387676,OpenStreetMap,2019-05-19T19:57:15.000Z,,False
a73d9dde-f320-4387-a9f9-8dd2ec683bde,CalAtlantic at The Oaks at Boca Raton by Lennar,home_developer,['real_estate_service'],e9b72b2a-f43e-4134-80a8-7d1cd2955ff5,,,,miami,FL,Boca Raton,33496.0,9091 Redonda Dr,26.412704,-80.188587,meta,2025-06-02T07:00:00.000Z,0.296943231441048,OpenStreetMap,2022-04-03T06:53:16.000Z,,False
c8c3e185-296e-4d61-9619-0e789f129c96,Lennar at Arden Stanton Collection,real_estate,['hospital'],a895fdf8-a462-4731-98fb-299952218507,,,,miami,FL,Loxahatchee,33470.0,19427 Broad Shore Walk,26.69854,-80.35134,meta,2025-06-02T07:00:00.000Z,0.4929396662387676,Microsoft ML Buildings,2023-05-01T00:00:00.000Z,,False
a43fa6dc-6bb5-4cd5-9f58-64b20925cf10,Lennar Overseas Movers,storage_facility,['movers'],d7a5b191-3a39-4633-9120-3bd753b2de8a,,,,miami,FL,Oakland Park,33334.0,4214 N Dixie Hwy,26.178782,-80.132955,meta,2025-06-02T07:00:00.000Z,0.242152466367713,OpenStreetMap,2022-12-20T12:45:59.000Z,,False
47759ba3-6112-412f-9e52-43c7e3e3d419,Lennar at Veleiros at Crystal Lake,real_estate,"['real_estate_agent', 'construction_services']",b82c97ff-1bae-48fd-a733-765e6ee9974e,,,,miami,FL,Deerfield Beach,33064.0,4036 Veleiros Blvd,26.2795965,-80.1367863,meta,2025-06-02T07:00:00.000Z,0.7548172757475083,OpenStreetMap,2024-02-10T03:11:13.000Z,,False
5480cc6f-a9d5-483e-a619-813274f38fb4,Lennar Homes,contractor,"['construction_services', 'landmark_and_historical_building']",a8cf3118-2190-47c7-83bb-a90055143f4f,,,,miami,FL,Boca Raton,33432.0,176 NW Emerson Pl,26.3559608,-80.0894318,meta,2025-06-02T07:00:00.000Z,0.242152466367713,OpenStreetMap,2021-11-30T00:09:45.000Z,,False
2de2936b-7be1-4d35-8343-8b8116f1e2ca,Lennar at Delray Trails,home_developer,,bf336b01-00b7-4045-95aa-d1aff8dfb681,,,,miami,FL,Delray Beach,33484.0,5750 Phoenix Palm Ct,26.482879,-80.132342,meta,2025-06-02T07:00:00.000Z,0.4929396662387676,OpenStreetMap,2022-03-26T11:33:26.000Z,,False
9f84588a-40f1-4cb9-b5fb-f8ac62ba77cb,Lennar at Cambria Parc,real_estate,['real_estate_agent'],4ff1c5e9-2124-41f6-a10f-688bd497c145,,,,miami,FL,Boynton Beach,33436.0,5440 Flavor Pict Rd,26.4869,-80.12998,meta,2025-06-02T07:00:00.000Z,0.4929396662387676,OpenStreetMap,2022-03-26T11:33:33.000Z,,False
8ab39581-73e7-4c73-81c7-10f867ba887f,Lennar Mortgage,mortgage_broker,"['real_estate', 'installment_loans']",1bd5e26d-ed90-4f46-a8c6-f36a12bdfca5,,,,miami,FL,Palm Beach Gardens,33410.0,3931 Rca Blvd,26.8356564,-80.0968827,meta,2025-06-02T07:00:00.000Z,0.9204819277108434,OpenStreetMap,2023-06-26T02:07:38.000Z,,False
9208e3ab-ef91-4e96-9841-c67f2867f598,Lennar at The Strand,real_estate,['construction_services'],b336c587-ca13-425b-a7ba-2ca75b622fd0,,,,miami,FL,Jupiter,33410.0,202 Strand Square,26.9327914,-80.1022211,meta,2025-06-02T07:00:00.000Z,0.3376623376623376,OpenStreetMap,2016-07-27T16:42:09.000Z,,False
c66749e2-2083-455b-8838-2f966e162453,Lennar at Venue at Princeton Parke,real_estate_agent,"['construction_services', 'real_estate']",af168bbc-556d-4a67-8c81-9ecc62233207,,,,new-york,NJ,South Brunswick Twp,8852.0,20 Michelangelo Dr,40.378177,-74.5722856,meta,2025-06-02T07:00:00.000Z,0.9784508333782836,Microsoft ML Buildings,2022-10-16T00:00:00.000Z,,False
7c1c5e30-c074-4a79-aba5-202a064590e5,Lennar at Venue at Monroe,construction_services,['real_estate'],,,,,new-york,NJ,"Monroe Township, Middlesex County",8831.0,15 Galerie Court,40.3634278,-74.4548294,meta,2025-06-02T07:00:00.000Z,0.9784508333782836,,,,False
30e673e7-8933-4871-8daa-521badfecafc,Lennar at The Collection at Morristown,construction_services,['real_estate'],ec48630b-2d86-4c3d-a2c0-c78ea71f1b1b,,,,new-york,NJ,Morristown,7960.0,2 Gerhard Pl,40.8137713,-74.4746865,meta,2025-06-02T07:00:00.000Z,0.9784508333782836,OpenStreetMap,2021-10-22T08:45:50.000Z,,False
8b62b9bd-cab7-478c-957a-b0f028022b72,Lennar at Venue at American,construction_services,['real_estate'],,,,,new-york,NJ,Morris Plains,7950.0,1100 The American Rd,40.8254188,-74.47131,meta,2025-06-02T07:00:00.000Z,0.9415384615384615,,,,False
2e0e461a-4aff-4139-9587-f1bd3c3a69ab,Lennar at The Collection at Morris Plains,real_estate,['construction_services'],,,,,new-york,NJ,Morris Plains,7950.0,200 Tabor Rd,40.84311,-74.4779,meta,2025-06-02T07:00:00.000Z,0.4929396662387676,,,,False
26f9e1ad-a34a-4557-8355-7495c4ba4ce0,Lennar at The Hills,real_estate,['home_developer'],,,,,new-york,NJ,Rockaway,7866.0,1802 Devon Ln,40.9176662,-74.5000554,meta,2025-06-02T07:00:00.000Z,0.9784508333782836,,,,False
ac87227d-1555-4c78-afb7-73244d7a8447,Lennar at The Parke at Little Falls,real_estate,['construction_services'],bafd9372-85e2-4a48-8cd0-626f6c5ccf40,,,,new-york,NJ,Little Falls,7424.0,383 Main St,40.8846834,-74.2388875,meta,2025-06-02T07:00:00.000Z,0.3961437335670464,Microsoft ML Buildings,2022-10-16T00:00:00.000Z,,False
628665ed-5bd9-46c5-9488-04f44a7a81a5,Lennar at Tillman Lakes,construction_services,['real_estate'],,,,,palm-bay-melbourne,FL,Palm Bay,32908.0,C-8 & C-9,28.035768,-80.6707,meta,2025-06-02T07:00:00.000Z,0.5662921348314607,,,,False
0e241461-2572-4323-8803-377c3fff040b,Lennar at Timbers at Everlands,home_developer,,,,,,palm-bay-melbourne,FL,Palm Bay,32905.0,Palm Bay Rd NE,28.034148,-80.589211,meta,2025-06-02T07:00:00.000Z,0.3961437335670464,,,,False
9cbeb477-89d5-4f5a-a648-7d8278da63a5,Lennar at Millers Pond,real_estate,"['construction_services', 'real_estate_agent']",27532927-23bd-45bd-8122-4ead0c7c6e24,,,,houston,TX,Rosenberg,77471.0,2011 Heather Ridge Way,29.5150317,-95.8437344,meta,2025-06-02T07:00:00.000Z,0.9459263554653524,Microsoft ML Buildings,2023-09-01T00:00:00.000Z,0.9778000116348268,False
5023081c-37ae-4140-9df0-59f417a22c70,Lennar at Still Creek Ranch,real_estate,"['construction_services', 'real_estate_agent']",78a98005-309c-48b3-bc0c-61a28bde98e2,,,,houston,TX,Richmond,77469.0,7522 Tye Creek Ln,29.48831,-95.76699,meta,2025-06-02T07:00:00.000Z,0.5662921348314607,Microsoft ML Buildings,2023-09-01T00:00:00.000Z,0.9973000288009644,False
1e8a4f83-d7ce-45f3-a09b-69c76591daa0,Lennar at Sendero,construction_services,['real_estate'],,,,,houston,TX,Richmond,77469.0,4999 Twin Summit Dr,29.5184515,-95.7841465,meta,2025-06-02T07:00:00.000Z,0.9784508333782836,,,,False
1f5c5218-c34e-407f-a922-655a158632e4,Lennar Homes Walnut Creek Brookstone Fairfield,real_estate,"['landmark_and_historical_building', 'home_developer']",960aff7c-34d8-4ea0-9e11-94bb89e66dfd,,,,houston,TX,Richmond,77469.0,1902 Zillah Wheat Dr,29.516183,-95.741967,meta,2025-06-02T07:00:00.000Z,0.4929396662387676,OpenStreetMap,2020-03-23T08:41:00.000Z,,False
1d20c599-20d8-4599-809b-d26e91fff489,Lennar at Walnut Creek at Fairway Collection,construction_services,['real_estate'],,,,,houston,TX,Richmond,77469.0,7315 Irby Cobb Blvd,29.5152296,-95.7365338,meta,2025-06-02T07:00:00.000Z,0.9784508333782836,,,,False
3d153d2d-6eef-440c-9dbc-37a12e7501c9,Lennar at Veranda,real_estate,"['construction_services', 'real_estate_agent']",,,,,houston,TX,Richmond,77469.0,22902 Henderson Row Dr,29.567359,-95.730643,meta,2025-06-02T07:00:00.000Z,0.5662921348314607,,,,False
b5802aa8-97ef-401d-a48c-e229a401df8e,Lennar Homes - Grand Mission Estates,real_estate_agent,"['construction_services', 'real_estate']",403a72b3-1a94-4906-93af-429f2f1402cf,,,,houston,TX,Richmond,77407.0,20703 Kingsford Trail Ln,29.687991,-95.740187,meta,2025-06-02T07:00:00.000Z,0.4929396662387676,Microsoft ML Buildings,2023-09-01T00:00:00.000Z,0.9876999855041504,False
9f3c28a4-911d-4624-929b-a0cac2416e6d,Lennar at Grand Mission Estates,home_improvement_store,"['retirement_home', 'contractor']",14ed21bd-498a-4973-a98d-a208c4fe4fd3,,,,houston,TX,Richmond,77407.0,7903 Sydney Bay Ct,29.688774,-95.738215,meta,2025-06-02T07:00:00.000Z,0.3376623376623376,Microsoft ML Buildings,2023-09-01T00:00:00.000Z,0.991699993610382,False
ff507732-1180-4040-9a47-4e9c59492b4f,Village Builders at Grand Mission Estates by Lennar,real_estate,"['construction_services', 'home_developer']",086da81b-2b48-44b8-bad3-319e523a65cc,,,,houston,TX,Richmond,77407.0,8006 Bellaria Lake Ln,29.68683,-95.73068,meta,2025-06-02T07:00:00.000Z,0.4929396662387676,Microsoft ML Buildings,2023-09-01T00:00:00.000Z,0.9757999777793884,False
9426f071-8a01-400f-9ccd-8a95948879cd,Lennar at Harvest Green,real_estate,['construction_services'],0316e4b3-3581-4110-ba61-084dc107b302,,,,houston,TX,Richmond,77406.0,2234 Home Sweet Home Street,29.6480542,-95.7124081,meta,2025-06-02T07:00:00.000Z,0.3961437335670464,OpenStreetMap,2024-10-11T14:13:52.000Z,,False
9df44362-ec71-4c1c-a253-a3caa22afaba,Village Builders at Aliana by Lennar,contractor,"['construction_services', 'real_estate']",d7b901bf-38fd-46fd-aa1d-4568af2d1fab,,residential,detached,houston,TX,Richmond,77407.0,18106 Shimmer Ln,29.651636,-95.699511,meta,2025-06-02T07:00:00.000Z,0.5662921348314607,OpenStreetMap,2024-11-11T03:48:54.000Z,,False
dac0598b-ff04-41a6-9dd1-2a896309d981,Lennar at Jordan Ranch,construction_services,['real_estate'],daf8cde1-e067-4a3f-9dd1-0f8145ef42ec,,,,houston,TX,Fulshear,77423.0,29614 Apple Glen Court,29.7564218,-95.8809451,meta,2025-06-02T07:00:00.000Z,0.9784508333782836,Microsoft ML Buildings,2023-09-01T00:00:00.000Z,0.9918000102043152,False
0dd37a46-c674-4491-92f2-72f577f429c8,Village Builders at Young Ranch by Lennar,real_estate,['construction_services'],0cf42c61-796e-405f-81d4-7a412eca3a66,,,,houston,TX,Katy,77494.0,29506 Huntswood Trail Lane,29.769678,-95.877705,meta,2025-06-02T07:00:00.000Z,0.4929396662387676,Microsoft ML Buildings,2023-09-01T00:00:00.000Z,0.9812999963760376,False
bb913865-1789-4c6c-8e2b-3624670d5962,Lennar at Falls at Green Meadows,construction_services,['real_estate'],c644f8f1-8349-48a1-9f8a-b12b14f7596e,,,,houston,TX,Katy,77493.0,6610 Sterling Springs Ln,29.8057396,-95.8373808,meta,2025-06-02T07:00:00.000Z,0.7548172757475083,OpenStreetMap,2024-01-25T11:59:28.000Z,,False
e812372e-e4e2-463c-be07-bfeba9a73aca,Lennar at Sunterra,real_estate,"['construction_services', 'real_estate_agent']",,,,,houston,TX,Katy,77493.0,27118 Talora Lake Dr,29.84665,-95.8426269,meta,2025-06-02T07:00:00.000Z,0.9297091412742382,,,,False
47870e23-ee83-4101-9b1f-f7f64396ba5b,Lennar at Katy Crossing at Wildflower,construction_services,['real_estate'],d7a2eb44-c6b4-4d5b-94d5-c9c6ae77e33d,,residential,detached,houston,TX,Katy,77493.0,5719 Prairie Chapel Rd,29.8592901,-95.8226913,meta,2025-06-02T07:00:00.000Z,0.9784508333782836,OpenStreetMap,2024-10-21T12:23:19.000Z,,False
31850de8-618d-4a13-a828-b8c15a007654,Lennar at Katy Crossing at Gulf Coast,real_estate,"['construction_services', 'hospital']",e41a53e3-fd9f-4a11-b54e-cb7740da3aaa,,,,houston,TX,Katy,77493.0,"Prairie Express, 7103 Katy Hockley Cut Off Rd",29.8009527,-95.7897928,meta,2025-06-02T07:00:00.000Z,0.3961437335670464,OpenStreetMap,2020-03-27T05:55:26.000Z,,False
a057e612-fa92-4f5c-8bcf-6fc3f6ac4fa8,Village Builders at Elyson by Lennar,property_management,"['construction_services', 'real_estate']",dde72942-2606-4c39-b47a-ac1f1cc8b0ee,,,,houston,TX,Katy,77493.0,6519 Elrington Heights Ln,29.869058,-95.782065,meta,2025-06-02T07:00:00.000Z,0.7548172757475083,OpenStreetMap,2020-03-27T07:34:12.000Z,,False
355a3b7d-de90-4cbd-b51f-bf38d5845a4a,Lennar at Winward,construction_services,['real_estate'],069355f9-b131-4848-ae3b-7f59e83ad49c,,,,houston,TX,Katy,77493.0,7703 Iris Peak Dr,29.8866317,-95.8344337,meta,2025-06-02T07:00:00.000Z,0.9459263554653524,Microsoft ML Buildings,2022-03-25T00:00:00.000Z,,False
3be3b600-cc48-4d85-a94f-f1fc8b84b992,Lennar at Becker Meadows at Gulf Coast Collection,construction_services,['real_estate'],cd0c57fa-1319-4742-82ec-9b4814aa224c,,,,houston,TX,Hockley,77447.0,18340 Hilltop Climb Drive,30.0196422,-95.8048609,meta,2025-06-02T07:00:00.000Z,0.4929396662387676,OpenStreetMap,2024-10-31T18:38:45.000Z,,False
77242099-be3d-4988-83c7-d5442cf64878,Lennar at Marvida,real_estate,"['construction_services', 'professional_services']",2f131453-02cc-4099-893e-f89d50a52c18,,,,houston,TX,Cypress,77433.0,21119 Bella Coral Dr,29.9044733,-95.7336323,meta,2025-06-02T07:00:00.000Z,0.242152466367713,OpenStreetMap,2022-09-06T08:20:25.000Z,,False
77242099-be3d-4988-83c7-d5442cf64878,Lennar at Marvida,real_estate,"['construction_services', 'professional_services']",2300ddc2-960f-417a-a70b-a2db341f7933,,,,houston,TX,Cypress,77433.0,21119 Bella Coral Dr,29.9044733,-95.7336323,meta,2025-06-02T07:00:00.000Z,0.242152466367713,OpenStreetMap,2022-09-06T08:20:25.000Z,,False
1b500d5e-6cf6-448a-ac25-b7e2913d61a0,Lennar at Bridgeland,construction_services,"['real_estate', 'real_estate_agent']",d0520f0c-5a01-492f-8078-ba25f1ac66ce,,residential,house,houston,TX,Cypress,77433.0,21214 Flower Nectar Ct,29.9420292,-95.7805558,meta,2025-06-02T07:00:00.000Z,0.9784508333782836,OpenStreetMap,2024-11-20T10:25:02.000Z,,False
1b500d5e-6cf6-448a-ac25-b7e2913d61a0,Lennar at Bridgeland,construction_services,"['real_estate', 'real_estate_agent']",17b45a2e-0396-4765-896e-6a100bf10f4f,,residential,house,houston,TX,Cypress,77433.0,21214 Flower Nectar Ct,29.9420292,-95.7805558,meta,2025-06-02T07:00:00.000Z,0.9784508333782836,OpenStreetMap,2024-11-20T10:25:02.000Z,,False
9b620905-5864-4cd3-b9a6-509bbc2db29e,Village Builders at Bridgeland by Lennar,real_estate,['construction_services'],5b3c08f0-5994-4674-91ba-5b094d7d6185,,residential,house,houston,TX,Cypress,77433.0,16214 Inca Dove Ct,29.936166,-95.7456017,meta,2025-06-02T07:00:00.000Z,0.5662921348314607,OpenStreetMap,2024-12-06T04:41:30.000Z,,False
e1029fef-3002-41d0-a570-ce7f1b627b4b,Lennar at Dellrose at Fairway Collection,real_estate,"['home_developer', 'real_estate_service']",,,,,houston,TX,Hockley,77447.0,17302 Lynn Orchard Dr,30.0188248,-95.7868433,meta,2025-06-02T07:00:00.000Z,0.5662921348314607,,,,False
e3ed9e2d-8003-44d3-964d-f0b5fb2af8c2,Lennar at Fairfield,contractor,"['real_estate_agent', 'real_estate']",,,,,houston,TX,Cypress,77433.0,22114 Dancing Green Dr,30.015765,-95.766552,meta,2025-06-02T07:00:00.000Z,0.3376623376623376,,,,False
6f6ac5aa-333d-43cd-bf23-ec72afa3e502,Lennar at Wildwood at Oakcrest,real_estate,['real_estate_agent'],,,,,houston,TX,Cypress,77429.0,18726 Gulf Shadow Drive,30.0416809,-95.6510067,meta,2025-06-02T07:00:00.000Z,0.7548172757475083,,,,False
3e4bedc7-4680-445c-be51-35f51d175c6c,Lennar at Cypress Green,real_estate,"['construction_services', 'real_estate_agent']",4442efcc-03fe-4f3e-b5e7-08a3e3d8cb3a,,residential,house,houston,TX,Hockley,77447.0,22106 Cortona Creek Ln,30.0721404,-95.7670544,meta,2025-06-02T07:00:00.000Z,0.9300613496932516,OpenStreetMap,2024-11-06T11:52:12.000Z,,False
8909e79b-11e4-4f41-8683-09af7280d037,Lennar at Rosehill Reserve at Vista,real_estate,['home_improvement_store'],bcb92c19-2aee-4490-8ee0-00fa113b76bd,,residential,house,houston,TX,Tomball,77377.0,19115 Blooms Rise Dr,30.0787427,-95.7226501,meta,2025-06-02T07:00:00.000Z,0.9297091412742382,OpenStreetMap,2024-10-29T12:34:00.000Z,,False
7ad5a91c-8f53-4d2f-9b9d-66dc05baf642,Lennar at Woodtrace,construction_services,['real_estate'],,,,,houston,TX,Magnolia,77355.0,817 Walnut Park Ln,30.14718,-95.6782,meta,2025-06-02T07:00:00.000Z,0.3376623376623376,,,,False
0f23300c-0101-438d-bab6-d33290ae45f8,Village Builders at Woodtrace by Lennar,real_estate,"['construction_services', 'contractor']",eaba1231-efb0-4394-8ace-bc3e981b1d79,,,,houston,TX,Pinehurst,77362.0,33903 Mill Creek Way,30.153587,-95.672376,meta,2025-06-02T07:00:00.000Z,0.7548172757475083,Microsoft ML Buildings,2023-03-04T00:00:00.000Z,,False
72dcc147-eebd-4241-b2d3-dcd44dceed97,Lennar at Lakes of Savannah Fairway Collection,real_estate,['construction_services'],8822acec-fbed-4ca4-9e11-cc82f6b0a6e7,,,,houston,TX,Rosharon,77583.0,4806 Gingerwood Trace Ln,29.516583,-95.434967,meta,2025-06-02T07:00:00.000Z,0.5662921348314607,Microsoft ML Buildings,2022-03-25T00:00:00.000Z,,False
5821c8b2-c337-4aac-ac00-f2d675df7cfe,Lennar at Lakes of Savannah Brookstone Collection,real_estate,['home_developer'],cbd7b76a-e4c0-4186-b3bf-f98ba13dc3d4,,,,houston,TX,Rosharon,77583.0,4630 Marble River Trl,29.518289,-95.4373732,meta,2025-06-02T07:00:00.000Z,0.5662921348314607,Microsoft ML Buildings,2022-03-25T00:00:00.000Z,,False
47ca50dd-40d1-49ec-8ea8-7edcead00729,Lennar Homes The Trails at Bay Colony Gulf Coast,professional_services,"['real_estate', 'contractor']",1417f5f6-c4c5-43f7-9fc3-1543cff39364,,residential,house,houston,TX,Dickinson,77539.0,6875 Laurel Springs Ln,29.440636,-95.104523,meta,2025-06-02T07:00:00.000Z,0.3376623376623376,OpenStreetMap,2019-03-13T19:20:06.000Z,,False
aeb6ef95-505d-44e5-87e9-308de45c1adb,Lennar at The Trails at Bay Colony,real_estate,"['professional_services', 'landmark_and_historical_building']",f5dce385-44e5-4f74-91ca-d34224239fd8,,residential,house,houston,TX,Dickinson,77539.0,6827 Linden Creek Ln,29.443191,-95.104481,meta,2025-06-02T07:00:00.000Z,0.242152466367713,OpenStreetMap,2019-03-21T17:35:15.000Z,,False
e2e5f664-cf69-455d-88ed-2b63fe90fa72,Lennar at Westwood,real_estate,['construction_services'],4ce38ef0-094a-4f87-9d11-a7da08495fe0,,residential,house,houston,TX,League City,77573.0,613 Westwood Dr,29.4837014,-95.167735,meta,2025-06-02T07:00:00.000Z,0.5662921348314607,OpenStreetMap,2020-01-20T19:13:14.000Z,,False
cda8e8dd-6d83-47a7-a02a-178c226d07d2,Lennar at Lakes in Bay Colony,real_estate,"['construction_services', 'real_estate_agent']",42defcc2-4dfa-4a4f-ac08-882b873d2a54,,residential,house,houston,TX,Dickinson,77539.0,2822 Cross Colony Dr,29.4580821,-95.0994016,meta,2025-06-02T07:00:00.000Z,0.7548172757475083,OpenStreetMap,2017-09-01T14:31:50.000Z,,False
1d0091fd-0c7c-4b03-9503-70e7dcd6e095,Lennar at Samara,home_developer,,,,,,houston,TX,League City,77539.0,Main Street,29.4658521,-95.1167478,meta,2025-06-02T07:00:00.000Z,0.4929396662387676,,,,False
7b824712-0900-47fa-b6d6-d923cce1992c,Lennar Homes - Brunswick Frontier/Southwest,contractor,"['real_estate', 'real_estate_agent']",0a30c841-cb48-46e3-93d6-8632e733af09,,,,houston,TX,Houston,77047.0,14023 Embrystone Ln,29.607204,-95.369298,meta,2025-06-02T07:00:00.000Z,0.296943231441048,OpenStreetMap,2022-08-30T05:48:40.000Z,,False
a9bf2f82-9c1d-4bf9-8052-063965c24310,nuHome at Wayside Village by Lennar,real_estate,['construction_services'],,,,,houston,TX,Houston,77016.0,8009 Wayside Village Way,29.70026,-95.29874,meta,2025-06-02T07:00:00.000Z,0.3961437335670464,,,,False
212d3870-a622-45c8-a661-0dfae0aac1fb,Lennar at Chapel Heights,real_estate,['construction_services'],163116c2-fce6-461c-a3fd-935fc2dddb9d,,,,houston,TX,Houston,77018.0,707 Embercove Dr,29.839934,-95.412133,meta,2025-06-02T07:00:00.000Z,0.4929396662387676,OpenStreetMap,2021-05-11T22:14:13.000Z,,False
d9e7b908-b756-42a5-9d1b-ad44862e439e,Bellavita Lennar Homes,real_estate,"['contractor', 'real_estate_agent']",b32185b4-76a1-457a-86bb-a87ae80bd51a,,,,houston,TX,Pearland,77581.0,1548 N Riviera Cir,29.565395,-95.230201,meta,2025-06-02T07:00:00.000Z,0.3376623376623376,Microsoft ML Buildings,2022-03-25T00:00:00.000Z,,False
6ad90e64-4a4a-41db-b516-7da9b58a3b6e,Village Builders at The Reserve at Clear Lake City by Lennar,real_estate_agent,"['real_estate', 'construction_services']",3377fdfd-088e-4eef-b517-176474e57c71,,,,houston,TX,Houston,77059.0,5711 Balcones Ridge Ln,29.6073101,-95.1235856,meta,2025-06-02T07:00:00.000Z,0.5662921348314607,Microsoft ML Buildings,2022-03-25T00:00:00.000Z,,False
6da7699c-67c0-446c-9224-c6eb049ad172,Lennar Homes,contractor,"['real_estate_agent', 'real_estate']",2088c45f-19c2-49aa-8b36-a9f43c7f9bb3,,,,houston,TX,Houston,77044.0,12510 Meadow Frost Ln,29.862254,-95.207545,meta,2025-06-02T07:00:00.000Z,0.3376623376623376,OpenStreetMap,2022-09-26T00:59:26.000Z,,False
c84fa8e6-c46a-412a-b97c-f092840e7694,Lennar Homes,professional_services,"['contractor', 'retirement_home']",34c46a9d-055f-480b-82d3-8b2db3217070,,,,houston,TX,Baytown,77521.0,4302 Plumeria Ave,29.817266,-94.995644,meta,2025-06-02T07:00:00.000Z,0.296943231441048,OpenStreetMap,2025-01-03T05:06:36.000Z,,False
2f9d52ac-d03a-4efc-9f0d-f1b534ee65e5,Lennar at Burnet Fields at Baytown Crossings,real_estate,['real_estate_agent'],356a233b-a763-457b-9e26-85d43da1310f,,,,houston,TX,Baytown,77521.0,4339 Cedar Elm St,29.820988,-94.994886,meta,2025-06-02T07:00:00.000Z,0.3376623376623376,Microsoft ML Buildings,2022-03-25T00:00:00.000Z,,False
c09614b0-ba29-4412-ba8a-f3b5dad9ab5b,Lennar Homes - Bay River Colony: Gulf Coast,real_estate,['real_estate_agent'],,,,,houston,TX,Baytown,77521.0,4407 Amaryllis Ave,29.819861,-94.994245,meta,2025-06-02T07:00:00.000Z,0.3961437335670464,,,,False
a93976d7-7112-411d-b107-55022a1bc255,Lennar at Ashbel Cove at Baytown Crossings at Brookstone Collection,construction_services,['real_estate'],c73dcd09-0a06-43c9-82a0-de902fe7fd9a,,,,houston,TX,Baytown,77521.0,4810 Cedar Sage Dr,29.8294422,-94.9883294,meta,2025-06-02T07:00:00.000Z,0.3376623376623376,Microsoft ML Buildings,2022-03-25T00:00:00.000Z,,False
1c8c0ab2-41c0-4f95-ac9a-fb2fc14720f5,Bob Eckman - Production Manager at Lennar Mortgage NMLS #323356,installment_loans,,2d604b07-6a0c-4e70-828b-227f6f457583,,,,houston,TX,Houston,77067.0,681 Greens Pkwy,29.9438617,-95.4224521,meta,2025-06-02T07:00:00.000Z,0.242152466367713,OpenStreetMap,2024-01-27T04:31:12.000Z,,False
3442c539-85eb-4922-a230-b5392d06ec56,Lennar Corporation,construction_services,['contractor'],2d604b07-6a0c-4e70-828b-227f6f457583,,,,houston,TX,Houston,77067.0,681 Greens Pkwy,29.9440458,-95.4225279,meta,2025-06-02T07:00:00.000Z,0.9459263554653524,OpenStreetMap,2024-01-27T04:31:12.000Z,,True
ad9d9588-49db-4cf2-bb17-ec23c2b952bb,Lennar Title,home_improvement_store,"['real_estate', 'contractor']",2d604b07-6a0c-4e70-828b-227f6f457583,,,,houston,TX,Houston,77067.0,681 Greens Pkwy,29.9440458,-95.4225279,meta,2025-06-02T07:00:00.000Z,0.9784508333782836,OpenStreetMap,2024-01-27T04:31:12.000Z,,False
f27d3342-176c-465e-8249-6d274c7bb01c,Lennar Houston Division Office,real_estate,"['property_management', 'business']",fefcd549-b867-4d34-b43b-36673b855dcf,,,,houston,TX,Houston,77067.0,550 Greens Pkwy,29.946871,-95.423021,meta,2025-06-02T07:00:00.000Z,0.7548172757475083,OpenStreetMap,2024-01-27T04:29:36.000Z,,True
8e2825b2-85ef-4e3a-9771-05407c27370e,Lennar Homes - Meadowview Farms: Gulf Coast,farm,"['real_estate_agent', 'real_estate']",a26af1b1-f8b8-40e3-b8ca-c205512d3089,,,,houston,TX,Houston,77073.0,19614 Fieldmont Ln,29.9771318,-95.3988622,meta,2025-06-02T07:00:00.000Z,0.3376623376623376,OpenStreetMap,2023-07-07T15:23:39.000Z,,False
9fb9b42c-81eb-4eba-b64d-3c7af5c52d4c,Lennar Homes - Lakes of Avalon,contractor,"['professional_services', 'real_estate']",1b68c1b7-555d-4794-a51f-e779f6b5d52c,,,,houston,TX,Spring,77379.0,7202 Avalon Bend Cir,30.075921,-95.534941,meta,2025-06-02T07:00:00.000Z,0.3961437335670464,OpenStreetMap,2024-01-27T02:34:08.000Z,,False
d1ddabff-cc78-4d2c-ac75-3d5a145ef3b3,Lennar at The Villages at Harmony at Brookstone,real_estate,['construction_services'],,,,,houston,TX,Spring,77386.0,4533 New Country Dr,30.08329,-95.36755,meta,2025-06-02T07:00:00.000Z,0.7548172757475083,,,,False
64edf11d-63e6-43bd-be6a-38dd52fd9c4f,Lennar at Villages at Harmony at Fairfield,real_estate,['construction_services'],8f8844f3-9e67-4950-b300-34289f0595ab,,,,houston,TX,Spring,77386.0,4305 Umber Shadow Dr,30.08435,-95.36743,meta,2025-06-02T07:00:00.000Z,0.3376623376623376,Microsoft ML Buildings,2023-03-04T00:00:00.000Z,,False
64ee17e2-f434-4cd9-8b75-3f707de268e5,Village Builders at Woodsonâ€™s Reserve by Lennar,real_estate,"['construction_services', 'real_estate_agent']",7dd45a5c-18af-458e-afab-53a9f0fb33cc,,,,houston,TX,Spring,77386.0,3923 Longleaf Woods Trl,30.116956,-95.362401,meta,2025-06-02T07:00:00.000Z,0.3961437335670464,OpenStreetMap,2022-02-01T08:10:05.000Z,,False
edf3993b-988e-46d3-8ef8-94c7d44596c3,Lennar at The Highlands Vista Collection,real_estate,,,,,,houston,TX,Porter,77365.0,21734 Grayson Highlands Way,30.131419,-95.318683,meta,2025-06-02T07:00:00.000Z,0.3376623376623376,,,,False
e14bbf44-8a02-4046-a007-76d1bf51767d,Village Builders at The Highlands by Lennar,real_estate,,92fdc311-b11d-4bf7-884e-06c9be06eacf,,,,houston,TX,Porter,77365.0,21734 Grayson Highlands Way,30.13447,-95.31454,meta,2025-06-02T07:00:00.000Z,0.4929396662387676,OpenStreetMap,2025-03-05T21:29:56.000Z,,False
e14bbf44-8a02-4046-a007-76d1bf51767d,Village Builders at The Highlands by Lennar,real_estate,,93104866-97ab-402b-a231-9f9461da539d,,,,houston,TX,Porter,77365.0,21734 Grayson Highlands Way,30.13447,-95.31454,meta,2025-06-02T07:00:00.000Z,0.4929396662387676,OpenStreetMap,2025-03-05T21:29:56.000Z,,False
da201b81-322b-4459-9493-3a877bd6a314,Lennar at The Highlands Brookstone Collection,real_estate,['construction_services'],0ac80aee-cec7-4613-9b94-c954305fd153,,,,houston,TX,Porter,77365.0,21714 Grayson Highlands Way,30.1352507,-95.3143831,meta,2025-06-02T07:00:00.000Z,0.9300613496932516,OpenStreetMap,2025-03-05T21:29:56.000Z,,False
af7f6253-1e0e-40ce-923f-3e6abc6acc7d,Lennar at Artavia,real_estate,['construction_services'],e8a5611a-dde3-4d17-bb51-ef78fe623427,,,,houston,TX,Conroe,77302.0,15227 Deseo Drive,30.20696,-95.337725,meta,2025-06-02T07:00:00.000Z,0.5662921348314607,Microsoft ML Buildings,2023-03-04T00:00:00.000Z,,False
d62dadb0-2ad5-4904-b43e-65ef0237d5fe,Lennar at Balmoral,real_estate,['construction_services'],fb335711-9a53-4d08-a73c-041265c2c8a9,,,,houston,TX,Humble,77346.0,13014 Rowan Green Dr,29.9527792,-95.191314,meta,2025-06-02T07:00:00.000Z,0.5662921348314607,Microsoft ML Buildings,2022-03-25T00:00:00.000Z,,False
71b13c7f-8b6b-4eb4-b9fe-702eccb20ffd,Lennar at Newport Preserve,home_developer,"['real_estate', 'construction_services']",,,,,houston,TX,Crosby,77532.0,1955 Ballesteros St,29.9101521,-95.1026673,meta,2025-06-02T07:00:00.000Z,0.9459263554653524,,,,False
31be0aa7-e55e-4c20-973c-ca6f94ad5874,Village Builders at The Groves by Lennar,real_estate,"['real_estate_agent', 'construction_services']",ba1bbfa4-5e32-4d6f-8abb-6b44cb40e649,,,,houston,TX,Humble,77346.0,13103 Sierra National Dr,29.957308,-95.182947,meta,2025-06-02T07:00:00.000Z,0.5662921348314607,Microsoft ML Buildings,2022-03-25T00:00:00.000Z,,False
bed33f8d-48c2-4c8d-a509-97e2dd6bd3f2,Lennar Homes,contractor,"['real_estate', 'landmark_and_historical_building']",e16467fd-d0cf-434c-acf0-3dd864edd25a,,,,houston,TX,Humble,77396.0,10311 Whisper Bluff Dr,29.9793701,-95.2277679,meta,2025-06-02T07:00:00.000Z,0.242152466367713,OpenStreetMap,2021-04-29T18:53:13.000Z,,False
9d8bdef3-684a-4238-b743-bf181d2ad5aa,Village Builders at Royal Brook by Lennar,real_estate,"['construction_services', 'contractor']",3fb08299-2b4f-406c-9eff-cd159815ee26,,,,houston,TX,Kingwood,77339.0,5814 Splitting Willow Court,30.0557518,-95.2233289,meta,2025-06-02T07:00:00.000Z,0.5662921348314607,Microsoft ML Buildings,2023-03-04T00:00:00.000Z,,False
e3fab901-6ae0-40d9-be24-2fc9b85e1653,Lennar Homes - Oakhurst at Kingwood Auburn Trails,landmark_and_historical_building,"['real_estate_agent', 'real_estate']",d0145eae-72f4-4997-8815-6c59f39f8871,,,,houston,TX,Porter,77365.0,24215 Burks Trail Dr,30.093474,-95.24243,meta,2025-06-02T07:00:00.000Z,0.3376623376623376,Microsoft ML Buildings,2023-03-04T00:00:00.000Z,,False
8b08641e-bda9-46a5-b39d-555e79d5a0d2,Lennar Homes-The Trails,construction_services,,,,,,houston,TX,New Caney,77357.0,29027 Red Loop Drive,30.13657,-95.16298,meta,2025-06-02T07:00:00.000Z,0.3376623376623376,,,,False
c8a15a73-374a-4ef9-bef0-59fd68d42be8,nuHome at Riverwood Ranch by Lennar,real_estate,['home_service'],,,,,houston,TX,New Caney,77357.0,18699 Faustina Way,30.164309,-95.203164,meta,2025-06-02T07:00:00.000Z,0.296943231441048,,,,False
a1efa9cf-4b31-4258-b2d7-59484254d0ef,Lennar at Tavola,real_estate,['real_estate_agent'],0bcc0498-1087-415c-83ca-2d843da75753,,,,houston,TX,New Caney,77357.0,23404 Sentosa Bluff Ct,30.1642876,-95.1908442,meta,2025-06-02T07:00:00.000Z,0.9415384615384615,OpenStreetMap,2024-01-27T06:48:47.000Z,,False
f7548dda-0e9b-4252-94f1-c45f770815e4,Lennar Homes - Tavola - Texas Reserve,landmark_and_historical_building,"['real_estate', 'real_estate_agent']",6cee27ee-d6e0-4ade-8db8-8219ce9851bb,,residential,house,houston,TX,New Caney,77357.0,23302 Ridge Spring Dr,30.168933,-95.200242,meta,2025-06-02T07:00:00.000Z,0.4929396662387676,OpenStreetMap,2018-12-27T05:33:15.000Z,,False
75f55c2c-2343-4ba9-81a6-9bdc2f7da471,Lennar at Indian Ridge,real_estate,['construction_services'],5fb34258-0d5a-4f7a-aea6-5edc1fbd2848,,residential,house,chicago,IL,Minooka,60447.0,804 Feeney Dr,41.44145,-88.27392,meta,2025-06-02T07:00:00.000Z,0.3961437335670464,OpenStreetMap,2020-08-29T04:29:07.000Z,,False
d74ac7b1-c1d0-4b15-99c9-bc3a95fcaeb4,Lennar at Stonegate Duplex,real_estate,['pub'],40a373c9-4475-4c56-a3f7-d21b71620c4f,,,,chicago,IL,Manhattan,60442.0,24718 S McCormick Way,41.4371947,-87.9768266,meta,2025-06-02T07:00:00.000Z,0.3376623376623376,Esri Community Maps,2024-10-15T00:00:00.000Z,,False
97727fdf-f033-4f1a-ae86-0daac655b8d1,CalAtlantic at Windsor Ridge by Lennar,real_estate,"['real_estate_service', 'home_developer']",8dcec81f-9e4c-42fc-9acd-c2705fc21f27,,,,chicago,IL,Joliet,60431.0,8605 Buckingham Rd,41.554047,-88.291734,meta,2025-06-02T07:00:00.000Z,0.7548172757475083,OpenStreetMap,2022-08-02T03:40:30.000Z,,False
abcea983-6e8d-4c0e-868a-43ee01e50e0e,Lennar at Lakewood Prairie,construction_services,['real_estate'],,,,,chicago,IL,Joliet,60431.0,1215 Barberry Way,41.544325,-88.27024,meta,2025-06-02T07:00:00.000Z,0.5662921348314607,,,,False
0d4016dc-444a-489a-b8cc-c3feb5b75fe3,Lennar at Huntington Chase,real_estate,['real_estate_agent'],9978f8cf-3f24-4880-b2b3-f413a46dbe73,,,,chicago,IL,Montgomery,60538.0,3280 Huntington Ln,41.708306,-88.418775,meta,2025-06-02T07:00:00.000Z,0.5662921348314607,OpenStreetMap,2025-02-07T20:41:31.000Z,,False
8cd2ce3e-a4bd-4525-9a79-1e3c9eb1b931,Lennar at Hudson Pointe,construction_services,"['professional_services', 'home_developer']",a3ef86fd-aaaf-42ec-9e5d-ec36a5a83302,,residential,house,chicago,IL,Oswego,60543.0,330 Ellis St,41.6900723,-88.2744974,meta,2025-06-02T07:00:00.000Z,0.9784508333782836,OpenStreetMap,2024-05-25T19:26:40.000Z,,False
b13c562d-3499-40ac-8099-88a651c47084,Lennar at Edgewater,real_estate,['construction_services'],5bb4ca4f-b036-4698-9d88-8c3bc071eb03,,residential,house,chicago,IL,Shorewood,60404.0,1113 Marion Ct,41.536487,-88.217937,meta,2025-06-02T07:00:00.000Z,0.4929396662387676,OpenStreetMap,2025-01-24T03:17:59.000Z,,False
1cde0238-28ed-4510-98ba-b99c7d2f2dab,Lennar at Creekside Crossing,construction_services,['real_estate'],,,,,chicago,IL,Plainfield,60586.0,25551 W Springview Dr,41.5898749,-88.236376,meta,2025-06-02T07:00:00.000Z,0.9459263554653524,,,,False
9a6cd610-d1a9-4462-92fb-8eba34a2a2a9,Lennar at North Pointe,real_estate,['construction_services'],0a08dfe7-0187-4883-90cc-8df0abf9f646,,residential,house,chicago,IL,Plainfield,60586.0,16063 S Selfridge Cir,41.592678,-88.23081,meta,2025-06-02T07:00:00.000Z,0.4929396662387676,OpenStreetMap,2025-01-26T19:51:32.000Z,,False
059470d6-f271-4952-b921-a532e9d8fa2e,Lennar Title,real_estate,['real_estate_agent'],,,,,chicago,IL,Plainfield,60544.0,13550 US-30,41.6351776,-88.2241789,meta,2025-06-02T07:00:00.000Z,0.8860580325548478,,,,False
cea4dcf6-4b28-4768-9f64-ca4abddac194,Lennar at Ponds of Stony Creek,construction_services,"['real_estate', 'home_improvement_store']",,,,,chicago,IL,Elgin,60124.0,1818 Coralito Ln,41.986421,-88.3915558,meta,2025-06-02T07:00:00.000Z,0.9784508333782836,,,,False
5416b41b-4508-4fca-9c8a-abaff7f4caf9,Lennar at Westview Crossing,home_developer,"['construction_services', 'real_estate_agent']",,,,,chicago,IL,Algonquin,60102.0,397 Point Ct,42.1580288,-88.3677088,meta,2025-06-02T07:00:00.000Z,0.9784508333782836,,,,False
0b00345a-8398-4b74-b8fd-e1b21ec64552,CalAtlantic at Amber Meadows by Lennar,real_estate_service,['home_developer'],,,,,chicago,IL,Hoffman Estates,60192.0,1808 Newberry Ln,42.058074,-88.230751,meta,2025-06-02T07:00:00.000Z,0.4929396662387676,,,,False
ce27746d-d766-46cb-973a-6f01b5746d06,Lennar Multifamily Communities,construction_services,"['contractor', 'shopping']",65ebb0e8-0807-48bd-809d-8e0597ecd21b,,commercial,office,chicago,IL,Schaumburg,60173.0,1300 E Woodfield Rd,42.0439009,-88.0461477,meta,2025-06-02T07:00:00.000Z,0.3376623376623376,OpenStreetMap,2024-07-23T19:14:05.000Z,,False
31fb5d37-642d-4642-ac9d-7752c1cfc709,Lennar Mortgage,mortgage_broker,['transportation'],b9289f58-e1aa-43c0-989b-987c57dcc2d0,,commercial,office,chicago,IL,Schaumburg,60173.0,1700 E Golf Rd,42.0526929,-88.0367175,meta,2025-06-02T07:00:00.000Z,0.9300613496932516,OpenStreetMap,2022-07-25T04:47:24.000Z,,False
a08960bd-063f-4a82-92b9-a7b99e1d2499,Library Tower by Lennar,library,"['landmark_and_historical_building', 'real_estate']",2d20622a-276a-4c16-b611-b47e799e6f65,Library Tower,residential,apartments,chicago,IL,Chicago,60605.0,520 S State St,41.875072,-87.628048,meta,2025-06-02T07:00:00.000Z,0.242152466367713,OpenStreetMap,2024-08-06T18:46:39.000Z,,False
75c05479-8c0d-4a8a-9c46-2711fa0cd8e4,Lennar at Brookside,real_estate,['construction_services'],,,,,chicago,IN,Portage,46368.0,3191 Thoreau Dr,41.5580243,-87.1633057,meta,2025-06-02T07:00:00.000Z,0.9459263554653524,,,,False
5fc2a768-d50c-4c17-a1a6-3f15e7ac057c,CalAtlantic at Talamore by Lennar,home_developer,['real_estate_service'],6242304c-da64-4e4a-b892-000c42922a4c,,,,chicago,IL,Huntley,60142.0,9383 Enstrom Ln,42.192818,-88.426905,meta,2025-06-02T07:00:00.000Z,0.4929396662387676,Microsoft ML Buildings,2022-08-18T00:00:00.000Z,,False
47785e34-6bfb-46c2-8155-f33b0d60e2e9,Lennar at Andare at Talamore,real_estate,"['real_estate_agent', 'construction_services']",17540b9c-0f2e-4802-adf7-4d3a5eefc514,,,,chicago,IL,Huntley,60142.0,11849 Hubbe Ct,42.194063,-88.427033,meta,2025-06-02T07:00:00.000Z,0.4929396662387676,Microsoft ML Buildings,2022-08-18T00:00:00.000Z,,False
79c2f9f3-928e-451e-a1c2-03edaf11efb7,Lennar at Woodlore Estates-The Reserves,construction_services,['real_estate'],4af3dc66-04a8-4ccf-9f3a-50ed74e59c05,,,,chicago,IL,Crystal Lake,60012.0,1011 River Birch Blvd,42.2566601,-88.283438,meta,2025-06-02T07:00:00.000Z,0.9784508333782836,Microsoft ML Buildings,2022-08-18T00:00:00.000Z,,False
11278f80-a2b5-405b-95b2-1315c23b0dca,Lennar at Meadows of West Bay Duplexes,real_estate,,,,,,chicago,IL,Wonder Lake,60097.0,4709 Redbud Ct,42.396206,-88.36393,meta,2025-06-02T07:00:00.000Z,0.3376623376623376,,,,False
e86bf61d-ed62-49fb-b0ae-c8b16230e210,CalAtlantic at Country Club Hills by Lennar,real_estate,"['real_estate_service', 'home_developer']",15277609-7ef0-4498-949c-5ca01d4ecac3,,,,chicago,IL,Volo,60020.0,1832 Alta Drive,42.3545641,-88.1641571,meta,2025-06-02T07:00:00.000Z,0.4929396662387676,OpenStreetMap,2023-08-04T21:13:11.000Z,,False
69030e24-a208-4b45-8e14-69a0aaf93564,Lennar at La Estancia,real_estate,['real_estate_agent'],999ff045-17d4-4904-b075-4d35c1380944,,residential,house,tucson,AZ,Tucson,85756.0,7360 S Via Casa Bonita,32.1185491,-110.8478084,meta,2025-06-02T07:00:00.000Z,0.9459263554653524,OpenStreetMap,2020-11-11T22:05:55.000Z,,False
46c36180-0704-40e2-9c04-f19a6b990432,Lennar Tucson Division Office,home_improvement_store,"['contractor', 'real_estate']",4fcfd373-b123-4323-9756-aa562d6ffb39,,,,tucson,AZ,Tucson,85741.0,3275 W Ina Rd,32.3370187,-111.0363226,meta,2025-06-02T07:00:00.000Z,0.9784508333782836,OpenStreetMap,2022-08-05T20:13:17.000Z,,True
04060c00-e8af-41be-9c0a-42f81263a9a3,Lennar at Robb Hill Estates,real_estate,,e928b46c-9863-4dfa-a13e-1309cfedc754,,residential,house,tucson,AZ,Tucson,85715.0,Speedway Blvd & Robb Hill Rd,32.2349591,-110.8161201,meta,2025-06-02T07:00:00.000Z,0.3961437335670464,OpenStreetMap,2020-05-30T04:06:03.000Z,,False
79d21566-0e72-4458-b927-caf697e2b977,Lennar at Pinnacle Club Estate,construction_services,"['contractor', 'professional_services']",2b420953-9a45-4ca4-8cae-7832f68b9fc8,,,,columbus-ohio,OH,Grove City,43123.0,1730 Pinnacle Club Dr,39.863071,-83.0491574,meta,2025-06-02T07:00:00.000Z,0.8860580325548478,Esri Community Maps,2024-10-15T00:00:00.000Z,,False
b717f69c-83ab-4575-a894-cb947cc7c92b,nuHome at Meadow Point by Lennar,real_estate,,8333f595-2cba-4ace-ad14-01f6bbd11b7d,,,,san-antonio,TX,San Antonio,78242.0,7007 Walnut Valley Dr,29.3594948,-98.6263551,meta,2025-06-02T07:00:00.000Z,0.296943231441048,Microsoft ML Buildings,2020-12-09T00:00:00.000Z,,False
fe7ea5ab-7c90-45e3-8707-3f0ba76eb380,Lennar at Columbia Square,real_estate,,,,,,san-antonio,TX,San Antonio,78227.0,1706 Morse Way,29.4159743,-98.6522498,meta,2025-06-02T07:00:00.000Z,0.9784508333782836,,,,False
12c92189-17be-4ee9-84cc-3d97e2f95d48,CalAtlantic at Alamo Ranch by Lennar,real_estate,"['real_estate_service', 'home_developer']",56d2bcd3-fef5-4e6f-985e-08d07498a30b,,,,san-antonio,TX,San Antonio,78253.0,11447 Violet Cv,29.4933083,-98.719604,meta,2025-06-02T07:00:00.000Z,0.296943231441048,OpenStreetMap,2025-01-03T15:56:31.000Z,,False
f333efef-ebed-43c4-b019-473754226e28,Michael Cantu Loan Officer at Lennar Mortgage NMLS #911394,mortgage_broker,,,,,,san-antonio,TX,San Antonio,78216.0,100 NE Loop 410,29.5199,-98.48299,meta,2025-06-02T07:00:00.000Z,0.242152466367713,,,,False
b527e36f-f21e-49de-96c8-129fd9525337,Lennar Homes-TX Land-Constr,contractor,"['real_estate', 'retirement_home']",37a83135-74fe-4d82-a7e5-b34c16a539fe,,,,san-antonio,TX,San Antonio,78259.0,1922 Dry Creek Way,29.615129,-98.4624589,meta,2025-06-02T07:00:00.000Z,0.4929396662387676,OpenStreetMap,2019-03-17T22:10:00.000Z,,False
9bd4cd77-6bed-4337-8cf2-752c8b35204e,Lennar San Antonio Division Office,real_estate_agent,['construction_services'],37a83135-74fe-4d82-a7e5-b34c16a539fe,,,,san-antonio,TX,San Antonio,78259.0,1922 Dry Creek Way,29.6152061,-98.4625425,meta,2025-06-02T07:00:00.000Z,0.3961437335670464,OpenStreetMap,2019-03-17T22:10:00.000Z,,True
2e253882-47fc-4a5d-9d77-b48778c265be,Lennar Homes-New Home Consultant,real_estate,,cd035fe0-d9b2-4275-a64a-b16c651a4969,,,,san-antonio,TX,Converse,78109.0,8407 Terlingua Cv,29.476515,-98.322907,meta,2025-06-02T07:00:00.000Z,0.296943231441048,Microsoft ML Buildings,2000-01-01T00:00:00.000Z,,False
0f563710-4818-4f45-b280-2c451b962252,Lennar at Sierra Bella,construction_services,['real_estate'],,,,,riverside-san-bernardino,CA,Corona,92882.0,2517 Chad Zeller Ln,33.8625038,-117.6200888,meta,2025-06-02T07:00:00.000Z,0.7548172757475083,,,,False
fa81af99-33af-43ec-9012-0ce3feab18da,Lennar Inland Empire Division Office,contractor,"['lawyer', 'public_and_government_association']",703dacbd-364b-4115-b8bc-68fa03c39fae,,,,riverside-san-bernardino,CA,Corona,92879.0,980 Montecito Dr,33.871359,-117.54361,meta,2025-06-02T07:00:00.000Z,0.242152466367713,OpenStreetMap,2023-02-24T22:48:25.000Z,,False
1904d8d7-2079-4684-8c06-b6d1c6e92b61,Lennar at Voyage at The Preserve,construction_services,"['professional_services', 'real_estate']",6654887c-ff3a-474d-a935-d2cc3174b5c4,,,,riverside-san-bernardino,CA,Chino,91708.0,16406 Trailblazer Ave,33.9559979,-117.6130525,meta,2025-06-02T07:00:00.000Z,0.9297091412742382,Microsoft ML Buildings,2022-03-17T00:00:00.000Z,,False
285761b2-0fdb-4eaa-9bf8-6244ecb1ae4b,Lennar at Sendero,real_estate,['construction_services'],79670207-93e2-4d47-984f-18fde6837a70,Chase,,,riverside-san-bernardino,CA,Eastvale,91752.0,6088 Sendero Avenue,33.9784145,-117.5580216,meta,2025-06-02T07:00:00.000Z,0.5662921348314607,OpenStreetMap,2024-09-17T19:36:44.000Z,,False
0ef747e6-5183-4b80-b920-57e11b4eda7c,Lennar at Esperanza,real_estate,,ba3128d6-611e-4951-8665-dc3801244d5f,,,,riverside-san-bernardino,CA,Ontario,91761.0,4233 E Sonrisa Privado,33.9929457,-117.558755,meta,2025-06-02T07:00:00.000Z,0.9784508333782836,Microsoft ML Buildings,2022-03-17T00:00:00.000Z,,False
39ff0972-164f-4997-a3df-233dd7c43bdd,Lennar Homes,real_estate,"['landmark_and_historical_building', 'retirement_home']",,,,,riverside-san-bernardino,CA,Rancho Cucamonga,91739.0,8448 Pecan Ave,34.100737,-117.519562,meta,2025-06-02T07:00:00.000Z,0.296943231441048,,,,False
c3d7a08d-d102-46e5-b178-cc475000ddd3,Lennar at Arboretum,real_estate,"['construction_services', 'park']",441f6dda-d6db-4308-9a3f-380e9d64d3fb,,,,riverside-san-bernardino,CA,Fontana,92336.0,5098 Agave Ave,34.161187,-117.4531547,meta,2025-06-02T07:00:00.000Z,0.7548172757475083,Esri Community Maps,2024-10-15T00:00:00.000Z,,False
d662993c-ee1b-49a3-974a-6fb71aae91f8,Lennar at The Grove,construction_services,['real_estate'],2e7885e5-5d89-44bd-bff3-a841c6a2fa50,,,,riverside-san-bernardino,CA,Redlands,92374.0,2035 Citron Ct,34.08276,-117.1896009,meta,2025-06-02T07:00:00.000Z,0.4929396662387676,OpenStreetMap,2020-01-30T02:30:54.000Z,,False
76a38d3a-3721-4031-9fa5-cc0ae2647d08,CalAtlantic at Dobbins Place by Lennar,landmark_and_historical_building,"['home_developer', 'real_estate_service']",bd816986-c70a-443d-944b-67265c297caa,,residential,house,phoenix,AZ,Laveen,85339.0,9430 S 34th Ln,33.362632,-112.133451,meta,2025-06-02T07:00:00.000Z,0.4929396662387676,OpenStreetMap,2024-04-02T22:09:16.000Z,,False
085cbdb0-4e25-48ed-9306-7ade194178c8,CalAtlantic at Villages at Verona by Lennar,retirement_home,"['landmark_and_historical_building', 'real_estate_service']",2290edfb-ad43-4326-9732-ba4dc3c75f3c,,,,phoenix,AZ,Phoenix,85042.0,717 E Harwell Rd,33.3733532,-112.0629638,meta,2025-06-02T07:00:00.000Z,0.4929396662387676,OpenStreetMap,2022-06-11T15:16:24.000Z,,False
d67612d9-08e2-4eae-9b27-380df42ef7e4,CalAtlantic at Echelon - Salerno by Lennar,home_developer,['real_estate_service'],d37b1735-f7b8-4593-8a72-e58c1865f99c,,residential,house,phoenix,AZ,Chandler,85248.0,4231 S Barberry Dr,33.244881,-111.863233,meta,2025-06-02T07:00:00.000Z,0.4929396662387676,OpenStreetMap,2023-06-25T06:04:33.000Z,,False
2aa5374c-42c1-4476-a4d8-2a52733b81d3,CalAtlantic Phoenix Design Center by Lennar,home_developer,"['real_estate_service', 'real_estate']",75592e44-9fd5-4f9c-a3f2-44145d5d4c33,,,,phoenix,AZ,Gilbert,85233.0,890 W Elliot Rd,33.35086,-111.80885,meta,2025-06-02T07:00:00.000Z,0.3961437335670464,OpenStreetMap,2021-05-31T18:54:26.000Z,,False
f3e71327-7bef-444d-8c6a-b7a5906c7f44,Lennar Curtis Commons,real_estate,"['graphic_designer', 'business_advertising']",33786407-c6e7-48b4-bfb4-e3531a7fb38a,,,,phoenix,AZ,Goodyear,85338.0,16436 W Lilac St,33.4419611,-112.4108459,meta,2025-06-02T07:00:00.000Z,0.296943231441048,OpenStreetMap,2023-04-28T03:08:39.000Z,,False
beda9682-6687-46ad-a744-e09718cc8d5b,Lennar at Marley Park,real_estate,['home_improvement_store'],9e621d19-56ca-4a20-8969-e518ac637358,,,,phoenix,AZ,Surprise,85379.0,14527 W Via del Oro,33.597589,-112.37266,meta,2025-06-02T07:00:00.000Z,0.296943231441048,OpenStreetMap,2023-03-31T21:25:50.000Z,,False
fb17161a-9035-4f1a-b4be-ed327f7595bf,Lennar at Asante Heritage,real_estate,['construction_services'],9dfa20f5-0d22-44f5-84b4-512f59f326ee,,residential,house,phoenix,AZ,Surprise,85387.0,16884 W Vereda Solana Dr,33.70069,-112.42078,meta,2025-06-02T07:00:00.000Z,0.4929396662387676,OpenStreetMap,2024-07-06T12:59:28.000Z,,False
e78864c8-95ec-478d-bb6e-ffc4cfaf3bad,Lennar at Asante at Discovery,real_estate,['fast_food_restaurant'],c4de9484-a93f-4ef0-acde-e009d12327db,,residential,house,phoenix,AZ,Surprise,85387.0,16523 W Alameda Rd,33.704429,-112.414454,meta,2025-06-02T07:00:00.000Z,0.5662921348314607,OpenStreetMap,2024-07-06T13:56:55.000Z,,False
9797d7da-316f-456e-a317-7aa04053b1ba,Lennar at Asante Horizon,real_estate,['home_service'],423e4c8e-163a-43aa-9493-9c0963aad259,,residential,house,phoenix,AZ,Surprise,85387.0,16433 W Alameda Rd,33.70451,-112.412292,meta,2025-06-02T07:00:00.000Z,0.3961437335670464,OpenStreetMap,2024-03-28T23:28:15.000Z,,False
d8443a2a-62d9-48e1-8e41-1929e04586fb,Lennar Sales Corporation,real_estate,['home_developer'],,,,,phoenix,AZ,Tempe,85282.0,1665 W Alameda Dr,33.3986,-111.96602,meta,2025-06-02T07:00:00.000Z,0.93,,,,True
e5c48b89-619d-4cbc-ace9-c73632a8e89d,CalAtlantic at Arcadia Place by Lennar,real_estate_service,['home_developer'],,,,,phoenix,AZ,Phoenix,85018.0,3030 N 50th Pl,33.4834826,-111.9725275,meta,2025-06-02T07:00:00.000Z,0.3961437335670464,,,,False
4d12d5d8-7db6-4e21-8c30-ab0ae2b910bb,CalAtlantic at Princess Enclave by Lennar,real_estate_service,"['home_developer', 'real_estate']",1d65911d-1b78-4df7-9d0e-3394a01fa486,,,,phoenix,AZ,Scottsdale,85255.0,17712 N 77th Way,33.6473679,-111.9134653,meta,2025-06-02T07:00:00.000Z,0.4929396662387676,OpenStreetMap,2021-06-29T17:42:52.000Z,,False
4d12d5d8-7db6-4e21-8c30-ab0ae2b910bb,CalAtlantic at Princess Enclave by Lennar,real_estate_service,"['home_developer', 'real_estate']",fae6f520-0356-4c63-8246-797f11041443,,,,phoenix,AZ,Scottsdale,85255.0,17712 N 77th Way,33.6473679,-111.9134653,meta,2025-06-02T07:00:00.000Z,0.4929396662387676,OpenStreetMap,2021-06-29T17:42:52.000Z,,False
9bdcdc5d-3d26-49ee-ac39-45ca97fc5af7,CalAtlantic at Pescara by Lennar,real_estate,"['landmark_and_historical_building', 'home_developer']",1f7bf799-d947-4ca6-bb61-a486bd035ac9,,,,phoenix,AZ,Chandler,85249.0,3527 E Sagittarius Pl,33.2202257,-111.7820833,meta,2025-06-02T07:00:00.000Z,0.5662921348314607,OpenStreetMap,2023-07-08T23:54:57.000Z,,False
c19554c8-1ec7-4a25-99da-cdabf8c8312d,Lennar at Layton Lakes,real_estate,['american_restaurant'],b285211d-dd9d-4673-9a35-f380d5f8eb87,,,,phoenix,AZ,Chandler,85286.0,3171 S Huachuca Way,33.260717,-111.778179,meta,2025-06-02T07:00:00.000Z,0.3961437335670464,OpenStreetMap,2023-07-09T02:47:07.000Z,,False
0a88f83c-d77e-4e90-a71e-ef9fa4c49458,Belrose by Lennar Homes,real_estate,['professional_services'],,,,,phoenix,AZ,Gilbert,85298.0,2335 E Ridgewood Ln,33.2313381,-111.7402134,meta,2025-06-02T07:00:00.000Z,0.3376623376623376,,,,False
8c53a21f-7f94-407b-b615-36599ce69d31,Lennar at Hastings Farms,real_estate,"['real_estate_agent', 'construction_services']",0f0a113e-711d-4599-9fca-40fe4ef39b12,,,,phoenix,AZ,Queen Creek,85142.0,Ellsworth Rd & Cloud Rd,33.2266375,-111.6339991,meta,2025-06-02T07:00:00.000Z,0.296943231441048,Microsoft ML Buildings,2000-01-01T00:00:00.000Z,,False
80fd46ed-2cf0-4b33-860b-c511be96f162,Lennar at Nauvoo Station,real_estate_agent,['real_estate'],07d26514-d366-4ce8-94f4-64ef76e6d3b6,,,,phoenix,AZ,Queen Creek,85142.0,21352 E Domingo Rd,33.251182,-111.6226,meta,2025-06-02T07:00:00.000Z,0.5662921348314607,Esri Community Maps,2024-10-15T00:00:00.000Z,,False
80fd46ed-2cf0-4b33-860b-c511be96f162,Lennar at Nauvoo Station,real_estate_agent,['real_estate'],142cff34-34de-4621-9656-06902955b0cc,,,,phoenix,AZ,Queen Creek,85142.0,21352 E Domingo Rd,33.251182,-111.6226,meta,2025-06-02T07:00:00.000Z,0.5662921348314607,Esri Community Maps,2024-10-15T00:00:00.000Z,,False
75636c89-4bf6-4b5c-99d5-d81c06c15f24,Lennar at Discovery,real_estate,['construction_services'],142cff34-34de-4621-9656-06902955b0cc,,,,phoenix,AZ,Queen Creek,85142.0,21328 E Domingo Rd,33.25132,-111.622594,meta,2025-06-02T07:00:00.000Z,0.296943231441048,Esri Community Maps,2024-10-15T00:00:00.000Z,,False
ea42d073-837e-49b6-9746-dff781f876d6,CalAtlantic at Brighton Estates by Lennar,real_estate,"['home_developer', 'real_estate_service']",5154d944-d1b6-4404-ac64-7861a42956d6,,,,phoenix,AZ,Gilbert,85234.0,272 N Val Vista Dr,33.3549074,-111.7588852,meta,2025-06-02T07:00:00.000Z,0.4929396662387676,OpenStreetMap,2023-07-24T22:12:59.000Z,,False
ea42d073-837e-49b6-9746-dff781f876d6,CalAtlantic at Brighton Estates by Lennar,real_estate,"['home_developer', 'real_estate_service']",ec5fc980-0cf1-43a2-b465-db24a75ab7fa,,,,phoenix,AZ,Gilbert,85234.0,272 N Val Vista Dr,33.3549074,-111.7588852,meta,2025-06-02T07:00:00.000Z,0.4929396662387676,OpenStreetMap,2023-07-24T22:12:59.000Z,,False
ff6d03e7-c3bc-4e2c-ae70-4e018f5b5d7c,Lennar at Warner Meadow,real_estate,"['construction_services', 'professional_services']",,,,,phoenix,AZ,Gilbert,85296.0,640 S Olympic Dr,33.3389033,-111.703841,meta,2025-06-02T07:00:00.000Z,0.909823677581864,,,,False
8ff75a8e-cd89-4020-a2a2-fe78e7c892d5,Lennar at Morrison Ranch,real_estate,['construction_services'],974b0b0b-bb76-453b-89e1-16ddfd16a837,,,,phoenix,AZ,Mesa,85212.0,7436 E Olla Ave,33.364431,-111.674096,meta,2025-06-02T07:00:00.000Z,0.7548172757475083,OpenStreetMap,2023-07-21T21:29:36.000Z,,False
33d9b124-9966-4fb8-a31c-b52aa3b1468d,CalAtlantic at Charleston Estates by Lennar,home_developer,"['real_estate_service', 'construction_services']",a9c44696-62b7-48b0-9280-b1593bac4afd,,residential,house,phoenix,AZ,Queen Creek,85142.0,22242 E Estrella Rd,33.249582,-111.603356,meta,2025-06-02T07:00:00.000Z,0.4929396662387676,OpenStreetMap,2022-01-28T22:13:16.000Z,,False
1e968a65-5577-42db-954a-c32b37d3fdc8,Lennar at Ocotillo Heights,real_estate,['construction_services'],ae4f1cc9-4ab6-49e6-8849-01ef4f7199b3,,residential,house,phoenix,AZ,Queen Creek,85142.0,22342 E Pickett Ct,33.2481563,-111.6014257,meta,2025-06-02T07:00:00.000Z,0.242152466367713,OpenStreetMap,2022-01-21T21:34:53.000Z,,False
7fc1fa24-aa23-4827-ac79-2b570289e359,Lennar at Eastmark Discovery and Horizon,real_estate,['construction_services'],48a0e3b7-4fce-4a39-8091-680a773f464f,,,,phoenix,AZ,Mesa,85212.0,"Helios Smoke & Vape, 2905 S Ellsworth Rd",33.3267439,-111.6083498,meta,2025-06-02T07:00:00.000Z,0.3961437335670464,OpenStreetMap,2023-06-19T18:51:37.000Z,,False
cecec0fd-ce8b-4514-9d23-24fea77f0229,Lennar at Desert Creek,real_estate,"['home_developer', 'real_estate_service']",b271c92f-6549-46a2-aa21-b49b70ef1962,,,,phoenix,AZ,Mesa,85207.0,7227 E Orion St,33.469975,-111.674988,meta,2025-06-02T07:00:00.000Z,0.4929396662387676,OpenStreetMap,2022-09-17T13:11:02.000Z,,False
cecec0fd-ce8b-4514-9d23-24fea77f0229,Lennar at Desert Creek,real_estate,"['home_developer', 'real_estate_service']",7ce90a39-9cd9-40c4-923d-603e7758c48a,,,,phoenix,AZ,Mesa,85207.0,7227 E Orion St,33.469975,-111.674988,meta,2025-06-02T07:00:00.000Z,0.4929396662387676,OpenStreetMap,2022-09-17T13:11:02.000Z,,False
208af330-13a6-44ff-ad99-ad3f6615a6dd,CalAtlantic at Whisper Ridge by Lennar,real_estate,"['real_estate_service', 'home_developer']",bdcf00a5-1950-45e5-903f-4c90298fcae0,,residential,house,phoenix,AZ,Scottsdale,85259.0,10857 N 138th Pl,33.5846,-111.78224,meta,2025-06-02T07:00:00.000Z,0.4929396662387676,OpenStreetMap,2021-10-19T00:19:12.000Z,,False
0af1cdb9-84a6-442f-b5cf-cdb486efbf79,Lennar at Oak Pointe,real_estate,"['construction_services', 'real_estate_agent']",ef30ea64-b79f-42a0-9a7d-f759122938a1,,,,raleigh,NC,Apex,27523.0,6717 Old Jenks Rd,35.7579091,-78.8719846,meta,2025-06-02T07:00:00.000Z,0.9459263554653524,OpenStreetMap,2022-01-28T20:26:30.000Z,,False
9a8e1789-9183-41df-a0a5-38f480462d56,Lennar at Glen at Westhigh,real_estate,"['home_developer', 'real_estate_service']",,,,,raleigh,NC,Cary,27513.0,1504 Champlain Crest Way,35.7598512,-78.8367748,meta,2025-06-02T07:00:00.000Z,0.5662921348314607,,,,False
688b7196-c78e-4d48-99df-4ad7d5e2ab39,Lennar at Emory Springs,real_estate,['real_estate_agent'],9eb25523-6b85-4bef-a246-a914df21a225,,,,raleigh,NC,Cary,27519.0,400 Carpenter Upchurch Road,35.8023391,-78.869072,meta,2025-06-02T07:00:00.000Z,0.3961437335670464,OpenStreetMap,2020-10-18T01:54:41.000Z,,False
6e1375ea-5fe2-4581-bd86-d42957a2935e,Lennar Raleigh Division Office,contractor,"['property_management', 'home_improvement_store']",30b800ec-c66a-40a9-9982-c9e1208648a6,,,,raleigh,NC,Morrisville,27560.0,909 Aviation Pkwy,35.835546,-78.813843,meta,2025-06-02T07:00:00.000Z,0.5662921348314607,OpenStreetMap,2017-05-15T22:14:16.000Z,,True
fdfee45b-b2fa-4f8b-a4db-4de9c7472ebf,Lennar at Forty & Page,home_developer,,,,,,raleigh,NC,Durham,27703.0,"Page Road Grill, 5416 Page Rd",35.8782915,-78.8482141,meta,2025-06-02T07:00:00.000Z,0.4929396662387676,,,,False
2f74f49d-ca80-4253-9126-1b01910ea515,Lennar at Page Park,real_estate,['bar'],,,,,raleigh,NC,Morrisville,27560.0,4501 Crown Pkwy,35.88874,-78.829618,meta,2025-06-02T07:00:00.000Z,0.4929396662387676,,,,False
138a6561-2501-4f08-9c0a-6408a7304017,Lennar at Corners at Brier Creek,real_estate,"['construction_services', 'professional_services']",,,,,raleigh,NC,Raleigh,27617.0,4228 Corners Pkwy,35.9210756,-78.7883163,meta,2025-06-02T07:00:00.000Z,0.9297091412742382,,,,False
cdf0c611-390d-404f-9153-df9dbc3ef3ad,Lennar at Englehardt,real_estate,"['construction_services', 'real_estate_agent']",d6ce6554-f4be-4c73-a131-641c6ce77a2e,,,,raleigh,NC,Raleigh,27617.0,8808 Moss Glen Dr,35.916288,-78.752239,meta,2025-06-02T07:00:00.000Z,0.3961437335670464,OpenStreetMap,2022-09-10T21:39:45.000Z,,False
adabf5b7-f7d1-4595-b72e-dd4b5702ea90,Lennar at Trace at Olde Towne,real_estate,,,,,,raleigh,NC,Raleigh,27610.0,2211 S New Hope Rd,35.7473603,-78.5646657,meta,2025-06-02T07:00:00.000Z,0.4929396662387676,,,,False
d6e9b759-d1aa-4932-bf1d-03f501ec0d54,Lennar at Oluna,real_estate,"['real_estate_agent', 'construction_services']",bea54aff-f44a-4fd8-9dce-7d0a21c67feb,,,,las-vegas,NV,Las Vegas,89135.0,10325 Jade Point Dr,36.075741,-115.3174127,meta,2025-06-02T07:00:00.000Z,0.3961437335670464,OpenStreetMap,2024-03-19T06:43:19.000Z,,False
d6e9b759-d1aa-4932-bf1d-03f501ec0d54,Lennar at Oluna,real_estate,"['real_estate_agent', 'construction_services']",81833b92-5f42-46c5-a5f9-6e15d66e2690,,,,las-vegas,NV,Las Vegas,89135.0,10325 Jade Point Dr,36.075741,-115.3174127,meta,2025-06-02T07:00:00.000Z,0.3961437335670464,OpenStreetMap,2024-03-19T06:43:19.000Z,,False
17203266-51d0-4467-a678-bc3d93404aba,Lennar at Summerlin,real_estate,['property_management'],89f35871-12df-4e09-aad7-2fb44236de96,,residential,detached,las-vegas,NV,Las Vegas,89138.0,728 Big Meadow St,36.166644,-115.365289,meta,2025-06-02T07:00:00.000Z,0.7548172757475083,OpenStreetMap,2025-06-03T19:17:16.000Z,,False
efd52935-fdaf-4c29-bd97-68ea563c5882,Lennar at The Arches,real_estate,"['construction_services', 'professional_services']",,,,,las-vegas,NV,Las Vegas,89138.0,488 Sand Dune Arch St,36.186619,-115.356582,meta,2025-06-02T07:00:00.000Z,0.909823677581864,,,,False
39bcbd94-3bcb-405e-820e-3f9446047210,Lennar at Terra Bella,construction_services,['real_estate'],8e3d34c8-6d16-4d39-b548-9db7ac40ce3e,,,,las-vegas,NV,Henderson,89052.0,2555 Hampton Rd,35.9533555,-115.0965258,meta,2025-06-02T07:00:00.000Z,0.5662921348314607,OpenStreetMap,2025-04-15T08:43:46.000Z,,False
c8e14f2b-98e2-47c5-b771-838b85faf1a7,Lennar at The Canyons,construction_services,['real_estate'],b63d82f2-3fcc-49c6-abad-30d19d7ce998,,,,las-vegas,NV,Henderson,89052.0,2197 Radiant Horizon Ave,35.9986173,-115.0837066,meta,2025-06-02T07:00:00.000Z,0.7548172757475083,OpenStreetMap,2024-01-01T20:43:55.000Z,,False
6d40d062-679c-478e-adb9-4694a74a5f2c,Lennar at The Hudson at Green Valley,construction_services,"['real_estate', 'hospital']",51597b1f-526d-4d54-b3bb-a7d84c8b26cf,,,,las-vegas,NV,Henderson,89052.0,544 Mossy Cup St,36.0082318,-115.0847068,meta,2025-06-02T07:00:00.000Z,0.9459263554653524,OpenStreetMap,2021-08-23T12:16:19.000Z,,False
5d74db83-01af-4881-9248-0860127b2565,Lennar at Tresor,real_estate,['construction_services'],,,,,las-vegas,NV,Henderson,89012.0,Shaded Canyon Dr & Horizon Ridge Pkwy,36.0171662,-115.0059851,meta,2025-06-02T07:00:00.000Z,0.5662921348314607,,,,False
135c4ae3-0545-4d23-96d5-0a448300510b,Fiesta Park - New Home Community by Lennar,park,['home_improvement_store'],15f9f42c-8019-442a-b239-93e5b011410a,,,,las-vegas,NV,Henderson,89015.0,256 Jessica Grove St,36.030628,-115.0058,meta,2025-06-02T07:00:00.000Z,0.5662921348314607,Microsoft ML Buildings,2023-09-01T00:00:00.000Z,0.9424999952316284,False
28706ea0-b15b-4293-9533-2572b3b0f29f,Lennar at Chelsea Estates,real_estate_agent,"['topic_concert_venue', 'real_estate']",,,,,las-vegas,NV,Las Vegas,89148.0,8872 White Harbor Ave,36.074487,-115.2868453,meta,2025-06-02T07:00:00.000Z,0.3961437335670464,,,,False
12556085-053d-4fc5-ad0b-dd28cd338e64,Lennar Las Vegas Division Office,contractor,"['real_estate', 'professional_services']",e87bf0e0-b958-4b5d-9fa1-7020d4b7f83b,,,,las-vegas,NV,Las Vegas,89148.0,9275 W Russell Rd,36.0847625,-115.2940144,meta,2025-06-02T07:00:00.000Z,0.5662921348314607,OpenStreetMap,2024-01-03T04:10:42.000Z,,True
39922ff9-aa2d-41de-9768-d9bc747012e3,Lennar Las Vegas Experience Center,real_estate,"['real_estate_service', 'home_developer']",,,,,las-vegas,NV,Las Vegas,89148.0,9205 W Russell Rd,36.08501,-115.29362,meta,2025-06-02T07:00:00.000Z,0.7548172757475083,,,,False
52ec69aa-0426-4311-a95b-25029f9b9f9f,Lennar,contractor,"['construction_services', 'retirement_home']",45da0604-2d58-4b1f-a294-4f836edda048,,,,las-vegas,NV,Las Vegas,89119.0,6750 Via Austi Pkwy,36.066671,-115.16233,meta,2025-06-02T07:00:00.000Z,0.4929396662387676,OpenStreetMap,2024-03-28T07:27:31.000Z,,False
6592441f-5a8b-4cbd-9b9c-a4038c0fd4e8,Lennar Homes,home_improvement_store,"['contractor', 'retirement_home']",0068bd85-5d4f-4366-b744-b12496261066,,,,las-vegas,NV,Henderson,89011.0,752 Golden Sedum Dr,36.0693078,-115.0220587,meta,2025-06-02T07:00:00.000Z,0.9204819277108434,Microsoft ML Buildings,2023-09-01T00:00:00.000Z,0.992900013923645,False
99891cc7-2c61-402a-bddc-adb5f5d99fb1,Lennar at Boulder Ranch,real_estate,['real_estate_agent'],ebb58a3f-1f49-4c0e-acac-311d96a24488,,,,las-vegas,NV,Las Vegas,89122.0,6421 Joshuaville Dr,36.0898156,-115.0333858,meta,2025-06-02T07:00:00.000Z,0.4929396662387676,Microsoft ML Buildings,2023-09-01T00:00:00.000Z,0.9768999814987184,False
c4917efb-559b-40b9-a498-ae469338ee97,Lennar at The Waverly,construction_services,['real_estate'],,,,,las-vegas,NV,Henderson,89002.0,965 Nevada State Dr,35.9929298,-114.9362231,meta,2025-06-02T07:00:00.000Z,0.9784508333782836,,,,False
0422497c-f58a-4323-a293-57e908af999c,Lennar at Reverie at Lake Las Vegas,real_estate,['construction_services'],0583dfe9-3e15-41e8-b043-b3b9e1eb3b5b,,,,las-vegas,NV,Henderson,89011.0,Lake Las Vegas Pkwy & Highland Shores Dr,36.0859738,-114.9236619,meta,2025-06-02T07:00:00.000Z,0.3961437335670464,OpenStreetMap,2024-03-28T07:55:46.000Z,,False
d3b3a315-811b-495d-b15f-7b7632b32077,Lennar at North Creek,real_estate,"['american_restaurant', 'property_management']",,,,,las-vegas,NV,Las Vegas,89149.0,9704 Ramon Valley Ave,36.2984256,-115.3076921,meta,2025-06-02T07:00:00.000Z,0.4929396662387676,,,,False
9c9331be-f5a2-4240-99d6-e67fbdf74050,Lennar at The Hudson,real_estate,['real_estate_agent'],e38c12bc-6d06-44b6-b7ff-a565072719be,,,,las-vegas,NV,North Las Vegas,89031.0,2621 Rainy Meadows Ave,36.24245,-115.17796,meta,2025-06-02T07:00:00.000Z,0.4929396662387676,Microsoft ML Buildings,2023-09-01T00:00:00.000Z,0.9941999912261964,False
343c530f-d22d-4aab-9798-7f1938fd7699,Lennar at Roxbury at Valley Vista,real_estate,['construction_services'],9c778e17-15a5-4182-be8d-fa321cd737b4,,,,las-vegas,NV,North Las Vegas,89131.0,7334 N Decatur Blvd,36.2941818,-115.2063468,meta,2025-06-02T07:00:00.000Z,0.9459263554653524,OpenStreetMap,2024-03-17T20:13:15.000Z,,False
ae0b0b04-cc1a-49ab-9a85-375d6d31dda6,Lennar at Sky Ridge,real_estate,['contractor'],5f63c44d-1908-4340-ada4-57ed60dd29d3,,,,las-vegas,NV,Las Vegas,89166.0,8109 Begonia Blush Dr,36.308531,-115.301055,meta,2025-06-02T07:00:00.000Z,0.3376623376623376,Microsoft ML Buildings,2023-09-01T00:00:00.000Z,0.9901000261306764,False
f23dcd22-0bb6-4811-b768-8d418b2e5849,Lennar at Skye Canyon,real_estate,,52cef3f3-c9ff-44a0-8903-b75b6bb77cd2,,,,las-vegas,NV,Las Vegas,89166.0,Skye Field & Grand Canyon,36.319263,-115.308825,meta,2025-06-02T07:00:00.000Z,0.3376623376623376,OpenStreetMap,2022-09-01T13:08:13.000Z,,False
c0236b04-cddc-422c-8078-aa9dc2b21f9d,Lennar at Sunstone,real_estate,['construction_services'],,,,,las-vegas,NV,Las Vegas,89143.0,O'Hare Rd & Sunstone Pkwy,36.32502,-115.29213,meta,2025-06-02T07:00:00.000Z,0.5662921348314607,,,,False
8a5ea82a-4510-4c06-9588-99baa916a04c,Lennar Title - Santa Ana Branch,real_estate,"['real_estate_agent', 'professional_services']",c2cb3f01-17b8-4fe2-96ae-9f2b3526bd25,,transportation,parking,mission-viejo,CA,Santa Ana,92707.0,6 Hutton Centre Dr,33.6964895,-117.866177,meta,2025-06-02T07:00:00.000Z,0.9784508333782836,OpenStreetMap,2024-03-28T23:20:28.000Z,,False
f8c19ae2-b2d1-475c-9291-3ecc939795b4,CalAtlantic at Stafford at Greenwood by Lennar,contractor,"['home_developer', 'real_estate_service']",0d0d35a8-fc23-4d38-a485-996f07fb4ec4,,,,mission-viejo,CA,Tustin,92782.0,27 Barlett Pl,33.7022787,-117.8152951,meta,2025-06-02T07:00:00.000Z,0.9459263554653524,OpenStreetMap,2023-01-03T17:47:27.000Z,,False
bf5dbfff-4516-41b9-bda6-5df08fcaf3ae,Lennar at Portico at Rancho Mission Viejo,real_estate,,,,,,mission-viejo,CA,Ladera Ranch,92694.0,Cow Camp Rd,33.52932,-117.60842,meta,2025-06-02T07:00:00.000Z,0.3376623376623376,,,,False
85650b2d-9782-4878-9dd7-3b9e3343004f,Lennar Irvine Office,real_estate,,,,,,mission-viejo,CA,Irvine,92618.0,15131 Alton Pkwy,33.64791,-117.73123,meta,2025-06-02T07:00:00.000Z,0.7548172757475083,,,,True
a7075b7e-4ff8-4de9-bfb8-1d6d4809ae42,City of Hope Orange County Lennar Foundation Cancer Center,hospital,['health_and_medical'],eaee2a9a-b65a-4dfc-bd73-042bd3096341,City of Hope Orange County,,,mission-viejo,CA,Irvine,92618.0,1000 Fivepoint,33.65156,-117.7310573,Microsoft,2025-03-04T22:15:40.360Z,0.77,OpenStreetMap,2025-05-11T05:10:16.000Z,,False
fa8d4667-f514-4c53-81ad-a2effe8250dd,City of Hope Orange County Lennar Foundation Cancer Center,hospital,"['medical_center', 'oncologist']",34ac6ea3-e7bf-44a1-be5c-a6d41e87bebe,City of Hope Orange County,medical,hospital,mission-viejo,CA,Irvine,92618.0,1000 Fivepoint,33.6501922,-117.7290609,meta,2025-06-02T07:00:00.000Z,0.9879256218304756,OpenStreetMap,2025-05-11T05:10:16.000Z,,False
ed527d61-2ea6-4858-9114-f9a875bfc500,Lennar Print Services,printing_services,"['marketing_agency', 'fashion']",34ac6ea3-e7bf-44a1-be5c-a6d41e87bebe,City of Hope Orange County,medical,hospital,mission-viejo,CA,Irvine,92618.0,15131 Alton Pkwy,33.6503533,-117.7289466,meta,2025-06-02T07:00:00.000Z,0.9459263554653524,OpenStreetMap,2025-05-11T05:10:16.000Z,,False
3d0a4df1-7b6d-4006-b510-4033ce462bdf,Lennar at Serrano Summit at Amara,construction_services,['real_estate'],a1fc27f2-4931-4e33-86cf-763c3d914b37,,,,mission-viejo,CA,Lake Forest,92630.0,551 Serrano Summit Dr,33.6591,-117.68347,meta,2025-06-02T07:00:00.000Z,0.5662921348314607,Microsoft ML Buildings,2023-02-08T00:00:00.000Z,,False
8d670adb-e3ce-4757-b6cb-eb92dd212df7,CalAtlantic at Legend at Beacon Park by Lennar,home_developer,"['real_estate_service', 'real_estate']",3356dfbe-94ef-44f0-9d82-017917978766,,residential,house,mission-viejo,CA,Irvine,92618.0,208 Radial,33.686826,-117.7315884,meta,2025-06-02T07:00:00.000Z,0.4929396662387676,OpenStreetMap,2022-07-13T16:42:30.000Z,,False
598531e0-1731-4590-90e5-220f1cd04d6c,CalAtlantic at Skyridge by Lennar,home_developer,"['real_estate', 'real_estate_service']",,,,,mission-viejo,CA,Mission Viejo,92692.0,34 Cielo Cresta,33.669767,-117.624654,meta,2025-06-02T07:00:00.000Z,0.4929396662387676,,,,False
c3ba02f5-34c8-4a99-8abf-8fb644e5cb24,Lennar at Solana Heights,real_estate,"['real_estate_service', 'home_developer']",26034d46-f664-4b7a-baba-f3092811fb0b,,,,oxnard,CA,Ventura,93001.0,142 Chickasaw St,34.3070454,-119.2906136,meta,2025-06-02T07:00:00.000Z,0.9784508333782836,Microsoft ML Buildings,2022-04-29T00:00:00.000Z,,False
e5563e4e-2679-435d-8aa4-c581bbc99920,WCI at Artesia by Lennar,home_developer,"['real_estate', 'construction_services']",,,,,bonita-springs-naples,FL,Naples,34113.0,1347 Artesia Dr E,26.0555337,-81.7114251,meta,2025-06-02T07:00:00.000Z,0.4929396662387676,,,,False
cca89169-cf85-41b0-84be-9a53383c2c60,WCI at Talis Park by Lennar,real_estate,"['real_estate_agent', 'construction_services']",cc319311-023a-42fe-98c5-ed9850d63076,,,,bonita-springs-naples,FL,Naples,34110.0,16980 Livingston Rd,26.31618,-81.760879,meta,2025-06-02T07:00:00.000Z,0.9415384615384615,OpenStreetMap,2017-09-22T19:29:59.000Z,,False
06c752f5-6242-4f1a-a373-4dff57dfb43d,Lennar at Bonita Landing,real_estate,"['real_estate_agent', 'construction_services']",,,,,bonita-springs-naples,FL,Bonita Springs,34135.0,16101 Bonita Beach Road Southeast,26.33157,-81.73836,meta,2025-06-02T07:00:00.000Z,0.7548172757475083,,,,False
8795b819-2540-441a-ab54-6abb156d2082,Lennar Homes,home_improvement_store,"['retirement_home', 'contractor']",984a9b30-3ca8-4d12-a432-9f37d7b3a58e,,,,bonita-springs-naples,FL,Naples,34120.0,10056 Siesta Bay Dr,26.280166,-81.667505,meta,2025-06-02T07:00:00.000Z,0.242152466367713,OpenStreetMap,2017-09-10T18:57:30.000Z,,False
8795b819-2540-441a-ab54-6abb156d2082,Lennar Homes,home_improvement_store,"['retirement_home', 'contractor']",e49926f5-d4a0-441b-b2c1-9a58ba4fdbaa,,,,bonita-springs-naples,FL,Naples,34120.0,10056 Siesta Bay Dr,26.280166,-81.667505,meta,2025-06-02T07:00:00.000Z,0.242152466367713,OpenStreetMap,2017-09-10T18:57:30.000Z,,False
71e9df65-c7ad-4d8e-8a5e-9207317d5f36,Lennar at The Place at Corkscrew,real_estate,['real_estate_agent'],a9ef308d-04f6-467f-a9d0-34fd5d11a6eb,,residential,house,bonita-springs-naples,FL,Estero,33928.0,17067 Ashcomb Way,26.42157,-81.82037,meta,2025-06-02T07:00:00.000Z,0.3961437335670464,OpenStreetMap,2019-05-31T18:50:28.000Z,,False
f6907090-90b3-47da-a260-233b80415b42,"Lennar Stockton, California",real_estate,['construction_services'],,,,,stockton,CA,Stockton,0.0,,38.00527,-121.35836,meta,2025-06-02T07:00:00.000Z,0.3961437335670464,,,,False
f1752227-9573-4099-82fa-192387671cd4,CalAtlantic at Eagle Bay by Lennar,real_estate,"['home_developer', 'real_estate_service']",406446c2-d2a2-48f5-aeec-b9246514c8f6,,,,kissimmee,FL,Kissimmee,34743.0,2607 Eagle Bay Blvd,28.335675,-81.338236,meta,2025-06-02T07:00:00.000Z,0.5662921348314607,OpenStreetMap,2020-09-03T17:08:59.000Z,,False
833107d3-af3e-4853-a897-486ddb00f48d,Lennar Homes,real_estate,['construction_services'],ec5f8835-7e0a-45c1-812d-2f3ec085d2f4,,,,pensacola,FL,Pensacola,32502.0,801 W Romana St,30.4090977,-87.2265667,meta,2025-06-02T07:00:00.000Z,0.909823677581864,OpenStreetMap,2018-01-26T15:37:05.000Z,,False
a2601b94-2479-453a-9d74-171a806b0a3c,Lennar at Silver Oaks,real_estate,['real_estate_agent'],,,,,visalia,CA,Visalia,93291.0,Ferguson Ave and Demaree St,36.34914,-119.332003,meta,2025-06-02T07:00:00.000Z,0.296943231441048,,,,False
697341c5-b495-4da5-9ff9-1ae9009564fe,Lennar Homes at Summerlake,real_estate,['professional_services'],,,,,orlando,FL,Winter Garden,34787.0,8001 Pond Apple Dr,28.4518387,-81.6137975,meta,2025-06-02T07:00:00.000Z,0.3376623376623376,,,,False
842ee43d-ad69-4ad4-9a63-fa451e716172,CalAtlantic at Isles of Lake Hancock by Lennar,real_estate,"['real_estate_service', 'home_developer']",,,,,orlando,FL,Winter Garden,34787.0,14554 Porter Rd,28.4493322,-81.6033536,meta,2025-06-02T07:00:00.000Z,0.5662921348314607,,,,False
ca346330-8386-4784-bf05-f2357dc8471f,Lennar at Windstone,real_estate_service,"['home_developer', 'construction_services']",cba44956-7955-4c48-8bb9-3732550a7341,,,,orlando,FL,Windermere,34786.0,12530 Climbing Vine Ct,28.46157,-81.56375,meta,2025-06-02T07:00:00.000Z,0.3961437335670464,Microsoft ML Buildings,2022-03-21T00:00:00.000Z,,False
bfab229c-123d-4c9e-8e6d-0b2851c1aefd,Lennar Title,real_estate_agent,"['real_estate', 'professional_services']",5f8149a3-45bc-4c6a-91c5-557b1c692cf7,,,,orlando,FL,Orlando,32821.0,6675 Westwood Blvd,28.4158991,-81.4729594,meta,2025-06-02T07:00:00.000Z,0.909823677581864,OpenStreetMap,2021-03-19T22:42:13.000Z,,False
644c50fd-325b-4c18-9925-af2d690d30fd,Lennar Homes,home_improvement_store,"['contractor', 'construction_services']",5f8149a3-45bc-4c6a-91c5-557b1c692cf7,,,,orlando,FL,Orlando,32821.0,6750 Forum Dr,28.4160165,-81.472922,meta,2025-06-02T07:00:00.000Z,0.3961437335670464,OpenStreetMap,2021-03-19T22:42:13.000Z,,False
e7dccdc1-7d26-4f8d-94fa-46d16d3863ad,Lennar Mortgage,mortgage_broker,"['transportation', 'installment_loans']",5f8149a3-45bc-4c6a-91c5-557b1c692cf7,,,,orlando,FL,Orlando,32821.0,6675 Westwood Blvd,28.416025,-81.4728341,meta,2025-06-02T07:00:00.000Z,0.8860580325548478,OpenStreetMap,2021-03-19T22:42:13.000Z,,False
db899767-1224-47f2-aebd-34a13766ccef,Lennar Orlando,real_estate,['real_estate_service'],,,,,orlando,FL,Orlando,0.0,,28.470561,-81.4271802,meta,2025-06-02T07:00:00.000Z,0.8384615384615385,,,,False
4d180ce4-67ce-4d25-bb70-9ceb25efb4cd,Lennar at Silver Oak,real_estate,['home_improvement_store'],8d5986bf-f2e3-48e3-870a-e38e2c6a10a3,,,,orlando,FL,Apopka,32703.0,739 Panical Dr,28.641851,-81.496666,meta,2025-06-02T07:00:00.000Z,0.7548172757475083,OpenStreetMap,2022-08-22T17:56:16.000Z,,False
4172c2d5-6106-4044-99f2-042219d65b10,Lennar at Econ Trails,construction_services,['real_estate'],3efd74a8-dcb1-427d-b6f2-78d94622a1c7,,,,orlando,FL,Orlando,32825.0,9806 Red Eagle Dr,28.543936,-81.2522516,meta,2025-06-02T07:00:00.000Z,0.9784508333782836,OpenStreetMap,2022-09-02T12:45:06.000Z,,False
77a49879-7098-4459-9662-42140718f59c,Lennar at Estates at Wellington,real_estate,['construction_services'],f1883333-60e1-4b7d-8dce-a13b30861ef2,,,,orlando,FL,Oviedo,32765.0,5100 Kingwell Cir,28.6322006,-81.2480164,meta,2025-06-02T07:00:00.000Z,0.5662921348314607,Microsoft ML Buildings,2023-09-01T00:00:00.000Z,0.9975000023841858,False
96563b61-5be7-4544-afe0-0586dfb95f52,CalAtlantic at Oak Ridge by Lennar,real_estate,"['real_estate_service', 'home_developer']",d6031ba8-d1de-40c3-9286-0666951c7e03,,,,orlando,FL,Apopka,32712.0,4435 Pine Gold Ave,28.750131,-81.553422,meta,2025-06-02T07:00:00.000Z,0.4929396662387676,OpenStreetMap,2022-08-22T16:56:22.000Z,,False
17e15709-ae09-4f69-a117-293747822bf2,Lennar at Lake Markham Landings,real_estate,"['real_estate_service', 'home_developer']",1e2d6366-cad9-4cb8-94cb-f02ca7e9c2d1,,,,orlando,FL,Sanford,32771.0,2128 Markham Landings Way,28.794,-81.400766,meta,2025-06-02T07:00:00.000Z,0.9784508333782836,OpenStreetMap,2021-03-21T00:55:07.000Z,,False
ca08d467-8160-4020-9fb4-54187604e3b2,Lennar at Golden Hills,real_estate,,4b50013e-99d8-4b90-bee1-b36dd9b394bf,,residential,house,reno,NV,Reno,89521.0,2730 Trail Rider Dr,39.431211,-119.709798,meta,2025-06-02T07:00:00.000Z,0.7548172757475083,OpenStreetMap,2024-10-23T01:13:32.000Z,,False
4af42b65-ba38-4d2b-82ef-0a9f00fa4959,Lennar at D'Andrea,real_estate,['real_estate_agent'],170cb690-29c7-46b0-a74a-f695b2b2a40d,,residential,house,reno,NV,Sparks,89434.0,2983 Brachetto Loop,39.557347,-119.687948,meta,2025-06-02T07:00:00.000Z,0.7548172757475083,OpenStreetMap,2024-10-29T03:09:29.000Z,,False
da4cc505-4615-46d9-b8ea-f7bb2d93c5b5,CalAtlantic at Druid Hills by Lennar,real_estate,"['home_developer', 'real_estate_service']",e0e68f2b-aa69-4d45-9d9f-481f876b5af7,,,,atlanta,GA,Atlanta,30329.0,3185 Briarcliff Rd NE,33.837941,-84.307752,meta,2025-06-02T07:00:00.000Z,0.3961437335670464,OpenStreetMap,2024-09-06T05:22:16.000Z,,False
3b6e88d5-3d76-46e5-b168-c61b809f82fb,Lennar at Vista at Windermere,real_estate,['construction_services'],,,,,atlanta,GA,Cumming,30041.0,4020 Morgan Elizabeth Way,33.8848399,-84.13871,meta,2025-06-02T07:00:00.000Z,0.3376623376623376,,,,False
7fb52975-ed34-4246-87a1-41d2410e109b,Adam Sallaz-Lennar New Home Consultant,real_estate_agent,"['real_estate', 'construction_services']",ef1178b2-936e-4033-9f40-e80138987ba0,,residential,house,atlanta,GA,Peachtree Corners,30092.0,3775 Medlock Bridge Rd NW,33.97936,-84.21203,meta,2025-06-02T07:00:00.000Z,0.3376623376623376,OpenStreetMap,2025-02-12T21:38:32.000Z,,False
7fb52975-ed34-4246-87a1-41d2410e109b,Adam Sallaz-Lennar New Home Consultant,real_estate_agent,"['real_estate', 'construction_services']",22f9251b-f1f9-4e6d-b019-0c926b4fbdc7,,residential,house,atlanta,GA,Peachtree Corners,30092.0,3775 Medlock Bridge Rd NW,33.97936,-84.21203,meta,2025-06-02T07:00:00.000Z,0.3376623376623376,OpenStreetMap,2025-02-12T21:38:32.000Z,,False
85e1e766-f9e0-447d-ba1c-645353c6597a,Lennar Atlanta Division Office,construction_services,"['contractor', 'real_estate']",3c3e3ccb-7846-4fdc-bc9b-02814c8b12f6,,commercial,commercial,atlanta,GA,Roswell,30076.0,1000 Holcomb Woods Pkwy,34.0227867,-84.3110922,meta,2025-06-02T07:00:00.000Z,0.9784508333782836,OpenStreetMap,2015-06-22T00:22:34.000Z,,True
1a3fd856-6343-4f79-9b3e-d95abce3527e,Lennar at Richmond Row,real_estate,"['construction_services', 'real_estate_agent']",,,,,atlanta,GA,Suwanee,30024.0,2800 Thames Willow Way,34.0184435,-84.045491,meta,2025-06-02T07:00:00.000Z,0.9204819277108434,,,,False
479cdaf5-092b-429b-a786-6ef4dec9ef41,Lennar at Buford Village,real_estate,['construction_services'],,,,,atlanta,GA,Buford,30518.0,22 Buford Hwy,34.0732139,-84.0527883,meta,2025-06-02T07:00:00.000Z,0.3961437335670464,,,,False
de3c80fc-47b9-4d2c-a6a9-fc379ec51faf,Lennar at Enclave at Morningside,real_estate,['construction_services'],974c6b1a-8580-4d8d-878a-0130c2a42657,,,,atlanta,GA,Buford,30518.0,136 Morningside Dr,34.110798,-84.000774,meta,2025-06-02T07:00:00.000Z,0.5662921348314607,OpenStreetMap,2020-06-14T12:37:34.000Z,,False
24962649-50c6-4709-8506-dcf7d1560c38,Lennar Utah,real_estate,"['construction_services', 'business']",,,,,salt-lake-city,UT,Sandy,84070.0,111 E Sego Lily Dr,40.5710294,-111.8876841,meta,2025-06-02T07:00:00.000Z,0.8384615384615385,,,,False
fd41406f-a954-41ac-8609-008b6d2af598,Lennar at Willow at Epoca,home_developer,"['construction_services', 'professional_services']",c1ac2c09-2d61-477e-92e3-b68af3befe94,,,,san-diego,CA,San Diego,92154.0,2101 Acara Cir,32.5577,-116.99137,meta,2025-06-02T07:00:00.000Z,0.9300613496932516,Google Open Buildings,2023-05-01T00:00:00.000Z,0.8509,False
b43cfb84-c23c-47be-b3f1-1df09bd547dd,Lennar at Millenia,builders,,,,,,san-diego,CA,Chula Vista,91915.0,2003 Artisan Way,32.6197807,-116.9644008,Microsoft,2020-08-06T18:55:06.243Z,0.77,,,,False
7f4cfc39-90df-48e3-b78f-865d89f74a52,Lennar at Eko Blok,real_estate,['construction_services'],79f1918e-c283-4537-800b-9aaa32730140,,,,san-diego,CA,San Diego,92109.0,740 Hornblend St,32.79582,-117.25565,meta,2025-06-02T07:00:00.000Z,0.4929396662387676,OpenStreetMap,2009-03-07T00:57:45.000Z,,False
7f4cfc39-90df-48e3-b78f-865d89f74a52,Lennar at Eko Blok,real_estate,['construction_services'],2d328912-b8ef-46eb-9a54-d195d0bd1312,,,,san-diego,CA,San Diego,92109.0,740 Hornblend St,32.79582,-117.25565,meta,2025-06-02T07:00:00.000Z,0.4929396662387676,OpenStreetMap,2009-03-06T00:00:02.000Z,,False
6f48a45d-bde2-419c-be64-68f145d1a8bd,CalAtlantic at Tavara Ridge by Lennar,real_estate,"['home_developer', 'real_estate_service']",69914170-a2c8-4d97-80c4-5bfbda000d9c,,,,san-diego,CA,San Diego,92117.0,Pocahontas Ave  -  South of Clairemont Mesa Blvd.,32.824198,-117.20899,meta,2025-06-02T07:00:00.000Z,0.242152466367713,Microsoft ML Buildings,2000-01-01T00:00:00.000Z,,False
950b8c2e-0eb4-4ccb-9945-38c4714f2a39,Lennar Title â€“ San Diego,real_estate,['escrow_services'],0210624a-ba2d-45cb-bc38-d1ec8ff6309b,,transportation,parking,san-diego,CA,San Diego,92128.0,13520 Evening Creek Dr N,32.96338,-117.09332,meta,2025-06-02T07:00:00.000Z,0.296943231441048,OpenStreetMap,2023-01-16T19:10:15.000Z,,False
ed148f91-8e7c-4106-93c1-5b8c8c221ad2,CalAtlantic at Artesian Estates by Lennar,real_estate,"['real_estate_service', 'home_developer']",868d54cc-fa87-4ddb-b0f1-d4d57b45f13d,,,,san-diego,CA,San Diego,92127.0,15527 Artesian Ridge Rd,33.0134259,-117.1519106,meta,2025-06-02T07:00:00.000Z,0.3961437335670464,Microsoft ML Buildings,2022-04-29T00:00:00.000Z,,False
24874a15-cdf0-44d3-8153-afecc7f6a179,CalAtlantic San Diego Design Center by Lennar,home_developer,['real_estate_service'],,,,,san-diego,CA,San Diego,92127.0,16465 Via Esprillo,33.01322,-117.09237,meta,2025-06-02T07:00:00.000Z,0.3376623376623376,,,,False
a251065b-5afe-4bc1-abbc-31fe0c9cd548,Lennar San Diego,real_estate,,,,,,san-diego,CA,San Diego,92127.0,16465 Via Esprillo,33.0137085,-117.0917382,meta,2025-06-02T07:00:00.000Z,0.8148148148148148,,,,False
cc6f1050-871d-4081-b09c-8de63ca72d9f,Lennar at Nicolas Heights,real_estate,"['construction_services', 'real_estate_agent']",,,,,temecula-murrieta,CA,Temecula,92591.0,40469 Linden Ct,33.45634,-117.08098,meta,2025-06-02T07:00:00.000Z,0.5662921348314607,,,,False
4fd1a8f1-734d-4ed2-8d4b-fcd50e19419b,Lennar at Arroyo Vista,landmark_and_historical_building,"['real_estate', 'real_estate_agent']",56375d8d-54ff-4228-842b-4e2a79d9feb1,,,,temecula-murrieta,CA,Murrieta,92563.0,40265 Calle Real,33.551028,-117.171242,meta,2025-06-02T07:00:00.000Z,0.5662921348314607,Microsoft ML Buildings,2022-03-17T00:00:00.000Z,,False
4fd1a8f1-734d-4ed2-8d4b-fcd50e19419b,Lennar at Arroyo Vista,landmark_and_historical_building,"['real_estate', 'real_estate_agent']",313a5276-64e4-4e0e-9f32-37ff6dbfbe34,,,,temecula-murrieta,CA,Murrieta,92563.0,40265 Calle Real,33.551028,-117.171242,meta,2025-06-02T07:00:00.000Z,0.5662921348314607,Microsoft ML Buildings,2022-03-17T00:00:00.000Z,,False
37e75bbe-5f92-4a38-8980-ac31a4acb228,Lennar Title,real_estate,"['insurance_agency', 'real_estate_agent']",88726acb-e481-4723-9b91-cf20a540a633,,commercial,commercial,temecula-murrieta,CA,Murrieta,92562.0,25220 Hancock Ave,33.5626989,-117.1816733,meta,2025-06-02T07:00:00.000Z,0.9459263554653524,OpenStreetMap,2016-03-10T04:48:13.000Z,,False
22b105ff-330c-4870-82c9-40fb25d450c9,Lennar Charleston Division Office,construction_services,['real_estate'],,,,,charleston,SC,Charleston,29405.0,1505 King St Ext,32.80663,-80.02857,meta,2025-06-02T07:00:00.000Z,0.8980891719745223,,,,True
580e3d68-d301-41a5-a266-3591c49d8739,Lennar Savannah / Hilton Head,real_estate,,,,,,charleston,SC,Hardeeville,29927.0,61 St Andrews Cres,32.80663,-80.02857,meta,2025-06-02T07:00:00.000Z,0.8384615384615385,,,,False
2220b153-e3e8-4824-9e89-d93a95951313,Lennar Mortgage,mortgage_broker,"['installment_loans', 'transportation']",b99dd2de-d518-4556-9cbb-daf970ddff42,,,,charleston,SC,Charleston,29405.0,1505 King St Ext,32.8174511,-79.9537878,meta,2025-06-02T07:00:00.000Z,0.9297091412742382,OpenStreetMap,2020-04-06T06:22:46.000Z,,False
7ea08809-3b54-4aa4-812f-dcb17fba2507,Lennar at Waterside at the Lakes of Cane Bay,construction_services,['real_estate'],,,,,charleston,SC,Summerville,29486.0,432 Richfield Way,32.89732,-80.09504,meta,2025-06-02T07:00:00.000Z,0.9784508333782836,,,,False
7f512fd4-f473-4d30-b2e3-a3b8d54cb64d,Lennar at Coosaw Preserve,real_estate,['construction_services'],1f5ba2bf-1958-4a69-a879-779732137c56,,,,charleston,SC,Ladson,29456.0,9717 Shortleaf Pine Dr,32.953658,-80.113679,meta,2025-06-02T07:00:00.000Z,0.7548172757475083,OpenStreetMap,2022-05-31T17:26:12.000Z,,False
78142211-9af5-4f40-9a86-6c6de42148be,Lennar Homes,contractor,"['construction_services', 'real_estate']",5f68ef97-1e30-4b58-b2de-f62cab410c31,Building III,commercial,office,austin,TX,Austin,78759.0,12301 Research Blvd,30.428803,-97.755518,meta,2025-06-02T07:00:00.000Z,0.3376623376623376,OpenStreetMap,2017-03-13T13:46:28.000Z,,False
b276a9e2-7e54-4710-bdb7-a15e4cc0dfdc,Village Builders at Amber Oaks by Lennar,real_estate_service,"['home_developer', 'construction_services']",d7ccb7f4-bb07-4882-98d7-96961da32451,,residential,house,austin,TX,Austin,78729.0,9109 Moonstone Dr,30.46873,-97.7685599,meta,2025-06-02T07:00:00.000Z,0.5662921348314607,OpenStreetMap,2023-03-06T04:10:34.000Z,,False
d9879a5d-42ba-4bba-a920-1581ccd2f695,Lennar Title,contractor,"['real_estate', 'real_estate_agent']",378a236d-f5b8-40c7-8cd0-164145a4c508,,,,austin,TX,Austin,78717.0,13620 FM-620,30.476488,-97.777466,meta,2025-06-02T07:00:00.000Z,0.9415384615384615,OpenStreetMap,2023-10-16T23:24:02.000Z,,False
81e002d8-8b51-424d-9e0c-0430f24bfcba,Lennar Homes,contractor,"['real_estate', 'landmark_and_historical_building']",220c1091-f650-4ff7-8be3-e99539c0e0c7,,,,austin,TX,Austin,78753.0,1515 Bradbury Ln,30.395113,-97.646791,meta,2025-06-02T07:00:00.000Z,0.296943231441048,OpenStreetMap,2015-12-06T23:11:39.000Z,,False
c02f0dbd-3108-471d-ba16-e411c5725b3c,Lennar Homes,real_estate,"['contractor', 'accommodation']",b8488acd-d980-4a96-a9f8-f0b75bde760d,,,,jacksonville-florida,FL,Jacksonville,32256.0,9440 Philips Hwy,30.1958416,-81.5701345,meta,2025-06-02T07:00:00.000Z,0.9300613496932516,OpenStreetMap,2018-11-27T22:46:34.000Z,,False
ddb399f8-68ac-43d5-8e25-818bf1d4195a,Lennar Jacksonville,real_estate,['construction_services'],b8488acd-d980-4a96-a9f8-f0b75bde760d,,,,jacksonville-florida,,,0.0,,30.19565,-81.56996,meta,2025-06-02T07:00:00.000Z,0.8148148148148148,OpenStreetMap,2018-11-27T22:46:34.000Z,,False
ec5f674b-1be9-49f6-91c1-2494e9bc1502,Lennar at Hidden Oakes,real_estate,"['real_estate_agent', 'construction_services']",,,,,jacksonville-florida,FL,Jacksonville,32218.0,2219 Oak St,30.3113486,-81.6848546,meta,2025-06-02T07:00:00.000Z,0.3961437335670464,,,,False
a240c24f-d2b7-42ab-bb11-8483334bbc48,Lennar Homes,contractor,"['professional_services', 'real_estate']",92da9b6b-172d-4dae-a01d-2ebfe1f561e8,,,,st-petersburg,FL,Clearwater,33760.0,15550 Lightwave Dr,27.913904,-82.701812,meta,2025-06-02T07:00:00.000Z,0.242152466367713,OpenStreetMap,2017-10-24T16:17:56.000Z,,False
3a6c60fb-ae8f-4683-9ea3-2fb5ef4f73c9,Lennar at Ventana at Waters Edge,real_estate,['construction_services'],9455472d-009e-43eb-b535-e62639edabc0,,,,st-petersburg,FL,New Port Richey,34654.0,11906 Castine St,28.281758,-82.618726,meta,2025-06-02T07:00:00.000Z,0.5662921348314607,Microsoft ML Buildings,2022-01-30T00:00:00.000Z,,False
d3177fc5-9e6e-42ca-9048-2592b74cbd35,Lennar at Lakeside,real_estate,['real_estate_agent'],3fe1d07b-6e9d-4d92-a207-7ddf9aeda3d7,,,,st-petersburg,FL,Hudson,34669.0,13608 Newport Shores Dr,28.36047,-82.590596,meta,2025-06-02T07:00:00.000Z,0.3961437335670464,Microsoft ML Buildings,2022-01-30T00:00:00.000Z,,False
