id_left,primary_name_left,primary_category,alternate_category,region,locality,zipcode,address,latitude,longitude,plc_source_dataset,plc_source_update_time,plc_source_confidence,id_right,primary_name_right,subtype,class,bldg_dataset,bldg_update_time,bldg_confidence,source_city,is_office_by_pipeline
4506a847-15a1-4457-9f63-79d58f78e3c6,Microsoft Office,business,"['software_development', 'information_technology_company']",IA,Des Moines,50309.0,1408 Locust St,41.584419,-93.634887,meta,2025-06-02T07:00:00.000Z,0.4929396662387676,d62578bb-9ad1-4354-9800-7f5fd1dcf5e3,,,,OpenStreetMap,2011-03-04T14:40:12.000Z,,des-moines,True
5fec361a-bc7a-4d83-ab38-e869958f68bd,Historic Microsoft Headquarters Plaque,landmark_and_historical_building,['fountain'],NM,Albuquerque,87108.0,115 California St NE,35.0775289,-106.5754672,meta,2025-06-02T07:00:00.000Z,0.9415384615384615,760a3987-aa43-4dc0-9a27-02ffae38ab2a,,,,OpenStreetMap,2022-01-09T17:47:36.000Z,,albuquerque,True
675d0ed8-caf7-445d-86f7-cee64548d4de,Microsoft Technology Center,event_planning,"['software_development', 'business']",MI,Detroit,48226.0,"Compuware, 1 Campus Martius",42.3330167,-83.0466662,meta,2025-06-02T07:00:00.000Z,0.9784508333782836,6c2e9f9e-65f2-44c3-92ff-ecf33ca3f64c,One Campus Martius,commercial,commercial,OpenStreetMap,2020-03-24T14:48:40.000Z,,detroit,True
20d28078-4f47-4bdc-a579-d1927d987c40,Microsoft Corporation,event_planning,"['business', 'software_development']",CA,Sacramento,95814.0,1415 L St,38.5769489,-121.4885598,meta,2025-06-02T07:00:00.000Z,0.9784508333782836,ef477018-d931-469c-ac0a-9df17aed4bb9,,commercial,commercial,OpenStreetMap,2024-03-27T18:49:02.000Z,,sacramento,True
64ce30cb-cf12-486e-a330-d033fde64ee6,Microsoft Corporation,it_service_and_computer_repair,"['laboratory_testing', 'electronics']",OH,Dublin,43016.0,6175 Shamrock Ct,40.09461,-83.139703,meta,2025-06-02T07:00:00.000Z,0.4929396662387676,68248156-1846-486b-93f0-99ce20e01e5a,,,,OpenStreetMap,2017-02-17T00:08:55.000Z,,columbus-ohio,False
8bccfe36-3540-45c3-8f2e-1aef32daad64,Microsoft Corp,corporate_office,['private_establishments_and_corporates'],OH,Columbus,43240.0,8800 Lyra Dr Ste 400,40.144407,-82.972883,Microsoft,2021-01-04T12:55:43.303Z,0.77,e15bdf01-0ce2-45ea-a4af-c57a8a0e52f9,Microsoft,commercial,office,OpenStreetMap,2021-06-06T05:52:39.000Z,,columbus-ohio,True
d230a56f-dfa5-4eef-9826-57b6b97b9a21,"Data Products, Data and AI Solutions. IBM and Microsoft Partner",it_service_and_computer_repair,"['software_development', 'professional_services']",FL,Tampa,33602.0,401 E Jackson St,27.94699,-82.45618,meta,2025-06-02T07:00:00.000Z,0.9204819277108434,0cf9a577-ea44-4a82-b4cd-f7d93baaeefd,Truist Place,commercial,office,OpenStreetMap,2022-03-24T22:43:18.000Z,,tampa,False
c512f9ad-3726-4b55-955d-9b8c42c9e0b9,Microsoft Reno,software_development,"['event_planning', 'professional_services']",NV,Reno,89511.0,6880 Sierra Center Pkwy,39.4660327,-119.7779796,meta,2025-06-02T07:00:00.000Z,0.9784508333782836,bb4632e6-1405-46c1-bade-c558dcf1e662,,commercial,office,OpenStreetMap,2024-10-09T17:41:27.000Z,,reno,True
e8c953e8-9684-4344-9ab2-bf77fc237ba0,Microsoft Corporation,event_planning,"['software_development', 'business']",CA,San Diego,92121.0,9255 Towne Centre Dr,32.8760459,-117.2069254,meta,2025-06-02T07:00:00.000Z,0.9459263554653524,9c5556c7-45e3-4285-afbc-b8d83fe7abfd,,transportation,parking,OpenStreetMap,2021-02-03T19:11:08.000Z,,san-diego,True
6c64207c-5459-4254-a484-bc233e485709,Microsoft Corporation,it_service_and_computer_repair,"['software_development', 'professional_services']",CO,Fort Collins,80525.0,2720 Council Tree Ave,40.5257208,-105.0249465,meta,2025-06-02T07:00:00.000Z,0.9459263554653524,f48f0af2-d0a9-4e04-946f-f78d231079ce,,commercial,retail,OpenStreetMap,2025-04-30T20:14:27.000Z,,fort-collins,False
cfac8d4b-5b5b-4747-8e18-47db3d3cbfb8,Microsoft Corporation,corporate_office,['private_establishments_and_corporates'],KS,Overland Park,66210.0,10801 Mastin St Ste 620,38.932857,-94.701935,Microsoft,2020-01-08T16:44:55.430Z,0.77,f0bdfb36-27c1-4646-b5d3-a4c35d328878,,commercial,office,OpenStreetMap,2018-05-01T03:22:56.000Z,,kansas-city,True
0d4ced05-b6ce-4bb0-a628-05dbbb22acaa,RCM Technologies / Microsoft Solutions Group,it_service_and_computer_repair,,MI,Grand Rapids,49503.0,125 Ottawa Ave NW Ste 425,42.96603775024414,-85.67044830322266,Microsoft,2016-12-27T15:36:27.530Z,0.77,f418cb36-2247-4057-8be6-fc9848da4ca7,,,,OpenStreetMap,2023-02-17T03:26:22.000Z,,grand-rapids,False
84ff5791-1dd5-468c-b8b3-b04b60bf0074,Microsoft Corporation,business,['event_planning'],IN,Indianapolis,46240.0,8900 Keystone Xing,39.9171901,-86.110983,meta,2025-06-02T07:00:00.000Z,0.9459263554653524,1f6aaef5-59a2-4e59-8c80-3c314729edc0,,commercial,office,OpenStreetMap,2020-02-17T04:43:25.000Z,,indianapolis,True
b974f8c8-fe0d-46b5-88b2-3fffc482f8a1,Microsoft Office Hawaii,it_service_and_computer_repair,['computer_hardware_company'],HI,Honolulu,96814.0,1585 Kapiolani Blvd,21.2918027,-157.8401012,meta,2025-06-02T07:00:00.000Z,0.242152466367713,,,,,,,,honolulu,False
68e50752-6e98-4ef6-a7e8-ca9361377e65,Microsoft Mobile Device,event_planning,,FL,Miami,33126.0,703 NW 62nd Ave,25.77842,-80.29775,meta,2025-06-02T07:00:00.000Z,0.242152466367713,,,,,,,,miami,True
22b9922b-a1e9-488b-9788-acf8f311c3c5,Microsoft Access Database Experts,software_development,,FL,Miami,33137.0,4300 Biscayne Blvd Ste 203,25.81621,-80.18863,Microsoft,2018-09-26T03:31:33.580Z,0.77,,,,,,,,miami,True
f13e9fd2-a1f0-4833-8eef-c0418a54d29d,Microsoft Experts,professional_services,"['information_technology_company', 'it_service_and_computer_repair']",FL,Weston,33326.0,1500 Weston Rd,26.0997937,-80.3659395,meta,2025-06-02T07:00:00.000Z,0.8540983606557377,be85385e-8a95-4b5b-93f0-b3b705c17c04,,,,OpenStreetMap,2011-04-29T04:21:48.000Z,,miami,False
c6fa4227-dbb1-47fa-a381-6cda04ddb5a4,Microsoft Educación,education,"['information_technology_company', 'software_development']",FL,Fort Lauderdale,33309.0,6750 N Andrews Ave,26.2090229,-80.1407437,meta,2025-06-02T07:00:00.000Z,0.5662921348314607,f77434ec-8a4c-48c3-9b49-7d31ae0a5b49,Microsoft,,,OpenStreetMap,2019-08-23T13:21:14.000Z,,miami,False
955eeb90-dbc4-43f9-81a5-60a8c45e53d6,Microsoft Building FT LAUDER 6750,electronics,['it_service_and_computer_repair'],FL,Fort Lauderdale,33309.0,6750 N Andrews Ave,26.209139,-80.140561,meta,2025-06-02T07:00:00.000Z,0.3961437335670464,f77434ec-8a4c-48c3-9b49-7d31ae0a5b49,Microsoft,,,OpenStreetMap,2019-08-23T13:21:14.000Z,,miami,False
bcea1d63-1478-4d15-ac80-6d6d06714b33,Microsoft,software_development,"['computer_hardware_company', 'professional_services']",CA,San Francisco,94103.0,1355 Market St,37.7768455,-122.4166947,meta,2025-06-02T07:00:00.000Z,0.9415384615384615,4e565318-d587-49ea-bbec-1ca265ccb010,Market Square,commercial,office,OpenStreetMap,2023-08-01T22:59:09.000Z,,san-francisco,True
abb983c3-0208-4044-8211-eaba58007ae6,Sony techmo Microsoft ninteñdo bill,law_enforcement,"['divorce_and_family_law', 'fast_food_restaurant']",CA,San Francisco,94102.0,220 Golden Gate Ave,37.78192,-122.41424,meta,2025-06-02T07:00:00.000Z,0.2456896551724137,762c47c6-ad0e-4345-bb94-f9eae8577434,Kelly Cullen Community,residential,apartments,OpenStreetMap,2024-03-08T18:37:00.000Z,,san-francisco,False
97d69af0-7b32-4639-a748-6d7c8afe75de,Microsoft Stinson Beach Conference Room,event_planning,"['computer_hardware_company', 'computer_store']",CA,San Francisco,94103.0,835 Market St,37.78486,-122.406611,meta,2025-06-02T07:00:00.000Z,0.242152466367713,32baf1c8-6822-46e2-854d-9fec5e3a9f00,San Francisco Centre,commercial,retail,OpenStreetMap,2025-04-30T03:35:00.000Z,,san-francisco,True
3d661a0b-0a5a-4514-af80-8b3e0b4511d0,Microsoft Support,mobile_phone_store,"['professional_services', 'it_service_and_computer_repair']",CA,San Francisco,94107.0,795 Folsom St,37.782097,-122.400857,meta,2025-06-02T07:00:00.000Z,0.3376623376623376,d7ca5a7b-1304-423b-a5b1-1f3ab7a472be,,,,OpenStreetMap,2024-09-20T15:08:19.000Z,,san-francisco,False
760f8e3f-c432-4294-bac9-6438b3b8ff2e,Microsoft Reactor,software_development,"['it_service_and_computer_repair', 'business']",CA,San Francisco,94104.0,555 California St,37.7922103,-122.4039684,meta,2025-06-02T07:00:00.000Z,0.9784508333782836,3225016c-52d4-4f8a-b306-f510f58d8dc5,555 California Street,,,OpenStreetMap,2024-01-30T04:51:23.000Z,,san-francisco,False
0a6b8975-79b4-4206-82ef-ea2f5dce58b6,Microsoft Reactor,business_management_services,"['consultant_and_general_service', 'shared_office_space', 'business_to_business_services', 'corporate_office', 'business_to_business', 'private_establishments_and_corporates']",CA,San Francisco,94107.0,680 Folsom St,37.78419533075815,-122.3985381424427,Microsoft,2016-05-24T18:30:53.030Z,0.77,,,,,,,,san-francisco,True
35e6c635-868b-434b-aa4b-1a4b4e59f5d6,Microsoft Building SANFRAN-680 FOL,corporate_office,['private_establishments_and_corporates'],CA,San Francisco,94107.0,680 Folsom St,37.7842462062836,-122.398452311754,Microsoft,,0.77,,,,,,,,san-francisco,True
6e8b6519-4a40-4cf4-9eea-cb96749c3fee,Microsoft Corporation,it_service_and_computer_repair,['information_technology_company'],OH,Independence,44131.0,6050 Oak Tree Blvd,41.396885,-81.662487,meta,2025-06-02T07:00:00.000Z,0.7548172757475083,de54b848-21f1-4db5-bc1e-a76bd30a7f7e,3 Park Center,,,OpenStreetMap,2025-05-11T03:44:16.000Z,,cleveland,False
c0fcc3ba-c7ce-4088-b39f-80aa4bf3e0a5,Nashville Microsoft 365 & SharePoint Users Group,business,"['information_technology_company', 'software_development']",TN,Nashville,37209.0,8 City Blvd,36.15167,-86.82002,meta,2025-06-02T07:00:00.000Z,0.5662921348314607,4492afd3-928d-4be1-b1cc-92665adabee9,8 C1TY BLVD,commercial,commercial,OpenStreetMap,2023-07-24T02:17:08.000Z,,nashville-davidson,True
d78ab875-b759-41ef-a44b-6bcf89cdb0ce,Microsoft Corporation,it_service_and_computer_repair,"['software_development', 'computer_hardware_company']",NC,Durham,27703.0,4825 Creekstone Dr,35.883024,-78.84393,meta,2025-06-02T07:00:00.000Z,0.7548172757475083,da0f29e2-6df2-4635-a0ae-ce7831cdad5c,Overlook Building,,,OpenStreetMap,2020-11-16T11:25:26.000Z,,raleigh,False
97bafcf1-8d35-4110-ba27-6cc197c61a12,Microsoft New England Research and Development Center,software_development,"['it_service_and_computer_repair', 'educational_research_institute']",MA,Cambridge,2142.0,1 Memorial Dr,42.3614451,-71.0811626,meta,2025-06-02T07:00:00.000Z,0.9784508333782836,194f2a1f-5385-4f83-827c-2d8129d81049,,commercial,commercial,OpenStreetMap,2024-05-17T21:29:10.000Z,,boston,False
34c6f8e8-0116-45e8-a4b9-0e5c7a1b3890,Microsoft,event_planning,"['business', 'software_development']",MA,Burlington,1803.0,5 Wayside Rd,42.4842604,-71.1915155,meta,2025-06-02T07:00:00.000Z,0.9415384615384615,906a4d8e-301c-445d-a500-540476627ad3,Microsoft Office Burlington,commercial,office,OpenStreetMap,2025-03-09T14:10:17.000Z,,boston,True
db16bf9b-d6a0-42d6-b0fc-e83517d1e66b,Microsoft Northeast District,corporate_office,['private_establishments_and_corporates'],MA,Burlington,1803.0,5 Wayside Rd,42.483829488499566,-71.19132471084595,Microsoft,2016-12-19T15:35:54.500Z,0.77,,,,,,,,boston,True
97d69af0-7b32-4639-a748-6d7c8afe75de,Microsoft Stinson Beach Conference Room,event_planning,"['computer_hardware_company', 'computer_store']",CA,San Francisco,94103.0,835 Market St,37.78486,-122.406611,meta,2025-06-02T07:00:00.000Z,0.242152466367713,32baf1c8-6822-46e2-854d-9fec5e3a9f00,San Francisco Centre,commercial,retail,OpenStreetMap,2025-04-30T03:35:00.000Z,,oakland,True
3d661a0b-0a5a-4514-af80-8b3e0b4511d0,Microsoft Support,mobile_phone_store,"['professional_services', 'it_service_and_computer_repair']",CA,San Francisco,94107.0,795 Folsom St,37.782097,-122.400857,meta,2025-06-02T07:00:00.000Z,0.3376623376623376,d7ca5a7b-1304-423b-a5b1-1f3ab7a472be,,,,OpenStreetMap,2024-09-20T15:08:19.000Z,,oakland,False
760f8e3f-c432-4294-bac9-6438b3b8ff2e,Microsoft Reactor,software_development,"['it_service_and_computer_repair', 'business']",CA,San Francisco,94104.0,555 California St,37.7922103,-122.4039684,meta,2025-06-02T07:00:00.000Z,0.9784508333782836,3225016c-52d4-4f8a-b306-f510f58d8dc5,555 California Street,,,OpenStreetMap,2024-01-30T04:51:23.000Z,,oakland,False
0a6b8975-79b4-4206-82ef-ea2f5dce58b6,Microsoft Reactor,business_management_services,"['consultant_and_general_service', 'shared_office_space', 'business_to_business_services', 'corporate_office', 'business_to_business', 'private_establishments_and_corporates']",CA,San Francisco,94107.0,680 Folsom St,37.78419533075815,-122.3985381424427,Microsoft,2016-05-24T18:30:53.030Z,0.77,,,,,,,,oakland,True
35e6c635-868b-434b-aa4b-1a4b4e59f5d6,Microsoft Building SANFRAN-680 FOL,corporate_office,['private_establishments_and_corporates'],CA,San Francisco,94107.0,680 Folsom St,37.7842462062836,-122.398452311754,Microsoft,,0.77,,,,,,,,oakland,True
74840d02-c7e6-4dc0-b868-9322442df9cd,Microsoft Corporation,business,"['software_development', 'computer_hardware_company']",PA,Malvern,19355.0,45 Liberty Blvd,40.0558568,-75.5215321,meta,2025-06-02T07:00:00.000Z,0.9784508333782836,9f5ce42f-eadf-4913-a0ef-bb0b9ff2cab6,,,,OpenStreetMap,2021-02-24T21:42:57.000Z,,philadelphia,True
f47e9b75-99a1-4fa9-9ae1-8ab9426b6901,Power-CRM - Microsoft Power Apps CRM Solution,software_development,,NJ,Marlton,8053.0,525 Route 73 N,39.9012513,-74.9359093,meta,2025-06-02T07:00:00.000Z,0.296943231441048,ea366923-863f-4294-a534-4ec12ba010e9,,,,OpenStreetMap,2024-10-21T22:51:50.000Z,,philadelphia,True
32a14d6f-67ee-4cf5-9749-28912607d4e5,Microsoft Corporation,professional_services,"['it_service_and_computer_repair', 'laboratory_testing']",CA,San Jose,95119.0,9 Great Oaks Blvd,37.242138,-121.781531,meta,2025-06-02T07:00:00.000Z,0.296943231441048,d916250c-fca4-40a3-a774-b64e718980d4,Equinix SV5,,,OpenStreetMap,2023-11-29T15:28:43.000Z,,san-jose,False
5f179908-1cd1-4ebe-941a-f5dc03029717,Microsoft Corporation,it_service_and_computer_repair,,CA,Palo Alto,94304.0,3210 Porter Dr,37.4073466,-122.1474528,meta,2025-06-02T07:00:00.000Z,0.3961437335670464,4c7e30bb-c5b1-4504-8807-5194ee9d8141,,commercial,commercial,OpenStreetMap,2025-03-09T21:18:28.000Z,,san-jose,False
caf38fdf-8d6e-4a4d-898c-cd6fa1da3e48,Microsoft,event_planning,['business'],CA,Sunnyvale,94085.0,755 N Mathilda Ave,37.3941086,-122.0301168,meta,2025-06-02T07:00:00.000Z,0.9415384615384615,dfedd8ac-7efc-4054-9aed-4603d9e9a6e0,Microsoft,commercial,commercial,OpenStreetMap,2024-07-16T03:27:08.000Z,,san-jose,True
75d0eda2-0116-4f83-acee-3a2ef2352ddd,Microsoft Bay Area,professional_services,"['software_development', 'information_technology_company']",CA,Mountain View,94043.0,1065 La Avenida St,37.4117718,-122.0714543,meta,2025-06-02T07:00:00.000Z,0.7548172757475083,1fb85e2a-d8a4-4d5f-8b5c-fdf7a3e525f8,,commercial,commercial,OpenStreetMap,2024-10-25T21:57:49.000Z,,san-jose,True
dcf16fcc-2d0b-429c-ac5b-682acdc08db5,Microsoft Building SVC-6,corporate_office,['private_establishments_and_corporates'],CA,Mountain View,94043.0,1288 Pear Ave,37.41559,-122.07558,Microsoft,,0.77,,,,,,,,san-jose,True
99fbf215-9507-48d4-9652-523292ed2ad6,Microsoft Building SANTA CLARA-3201 SCOTT BLVD,apartments,,CA,Santa Clara,95054.0,3201 Scott Blvd,37.379429,-121.966499,Microsoft,,0.77,d642cd98-fb12-4200-a83c-f8bff09d92a2,Imagination Technologies,,,OpenStreetMap,2016-08-24T04:48:54.000Z,,san-jose,False
e6a3b1c8-d27f-4013-b676-03690d217251,Microsoft,computer_store,"['software_development', 'electronics']",CA,Santa Clara,95050.0,2045 Lafayette St,37.36208,-121.94655,meta,2025-06-02T07:00:00.000Z,0.3961437335670464,,,,,,,,san-jose,True
0f5d7122-9dba-48a8-8b25-04ef953784ac,Microsoft,business,['event_planning'],GA,Atlanta,30303.0,84 Peachtree St,33.7559808,-84.3887219,meta,2025-06-02T07:00:00.000Z,0.9204819277108434,,,,,,,,atlanta,True
1a1559c5-67a5-46de-ad56-f2f87e2675ff,Microsoft,software_development,"['it_service_and_computer_repair', 'electronics']",GA,Atlanta,30303.0,250 Williams St NW,33.76163,-84.3913,meta,2025-06-02T07:00:00.000Z,0.2456896551724137,b13d3a92-ab62-4c26-812f-543d3597f3dc,American Cancer Society Center,,,OpenStreetMap,2025-05-31T20:35:00.000Z,,atlanta,False
674f8044-bd66-4ad8-8131-f9e9af596ecc,Microsoft-GECG STEAM Mentorship Program,educational_services,"['education', 'school']",GA,Sandy Springs,0.0,,33.9016813,-84.3817774,meta,2025-06-02T07:00:00.000Z,0.1666666666666666,6251f528-7d1b-45a1-b509-6dcb072c8597,,,,OpenStreetMap,2022-08-01T17:35:05.000Z,,atlanta,False
2b812836-73de-4c63-9252-3a204ce86e09,Microsoft Corporation,event_planning,"['software_development', 'it_service_and_computer_repair']",CA,Irvine,92614.0,3 Park Plz,33.6776199,-117.8384903,meta,2025-06-02T07:00:00.000Z,0.9300613496932516,0fba93af-3335-45c0-a3cd-26282b3a86db,,commercial,office,OpenStreetMap,2023-12-28T20:20:18.000Z,,los-angeles,False
65afc2b4-618c-40a4-ba41-d3ef86bdac21,Microsoft Office,event_planning,"['business', 'information_technology_company']",CA,Los Angeles,90094.0,13031 W Jefferson Blvd,33.9754402,-118.4261439,meta,2025-06-02T07:00:00.000Z,0.9784508333782836,d5b20d78-3859-4910-900d-9ab1001ef9fa,The Reserve,commercial,commercial,OpenStreetMap,2024-04-07T08:36:32.000Z,,los-angeles,True
545787d0-689a-4990-bdee-c6e2121ddb94,Microsoft Lounge,lounge,['bar'],CA,Culver City,90232.0,5895 Blackwelder St,34.0309256,-118.3739049,meta,2025-06-02T07:00:00.000Z,0.9784508333782836,,,,,,,,los-angeles,False
f93f5289-1019-4593-9eaa-18477a880a14,Microsoft Square,music_venue,"['arts_and_entertainment', 'topic_concert_venue']",CA,Los Angeles,90015.0,800 W Olympic Blvd,34.0446283,-118.2669878,meta,2025-06-02T07:00:00.000Z,0.5662921348314607,54346d7f-9a7a-47bf-afa6-5f01b7c920d1,Peacock Theater,commercial,commercial,OpenStreetMap,2023-07-31T14:15:14.000Z,,los-angeles,False
557d37ae-ca86-4c8e-b3ce-08d536fa9d83,Microsoft,software_development,"['internet_service_provider', 'professional_services']",CA,Los Angeles,90071.0,333 S Grand Ave,34.052796,-118.252349,meta,2025-06-02T07:00:00.000Z,0.242152466367713,2e4236c5-9453-406a-9a32-0f341d892200,Wells Fargo Plaza,commercial,commercial,OpenStreetMap,2021-01-27T19:22:27.000Z,,los-angeles,True
d4b1c33b-48f8-4391-a5c6-b5183b9140fd,Microsoft Store,electronics,"['b2b_science_and_technology', 'engineering_services']",CA,Glendale,91210.0,2140 Glendale Galleria,34.1448326,-118.2594135,meta,2025-06-02T07:00:00.000Z,0.296943231441048,ca7c9775-5aa9-4d36-af65-f3840b2a9de3,,commercial,commercial,OpenStreetMap,2019-07-25T03:22:11.000Z,,los-angeles,False
81d8aff6-d59e-415f-b6c5-1c7bfdb0e743,International Association of Microsoft Channel Partners,community_services_non_profits,"['professional_services', 'information_technology_company']",TX,Irving,75039.0,909 Lake Carolyn Pkwy,32.8690273,-96.935128,meta,2025-06-02T07:00:00.000Z,0.8831168831168831,b4d09e10-3807-42e3-8b9b-105b4480544d,Tower 909,commercial,office,OpenStreetMap,2020-05-02T17:34:09.000Z,,dallas,True
2308c93d-77fa-479b-82c6-90efd10899f8,Microsoft,information_technology_company,"['computer_hardware_company', 'professional_services']",TX,Irving,75038.0,1212 Corporate Dr,32.886831,-96.967776,meta,2025-06-02T07:00:00.000Z,0.242152466367713,fa781c24-59ab-4aed-918f-89f8832a6585,,,,OpenStreetMap,2018-11-12T21:31:16.000Z,,dallas,True
36431771-ca85-4790-9515-a9623479c271,Microsoft Corporation,software_development,"['it_service_and_computer_repair', 'information_technology_company']",TX,Irving,75039.0,7000 State Highway 161,32.8996367,-96.9634302,meta,2025-06-02T07:00:00.000Z,0.9784508333782836,e51514dc-3ee6-4880-8667-9db45c3d0268,,,,OpenStreetMap,2018-10-15T08:10:18.000Z,,dallas,False
62c07bc3-fcf8-4c37-8980-e37cfb84e3fe,Microsoft Building LAS COLINAS-1,corporate_office,['private_establishments_and_corporates'],TX,Irving,75039.0,7000 State Highway 161,32.899664,-96.963415,Microsoft,,0.77,e51514dc-3ee6-4880-8667-9db45c3d0268,,,,OpenStreetMap,2018-10-15T08:10:18.000Z,,dallas,True
6bd4e529-c4f3-482e-9d3c-740e94738b46,Microsoft,event_planning,"['business', 'information_technology_company']",MD,Elkridge,21075.0,6518 Meadowridge Rd,39.1896167,-76.7775845,meta,2025-06-02T07:00:00.000Z,0.9204819277108434,8d9ec948-147a-4698-914c-8cdbb7c98b91,,,,OpenStreetMap,2021-11-09T02:59:46.000Z,,baltimore,True
04bcac98-830f-4c60-971a-ce91c1e1bc6c,Microsoft,it_service_and_computer_repair,"['software_development', 'professional_services']",UT,Lehi,84043.0,3400 N Ashton Blvd,40.429688,-111.894064,meta,2025-06-02T07:00:00.000Z,0.3961437335670464,48498820-1735-4739-8441-506ed5e726af,Thanksgiving Park,,,OpenStreetMap,2022-09-16T03:50:40.000Z,,provo,False
973795c7-551a-49b9-94f9-e68a16ec5a38,Microsoft Building COLORADO SPRINGS-555,corporate_office,['private_establishments_and_corporates'],CO,Colorado Springs,80903.0,555 E Pikes Peak Ave,38.83327,-104.81428,Microsoft,,0.77,,,,,,,,colorado-springs,True
3415ef99-2593-4a9f-923c-6a7a2455141e,Microsoft Corporation,software_development,"['business', 'it_service_and_computer_repair']",TN,Memphis,38138.0,6750 Poplar Ave,35.0987109,-89.838277,meta,2025-06-02T07:00:00.000Z,0.9784508333782836,103b9fee-6fb7-4ceb-b38c-bfca4e000235,,,,OpenStreetMap,2019-01-31T22:46:54.000Z,,memphis,False
8201bec1-eb63-4c3f-b486-685eb618e6a5,Journey Team Microsoft Gold Partner,professional_services,"['it_service_and_computer_repair', 'information_technology_company']",UT,Draper,84020.0,121 W Election Rd,40.5340848,-111.8940929,meta,2025-06-02T07:00:00.000Z,0.909823677581864,51b5a98f-64d7-43bc-bb9b-6f2e9ffe6308,Art Institute of Salt Lake,education,school,OpenStreetMap,2022-08-29T13:03:26.000Z,,salt-lake-city,False
29980a52-9e5d-4081-953c-f3f95952b564,Microsoft Corporation,event_planning,"['software_development', 'it_service_and_computer_repair']",TX,Austin,78759.0,"Wework Quarry Oaks II, 10900 Stonelake Blvd",30.4005578,-97.7347135,meta,2025-06-02T07:00:00.000Z,0.9784508333782836,,,,,,,,austin,False
edaf01b0-b4bc-4173-83a8-f393938f3546,Microsoft,information_technology_company,"['laboratory_testing', 'eat_and_drink']",TX,Austin,78728.0,2800 Wells Branch Pkwy,30.442602,-97.689355,meta,2025-06-02T07:00:00.000Z,0.3376623376623376,7c818241-62c5-47ba-98bd-7c77206bc898,Harte-Hanks,commercial,commercial,OpenStreetMap,2020-11-25T20:45:17.000Z,,austin,True
3f2ddcf5-6562-4418-b107-da37a4db2d6b,Microsoft Building CHARLOTTE-ARROWRIDGE,commercial_real_estate,,NC,Charlotte,28273.0,8349 Arrowridge Blvd,35.1295121,-80.9136831,Microsoft,,0.77,,,,,,,,charlotte,False
eac585a6-621c-4c90-8b03-8026305f29cf,Microsoft Building CHARLOTTE-AP1,corporate_office,['private_establishments_and_corporates'],NC,Charlotte,28273.0,8055 Microsoft Way,35.13905,-80.92265,Microsoft,,0.77,f18007c3-85f5-4ee1-bce1-74000b6f4c0f,Microsoft,,,OpenStreetMap,2024-11-08T01:56:02.000Z,,charlotte,True
a3c00d52-6305-4a15-8eb4-f81ddeaabefe,Microsoft,event_planning,['business'],NC,Charlotte,28273.0,8050 Microsoft Way,35.1399589,-80.9231149,meta,2025-06-02T07:00:00.000Z,0.9784508333782836,734b9dd7-c457-4666-bad3-83fb37ddaf2b,,,,OpenStreetMap,2020-05-07T15:55:52.000Z,,charlotte,True
9343b945-f961-4338-a0cb-89b668a55b2a,Microsoft Corporation,it_service_and_computer_repair,"['professional_services', 'laboratory_testing']",NC,Charlotte,28208.0,2801 Yorkmont Rd,35.188978,-80.9271,meta,2025-06-02T07:00:00.000Z,0.242152466367713,a4a94baf-390f-4933-bd97-ae6c538aa3b8,,,,OpenStreetMap,2020-08-19T19:01:25.000Z,,charlotte,False
172e1e74-f452-469b-b592-b7ec4aecaeb7,Microsoft Gray Systems Lab,it_service_and_computer_repair,"['software_development', 'laboratory_testing']",WI,Madison,53703.0,634 W Main St,43.0673289,-89.3924005,meta,2025-06-02T07:00:00.000Z,0.9415384615384615,16c8b696-29ef-419d-bf83-dde320e1130d,Kroger Grocery Warehouse,commercial,commercial,OpenStreetMap,2021-03-10T22:55:34.000Z,,madison,False
2b812836-73de-4c63-9252-3a204ce86e09,Microsoft Corporation,event_planning,"['software_development', 'it_service_and_computer_repair']",CA,Irvine,92614.0,3 Park Plz,33.6776199,-117.8384903,meta,2025-06-02T07:00:00.000Z,0.9300613496932516,0fba93af-3335-45c0-a3cd-26282b3a86db,,commercial,office,OpenStreetMap,2023-12-28T20:20:18.000Z,,mission-viejo,False
4aff4f00-0762-4405-85fb-d67317c3da45,Microsoft,it_service_and_computer_repair,"['professional_services', 'laboratory_testing']",VA,Ashburn,20147.0,44461 Chilum Pl,39.021066,-77.463571,meta,2025-06-02T07:00:00.000Z,0.3961437335670464,d176fd67-09b1-46db-bcc5-a2b4f606d293,Digital Realty ACC6,,,OpenStreetMap,2024-09-24T14:33:22.000Z,,washington-dc,False
2f79c01f-4469-42d3-ac38-a8fc0de69d9d,Microsoft outlook support,it_service_and_computer_repair,"['professional_services', 'laboratory_testing']",VA,Reston,20191.0,12359 Sunrise Valley Dr,38.949579,-77.3727071,meta,2025-06-02T07:00:00.000Z,0.8831168831168831,8c043101-4af6-4546-9d33-8b8a7dc4f50a,,transportation,parking,OpenStreetMap,2024-11-07T12:49:40.000Z,,washington-dc,False
654d2639-b10c-4ad9-a61f-bbf9cbecb0c2,Microsoft Technology Center (Reston),information_technology_company,"['software_development', 'professional_services']",VA,Reston,20190.0,12012 Sunset Hills Rd,38.955865,-77.357745,meta,2025-06-02T07:00:00.000Z,0.7548172757475083,1096abf5-dda4-4790-992c-d84c5f47983c,Two Discovery Square,commercial,office,OpenStreetMap,2021-01-04T22:34:35.000Z,,washington-dc,True
84334fe2-b2fb-459e-8b17-d288928fe580,Microsoft,software_development,['information_technology_company'],VA,Reston,20190.0,1780 Business Center Dr,38.948503,-77.327236,meta,2025-06-02T07:00:00.000Z,0.3376623376623376,b6a17979-bda2-4a0e-8d73-b2dff7ed2ce3,VA3,,,OpenStreetMap,2024-09-27T01:16:23.000Z,,washington-dc,True
c868b2ee-bbed-4833-83cf-9b9596955c79,Microsoft Innovation & Policy Center,party_and_event_planning,"['cultural_center', 'commercial_real_estate', 'business_to_business_services', 'corporate_office', 'business_to_business', 'private_establishments_and_corporates']",DC,Washington,20001.0,901 K St NW Fl 11,38.90247237618481,-77.02505975369623,Microsoft,2017-04-10T09:57:00.877Z,0.77,,,,,,,,washington-dc,True
ef3e3b0f-50c4-44fb-8229-d33dc15e6eb2,Microsoft Chevy Chase Maryland USA,software_development,['professional_services'],MD,Chevy Chase,20815.0,5404 Wisconsin Ave,38.961279,-77.086583,meta,2025-06-02T07:00:00.000Z,0.7548172757475083,a347b0d2-3dd1-4dcf-90a7-3b123f1d5bbe,The Offices at Wisconsin Place,commercial,office,OpenStreetMap,2025-04-25T10:03:05.000Z,,washington-dc,True
78f22495-0c2e-4aae-beb8-360371437b06,Microsoft Building CINCINNATI-4445,corporate_office,['private_establishments_and_corporates'],OH,Cincinnati,45242.0,4445 Lake Forest Dr,39.25289,-84.38293,Microsoft,,0.77,c1ef5819-e7da-4921-a8a2-fbe7ef45234d,Lake Forest Place,,,OpenStreetMap,2016-07-05T05:06:11.000Z,,cincinnati,True
a38613fb-b48a-4805-b822-d08edff2924c,Microsoft Corporation,it_service_and_computer_repair,,CO,Centennial,80122.0,5386 E Briarwood Cir,39.590736,-104.924981,meta,2025-06-02T07:00:00.000Z,0.3376623376623376,8f6eae9d-f662-4c9a-af70-58d36bbf681a,,,,OpenStreetMap,2021-05-19T16:39:23.000Z,,denver,False
fa5189e3-f392-46e2-ac61-4a140ec98931,Microsoft Office,it_service_and_computer_repair,"['event_planning', 'business']",AL,Birmingham,35243.0,3535 Grandview Pkwy,33.4390835,-86.7224756,meta,2025-06-02T07:00:00.000Z,0.3961437335670464,03a12319-98bc-4832-8d8c-6386aea79caf,Grandview I,commercial,office,OpenStreetMap,2023-09-14T01:42:47.000Z,,birmingham,False
2b1afb9a-8c32-4498-b7d1-35402febaec6,Microsoft,software_development,"['it_service_and_computer_repair', 'fashion_accessories_store']",TX,San Antonio,78230.0,8000 W Interstate 10,29.513051,-98.554088,meta,2025-06-02T07:00:00.000Z,0.242152466367713,b0dd4570-3789-47f7-b4f7-3c0611a42380,,commercial,office,OpenStreetMap,2016-01-25T04:12:07.000Z,,san-antonio,False
78dc5013-0052-4ffb-8adc-f6e10ea630f2,Microsoft Corporation,software_development,"['business', 'computer_hardware_company']",TX,San Antonio,78258.0,401 E Sonterra Blvd,29.6168435,-98.487341,meta,2025-06-02T07:00:00.000Z,0.9459263554653524,7c93cc01-616d-4cff-bf27-834ca225e161,,,,OpenStreetMap,2025-01-12T15:02:41.000Z,,san-antonio,True
b402ab99-0848-4a76-9554-6c693f94dc3e,Microsoft Building SAN PARK OAKS,shopping_center,['retail'],TX,San Antonio,78232.0,16500 San Pedro Ave,29.59283,-98.471932,Microsoft,,0.77,96bc38d6-b5e2-4e95-aaab-5a590fc56946,,commercial,commercial,OpenStreetMap,2024-08-09T20:04:43.000Z,,san-antonio,False
d1ba7e06-9c3a-4069-a9ee-a6b67c3a4c93,Microsoft Research Lab,event_planning,['business'],NY,New York,10012.0,300 Lafayette St,40.724843,-73.9957544,meta,2025-06-02T07:00:00.000Z,0.9459263554653524,94f8cfb2-25e8-47f5-9d84-01274f1cdb73,,commercial,office,OpenStreetMap,2024-05-29T22:44:28.000Z,,new-york,True
400552e9-ea70-43d2-8f82-4a0c84aa2199,"ESoftware Associates, Inc - Microsoft 365 Experts",information_technology_company,"['it_consultant', 'it_service_and_computer_repair', 'business_to_business_services', 'business_to_business']",NY,New York,10003.0,228 Park Ave S # 28801,40.737569,-73.9883499,Microsoft,2025-03-23T07:07:41.750Z,0.77,,,,,,,,new-york,False
615f8d14-01aa-44c2-a579-4658779f4b66,Microsoft,event_planning,"['business', 'it_service_and_computer_repair']",NY,New York,10036.0,11 Times Sq,40.7566835,-73.9898757,meta,2025-06-02T07:00:00.000Z,0.9300613496932516,94895c93-b3e9-47fa-b669-9c09e6a492e1,11 Times Square,commercial,commercial,OpenStreetMap,2023-08-20T15:59:28.000Z,,new-york,False
26b5beaa-352a-4865-8751-29b6efd48b01,Microsoft Reactor,event_planning,"['topic_concert_venue', 'information_technology_company']",NY,New York,10017.0,335 Madison Ave,40.753528,-73.978138,meta,2025-06-02T07:00:00.000Z,0.296943231441048,707517f7-9e37-4ca0-a4c4-824bf80df12c,22 Vanderbilt,commercial,commercial,OpenStreetMap,2024-01-12T00:14:14.000Z,,new-york,False
26b5beaa-352a-4865-8751-29b6efd48b01,Microsoft Reactor,event_planning,"['topic_concert_venue', 'information_technology_company']",NY,New York,10017.0,335 Madison Ave,40.753528,-73.978138,meta,2025-06-02T07:00:00.000Z,0.296943231441048,8f543471-12a0-4d32-a077-f23eb8da3bc3,Grand Central Terminal,transportation,train_station,OpenStreetMap,2023-11-09T20:30:25.000Z,,new-york,False
64655d75-e9a4-42d7-9be6-e2628eeff7de,Microsoft Building NYC-ONE DAG,plaza,,NY,New York,10017.0,885 2nd Ave,40.7522545,-73.9706873,Microsoft,,0.77,639f8a8b-5b13-4763-a0aa-016eb70c36fc,,,,OpenStreetMap,2014-09-02T15:29:54.000Z,,new-york,False
aed22160-da0c-4ed4-8ec9-c837f83582ca,Microsoft Experience Center,electronics,,NY,New York,10022.0,677 5th Ave,40.7605345,-73.9753428,meta,2025-06-02T07:00:00.000Z,0.9415384615384615,8d3718e5-e0be-406d-962d-b56c96884857,,,,OpenStreetMap,2016-02-02T03:27:38.000Z,,new-york,False
60b3bf7b-eb50-4efa-b2d7-87290ae4e865,Microsoft Dynamics 365,software_development,['professional_services'],NJ,Hackensack,7601.0,191 Main St,40.884385,-74.0427124,meta,2025-06-02T07:00:00.000Z,0.8540983606557377,066035bd-c26e-48ea-89b5-16b39adf5184,,,,OpenStreetMap,2018-09-15T21:24:33.000Z,,new-york,True
ebdd6264-08bb-42b4-8b43-2dbd84edfe6e,Microsoft Dynamics ERP Mongolia,professional_services,,,Ulaanbaatar,14241.0,"13th floor, Central Park office, Sukhbaatar District-1",40.7838684,-73.9658548,meta,2025-06-02T07:00:00.000Z,0.8253968253968254,d70b74bf-9968-4815-b27c-ac1b11e749c2,,,,OpenStreetMap,2024-08-08T18:19:27.000Z,,new-york,False
9a8cc7db-5329-4fc5-ac9c-b3aa72807611,Microsoft Lower Hudson Regional Information Center,community_services_non_profits,['information_technology_company'],NY,Harrison,10528.0,450 Mamaroneck Ave,40.9737569,-73.7419433,meta,2025-06-02T07:00:00.000Z,0.9784508333782836,,,,,,,,new-york,True
e6efc2e6-f58c-41bb-b2b2-fed93e15d60a,Central Kentucky Microsoft User Group,community_services_non_profits,"['professional_services', 'it_service_and_computer_repair']",KY,Lexington,40507.0,348 E Main St,38.0420974,-84.4924618,meta,2025-06-02T07:00:00.000Z,0.242152466367713,cf9564a0-7d70-4f00-9d53-6036a382e6cb,Awesome Inc,,,OpenStreetMap,2019-02-18T12:50:41.000Z,,lexington-fayette,False
520585ae-ebcc-4d69-b819-da27f092dd00,Microsoft Technology Center,event_planning,"['business', 'software_development']",MN,Edina,55435.0,3601 76th St W,44.8644656,-93.3258872,meta,2025-06-02T07:00:00.000Z,0.9415384615384615,566d3e87-af39-4a9f-b66b-90a8bfb7cc09,,commercial,commercial,OpenStreetMap,2015-11-10T05:48:23.000Z,,minneapolis,True
3b92f1d8-55b0-4dc2-8e5f-bc2aa2407779,Microsoft Store,software_development,"['information_technology_company', 'computer_store']",WA,Seattle,98101.0,600 Pine St,47.6126762,-122.3353251,meta,2025-06-02T07:00:00.000Z,0.3313953488372093,46e57238-d5fa-464a-90a7-fc508c488b4d,Pacific Place,commercial,retail,OpenStreetMap,2024-07-15T21:30:20.000Z,,seattle,False
d1ac9296-1e43-46ca-ac80-a6aff6737468,Microsoft Corporation,travel,"['shopping', 'it_service_and_computer_repair']",WA,Bellevue,98004.0,205 108th Ave NE,47.612332,-122.196842,meta,2025-06-02T07:00:00.000Z,0.296943231441048,7d0402d3-1e16-4785-bec2-c027a5ef9561,,commercial,office,OpenStreetMap,2021-06-19T04:03:26.000Z,,seattle,False
18dcdf62-3e0a-4cc7-b7b0-0e126ac8e7f6,Microsoft Store,electronics,"['engineering_schools', 'education', 'retail']",WA,Bellevue,98004.0,"116 Bellevue Way, Bellevue Sq Mall",47.616132,-122.2036726,Microsoft,2020-11-11T17:18:08.890Z,0.77,670d27b4-3820-47b0-948e-8ec411702989,Bellevue Square Mall,commercial,retail,OpenStreetMap,2025-02-15T05:00:14.000Z,,seattle,False
1692dd96-35b3-4fdd-8826-5ca9f1883d43,Microsoft,software_development,"['event_planning', 'professional_services']",WA,Bellevue,98004.0,555 110th Ave NE,47.6149893,-122.1938941,meta,2025-06-02T07:00:00.000Z,0.5662921348314607,5dc0ba4b-9e98-4f96-acfa-8207f7d806bf,City Center Plaza,commercial,office,OpenStreetMap,2024-03-28T23:49:32.000Z,,seattle,True
362ce27a-90b2-49af-a0d1-b790c3cc8f27,Microsoft Customer Insights Center,professional_services,"['event_photography', 'business']",WA,Bellevue,98004.0,10900 NE 8th St,47.617852,-122.194038,meta,2025-06-02T07:00:00.000Z,0.4929396662387676,5d898f24-65ed-4cda-ba45-a1438e2b823d,Plaza Center,commercial,office,OpenStreetMap,2022-06-29T20:58:40.000Z,,seattle,False
b95cebdf-ae6d-49dc-8b59-225f6c954066,Microsoft Building ONE ESTERRA,corporate_office,['private_establishments_and_corporates'],WA,Redmond,98052.0,15550 NE Turing St,47.635646,-122.133111,Microsoft,,0.77,3a750594-40a1-4ff5-87c5-25405c7b44e0,One Esterra,commercial,commercial,OpenStreetMap,2024-07-27T19:11:12.000Z,,seattle,True
2b8de059-0417-4ba6-b3d2-f024d39da79a,Microsoft Parking Garage,parking,['professional_services'],WA,Redmond,98052.0,3009 157th Pl NE,47.636081,-122.130307,meta,2025-06-02T07:00:00.000Z,0.3961437335670464,3a48f0dd-13a3-4b34-a522-e8dedfd39b32,Microsoft Building 27,commercial,commercial,OpenStreetMap,2024-09-13T20:06:14.000Z,,seattle,False
a9a22370-1470-4e3e-a973-0cdbae95b7a6,Microsoft Building 28,event_planning,"['business', 'information_technology_company']",WA,Redmond,98052.0,3028 157th Pl NE,47.63626,-122.1283157,meta,2025-06-02T07:00:00.000Z,0.9459263554653524,a55cedba-50a3-4c59-9e1c-ae6c6d835d50,Microsoft Building 28,commercial,commercial,OpenStreetMap,2024-07-27T19:11:12.000Z,,seattle,True
c3988ab2-19d2-4c3b-b602-9350e7611e59,Microsoft Games User Research,internet_service_provider,"['arts_and_entertainment', 'sex_therapist']",WA,Redmond,98052.0,1 Microsoft Way,47.6622046,-122.2974511,meta,2025-06-02T07:00:00.000Z,0.672566371681416,,,,,,,,seattle,False
cb0bf445-026f-4a85-83c2-4af5c3cd4272,Microsoft,it_service_and_computer_repair,"['professional_services', 'information_technology_company']",WA,Bellevue,98004.0,3075 112th Ave NE,47.638571,-122.1971,meta,2025-06-02T07:00:00.000Z,0.296943231441048,e83a3894-54fa-4594-898a-7d12b0f36948,,,,OpenStreetMap,2024-07-20T05:35:56.000Z,,seattle,False
d227faac-65d3-40f1-8416-9860a326f546,Directions On Microsoft,topic_publisher,['professional_services'],WA,Kirkland,98033.0,1410 Market St,47.6866006,-122.2095064,meta,2025-06-02T07:00:00.000Z,0.8860580325548478,8c0d0afb-9d0e-4418-a03e-23e4ddff5c7a,,,,OpenStreetMap,2016-10-05T06:30:17.000Z,,seattle,False
a4d53055-2bac-4ff1-9d65-7232ff939c99,Microsoft,professional_services,"['park', 'parking']",WA,Bothell,98021.0,21919 20th Ave SE,47.800626,-122.204277,meta,2025-06-02T07:00:00.000Z,0.296943231441048,42f535a8-9305-429d-897e-f3789a1205f9,Romac Industries Inc.,commercial,commercial,OpenStreetMap,2023-01-20T21:08:13.000Z,,seattle,False
4dfc0379-63bf-431f-9c78-9c1eabefd290,Microsoft Building 114,corporate_office,['private_establishments_and_corporates'],WA,Redmond,98052.0,14860 NE 31st Way,47.63925365,-122.1422625,Microsoft,,0.77,74be6d37-00a0-420b-9b86-7e0562466bf0,Microsoft Building 114,commercial,commercial,OpenStreetMap,2024-07-27T19:11:12.000Z,,seattle,True
c5d18c85-da29-436c-80f7-5ace4d45472e,Microsoft Building 113,event_planning,"['professional_services', 'software_development']",WA,Redmond,98052.0,14870 NE 31st Way,47.6396876,-122.1415614,meta,2025-06-02T07:00:00.000Z,0.9415384615384615,db1256a0-408d-460c-842e-0a3c087f87ae,Microsoft Building 113,commercial,commercial,OpenStreetMap,2024-07-27T19:11:12.000Z,,seattle,True
0359a3e0-8dd0-4efa-90ed-13c4b277b777,Microsoft Building 22,corporate_office,['private_establishments_and_corporates'],WA,Redmond,98052.0,3050 152nd Ave NE,47.63720056,-122.1359539,Microsoft,,0.77,611d8c45-4421-4925-bcbe-38ad148ed4cd,Microsoft Building 22,commercial,commercial,OpenStreetMap,2024-07-27T19:11:12.000Z,,seattle,True
997eae39-3fcf-42cb-b842-c3dc12ea4056,Microsoft Building 111,corporate_office,['private_establishments_and_corporates'],WA,Redmond,98052.0,15011 NE 36th St,47.64029462,-122.1375847,Microsoft,,0.77,09b84be1-5d53-41c1-9afe-266e0029d711,Microsoft Building 111,commercial,commercial,OpenStreetMap,2024-07-27T19:11:12.000Z,,seattle,True
47be61ea-7ed7-4a38-9751-46d50cc9f58c,Microsoft Studio F,event_planning,"['business', 'campus_building']",WA,Redmond,98052.0,3900 148th Ave NE,47.6449416,-122.1419821,meta,2025-06-02T07:00:00.000Z,0.9459263554653524,2739b9ef-6f39-4b0f-88c6-dc4e5413a079,Microsoft Studio F,commercial,commercial,OpenStreetMap,2023-04-24T14:19:24.000Z,,seattle,True
dbf0a515-d86c-470d-8c80-95ded178f7e5,Microsoft Building COMMONS TRANSIT CENTER,bus_station,['travel'],WA,REDMOND,98052.0,3635 150th Ave NE,47.6426,-122.1401,Microsoft,,0.77,,,,,,,,seattle,False
49f24c65-e876-4fa5-bdde-1313a89ffe6f,Microsoft Visitor Center and Company Store,museum,"['electronics', 'information_technology_company']",WA,Redmond,98052.0,15010 NE 36th St,47.642322,-122.136845,meta,2025-06-02T07:00:00.000Z,0.9784508333782836,09e7ce85-ac25-44bd-a162-0df3e4fb0a11,Microsoft Building 92,commercial,commercial,OpenStreetMap,2023-04-24T14:15:48.000Z,,seattle,False
8d259aab-8233-48e8-87d4-a6e14b6c450f,Microsoft Life,software_development,"['information_technology_company', 'b2b_science_and_technology']",WA,Redmond,98052.0,1 Microsoft Way,47.6423069,-122.1368055,meta,2025-06-02T07:00:00.000Z,0.8980891719745223,09e7ce85-ac25-44bd-a162-0df3e4fb0a11,Microsoft Building 92,commercial,commercial,OpenStreetMap,2023-04-24T14:15:48.000Z,,seattle,True
1bb55cf9-0f1e-4cd5-9c54-10ec38018441,Microsoft Studio D,event_planning,"['professional_services', 'software_development']",WA,Redmond,98052.0,15030 NE 36th St,47.6430825,-122.1357134,meta,2025-06-02T07:00:00.000Z,0.9784508333782836,ded8648d-f578-4998-9520-cc709967cbea,Microsoft Studio D,commercial,commercial,OpenStreetMap,2024-07-27T19:11:12.000Z,,seattle,True
327aa295-a38f-40f3-87b0-503bd9dac343,Eastside Ski & Sport at Microsoft,outdoor_gear,"['ski_and_snowboard_shop', 'retail']",WA,Redmond,98052.0,"15255 Northeast 40th Street, Blg 98",47.644493,-122.136922,Microsoft,2025-05-17T06:33:29.880Z,0.77,c93ce30d-a323-415c-a04e-3c4ce9631df7,Microsoft Mixer,commercial,commercial,OpenStreetMap,2024-07-27T19:11:12.000Z,,seattle,False
ce8a15d4-a84f-4b98-8a45-ae0463ac38cc,Microsoft Building 123,corporate_office,['private_establishments_and_corporates'],WA,Redmond,98052.0,4200 150th Ave NE,47.6475880801154,-122.139269113541,Microsoft,,0.77,2bb4c226-7d9b-468f-bf86-a03831884714,Microsoft Building 123,commercial,commercial,OpenStreetMap,2024-07-31T04:31:44.000Z,,seattle,True
5fef5748-35bc-4b3b-bb46-cc6691e6f4bd,Microsoft Studio A,event_planning,"['campus_building', 'software_development']",WA,Redmond,98052.0,15291 NE 40th St,47.6452733,-122.1370596,meta,2025-06-02T07:00:00.000Z,0.9784508333782836,5107c669-1eb1-40c1-9a93-e49a6a6936db,Microsoft Studio A,commercial,commercial,OpenStreetMap,2024-07-27T19:11:12.000Z,,seattle,True
37ad3fff-9356-4bff-9016-cc599734a23d,Microsoft Building 120,corporate_office,['private_establishments_and_corporates'],WA,Redmond,98052.0,15320 NE 40th St,47.64659062,-122.1362114,Microsoft,,0.77,92d69df0-f13e-45ef-8d9b-4bc68f9063e2,Microsoft Building 120,commercial,commercial,OpenStreetMap,2024-07-31T04:31:44.000Z,,seattle,True
306c0811-da1e-4d30-99dd-59adf35314d4,Microsoft Building 41,event_planning,"['software_development', 'information_technology_company']",WA,Redmond,98052.0,15580 NE 31st St,47.6374806,-122.1332647,meta,2025-06-02T07:00:00.000Z,0.9415384615384615,b7cbfca6-24a8-496d-bc52-c230e9b2940c,Microsoft Building 41,commercial,commercial,OpenStreetMap,2024-07-27T19:11:12.000Z,,seattle,True
b138d87a-2473-47b7-96df-7e77afd1c315,Microsoft Galactic Headquarters,event_planning,"['software_development', 'information_technology_company']",WA,Redmond,98052.0,1 Microsoft Way,47.63921,-122.12971,meta,2025-06-02T07:00:00.000Z,0.3961437335670464,f36b2270-43c2-4e96-bb1c-4c98c3965fef,Microsoft Building 14,,,OpenStreetMap,2023-11-24T01:10:03.000Z,,seattle,True
87483d98-dc03-474c-932d-fe9fb978c88c,Microsoft Building,event_planning,['professional_services'],WA,Redmond,98052.0,15595 NE 36th St,47.6406393,-122.1334636,meta,2025-06-02T07:00:00.000Z,0.9297091412742382,05d630f6-80c1-4a5c-9187-f132e6085c8c,Microsoft Building 44,commercial,commercial,OpenStreetMap,2024-07-27T19:11:12.000Z,,seattle,True
572e7bcd-87e6-4dc0-bacb-e145428f858c,Microsoft,engineering_schools,"['corporate_office', 'education', 'private_establishments_and_corporates']",WA,Redmond,98052.0,1 Microsoft Way,47.64004938304424,-122.12979689240456,Microsoft,2016-04-08T07:52:45.140Z,0.77,,,,,,,,seattle,False
d8eb0f96-e8ad-4ac9-85ae-b342985af362,Microsoft Building THERMAL ENERGY CENTER,organization,,WA,REDMOND,98052.0,15960 NE 31st St,47.63791,-122.12738,Microsoft,,0.77,89959b3c-179a-42ca-b2b8-15018d427f81,Microsoft Thermal Energy Center,commercial,commercial,OpenStreetMap,2024-03-28T23:49:45.000Z,,seattle,False
26e7b6a6-9268-4137-99f6-9be8dcc7ec4b,Microsoft US Partner Community,software_development,"['information_technology_company', 'community_services_non_profits']",WA,Redmond,98052.0,1 Microsoft Way,47.6393732,-122.1282515,meta,2025-06-02T07:00:00.000Z,0.909823677581864,,,,,,,,seattle,True
d4820031-410f-4783-84e4-67c675a26fd3,Microsoft Soccer Grounds,soccer_field,['topic_concert_venue'],WA,Redmond,98052.0,1 Microsoft Way,47.639616,-122.128397,meta,2025-06-02T07:00:00.000Z,0.242152466367713,,,,,,,,seattle,False
0f150a4d-fea9-4fb2-a011-3090b8ffa44f,Microsoft Soccer Field,stadium_arena,"['arts_and_entertainment', 'football_stadium']",WA,Redmond,98052.0,"Microsoft Building 24, 15675 NE 36th St",47.6400513,-122.1286879,meta,2025-06-02T07:00:00.000Z,0.9204819277108434,,,,,,,,seattle,False
740b01b6-d0cf-4997-880b-6b34e088315c,Microsoft Building 2,event_planning,['information_technology_company'],WA,Redmond,98052.0,16021 NE 36th Way,47.6405864,-122.1280803,meta,2025-06-02T07:00:00.000Z,0.909823677581864,ca1fe799-ac40-449a-94a5-4b275f614f8a,Microsoft Building 2,,,OpenStreetMap,2024-07-27T19:11:12.000Z,,seattle,True
ee90cee0-d8a3-41ca-b469-9f8365988263,Microsoft Building 16,event_planning,"['campus_building', 'information_technology_company']",WA,Redmond,98052.0,3600 157th Ave NE,47.6450954,-122.130888,meta,2025-06-02T07:00:00.000Z,0.9415384615384615,94a0aaa9-0172-4743-96d6-45945b5e8e2c,Microsoft Building 25,commercial,commercial,OpenStreetMap,2024-07-27T19:11:12.000Z,,seattle,True
4ffc77b2-981d-44d8-88f0-b05a5c66d93c,Microsoft Building 17,event_planning,"['software_development', 'campus_building']",WA,Redmond,98052.0,3801 159th Ave NE,47.6440307,-122.1280682,meta,2025-06-02T07:00:00.000Z,0.9784508333782836,cc203eff-ede7-4116-82bf-56e858f3e7d6,Microsoft Building 17,commercial,commercial,OpenStreetMap,2024-07-27T19:11:12.000Z,,seattle,True
eb3f13df-bcb0-4a55-a53d-55358de8843b,Microsoft Conference Center,professional_services,['event_planning'],WA,Redmond,98052.0,16070 NE 36th Way,47.6427874,-122.1249905,meta,2025-06-02T07:00:00.000Z,0.9297091412742382,2d7366ee-d8c9-4aad-8500-a74826bc7212,Microsoft Building 33,commercial,commercial,OpenStreetMap,2024-07-27T19:11:12.000Z,,seattle,True
f126ae3f-4fdd-4a3a-ac9f-4114c0cd9494,Microsoft Living Well Health Center,hospital,['health_and_medical'],WA,Redmond,98052.0,3925 159th Ave NE,47.6453712,-122.1275925,meta,2025-06-02T07:00:00.000Z,0.9784508333782836,e10b07f2-9a43-4d17-b4a1-0c90d8515de5,Microsoft Living Well Health Center,commercial,commercial,OpenStreetMap,2024-08-16T04:43:17.000Z,,seattle,False
b1a4a350-1608-4337-8c60-54ae2cc9d5d2,Microsoft Production Studios,music_production,"['broadcasting_media_production', 'movie_television_studio']",WA,Redmond,98052.0,4400 148th Ave NE,47.6490833,-122.141837,meta,2025-06-02T07:00:00.000Z,0.9784508333782836,a62ea9b6-04d3-4c1d-8f3c-0d35ad7b84e0,Microsoft Building 127,commercial,commercial,OpenStreetMap,2023-04-24T14:16:35.000Z,,seattle,False
182f20d1-cbdc-4685-9305-08e2eaa73a88,Microsoft Building 127B,corporate_office,['private_establishments_and_corporates'],WA,REDMOND,98053.0,4400 148th Ave NE,47.64922,-122.14172,Microsoft,,0.77,a62ea9b6-04d3-4c1d-8f3c-0d35ad7b84e0,Microsoft Building 127,commercial,commercial,OpenStreetMap,2023-04-24T14:16:35.000Z,,seattle,True
aad0490c-27c8-4652-b772-4efcdda870c3,Stage C Microsoft Studios,professional_services,"['broadcasting_media_production', 'theatre']",WA,Redmond,98052.0,4420 148th Ave NE,47.649254,-122.141695,meta,2025-06-02T07:00:00.000Z,0.296943231441048,a62ea9b6-04d3-4c1d-8f3c-0d35ad7b84e0,Microsoft Building 127,commercial,commercial,OpenStreetMap,2023-04-24T14:16:35.000Z,,seattle,False
f273fe5a-5dd2-4c64-9ee2-b5fa6294a540,Microsoft Museum,museum,"['arts_and_entertainment', 'history_museum']",WA,Redmond,98052.0,4420 148th Ave NE,47.649254,-122.141695,meta,2025-06-02T07:00:00.000Z,0.4929396662387676,a62ea9b6-04d3-4c1d-8f3c-0d35ad7b84e0,Microsoft Building 127,commercial,commercial,OpenStreetMap,2023-04-24T14:16:35.000Z,,seattle,False
3d677c06-9508-416a-8b2e-a532cffab1de,Microsoft Redmond Woods Campus,it_service_and_computer_repair,"['software_development', 'campus_building']",WA,Redmond,98052.0,5020 148th Ave NE,47.6523395,-122.1421587,meta,2025-06-02T07:00:00.000Z,0.9297091412742382,,,,,,,,seattle,False
97d47288-91e6-4b8b-8ca7-81bfeae90e7b,Microsoft Building 88,corporate_office,['private_establishments_and_corporates'],WA,Redmond,98052.0,5069 154th Pl NE,47.65346403,-122.135675,Microsoft,,0.77,f0cf6ceb-28e9-4411-a824-615b316724f9,Microsoft Building 88,commercial,commercial,OpenStreetMap,2024-07-31T04:31:44.000Z,,seattle,True
3524284f-dc27-4ac4-bea7-5bbae076e701,Microsoft Building 83,event_planning,"['information_technology_company', 'software_development']",WA,Redmond,98052.0,4480 154th Pl NE,47.6490376,-122.1336404,meta,2025-06-02T07:00:00.000Z,0.9784508333782836,a34eadb5-2612-49a8-bf82-e5c67ae223d4,Microsoft Building 83,commercial,commercial,OpenStreetMap,2024-08-16T07:02:23.000Z,,seattle,True
ee01f5fd-6ca9-415a-810e-351bdadb1380,Microsoft Building 85,event_planning,"['information_technology_company', 'software_development']",WA,Redmond,98052.0,4634 154th Pl NE,47.6512597,-122.1338994,meta,2025-06-02T07:00:00.000Z,0.9459263554653524,1e113f62-81ba-4865-bdd0-2cd0fe1f35b1,Microsoft Building 85,commercial,commercial,OpenStreetMap,2024-08-16T07:02:23.000Z,,seattle,True
4a7a1cf8-1e56-495e-b8b8-20ab8f7ed913,Microsoft RedWest A,event_planning,"['professional_services', 'business']",WA,Redmond,98052.0,5600 148th Ave NE,47.6588484,-122.1415058,meta,2025-06-02T07:00:00.000Z,0.9415384615384615,b8e6c594-bc9c-498c-8122-ffced1297b6c,RedWest-A,commercial,commercial,OpenStreetMap,2024-07-31T04:31:44.000Z,,seattle,True
a40a9c60-44a7-46b3-9949-c8992543ae79,Microsoft RedWest E,event_planning,"['information_technology_company', 'software_development']",WA,Redmond,98052.0,5600 148th Ave NE,47.6590655,-122.13868,meta,2025-06-02T07:00:00.000Z,0.9459263554653524,d300b36a-3529-434a-a9d7-1d084360a0fc,RedWest-E,commercial,commercial,OpenStreetMap,2024-07-31T04:31:44.000Z,,seattle,True
0893b7b9-c0a6-4674-b408-09648910f51a,Microsoft Building 32,event_planning,"['software_development', 'campus_building']",WA,Redmond,98052.0,3620 163rd Ave NE,47.6428471,-122.1218004,meta,2025-06-02T07:00:00.000Z,0.9784508333782836,43e95b75-d657-40a5-8660-613eee9016e6,Microsoft Building 32,commercial,office,OpenStreetMap,2024-03-28T23:49:14.000Z,,seattle,True
15a2975e-e718-4a60-9f05-730e02ac3fce,Microsoft Building 112,information_technology_company,"['software_development', 'campus_building']",WA,Redmond,98052.0,3730 163rd Ave NE,47.643725,-122.122532,meta,2025-06-02T07:00:00.000Z,0.9459263554653524,0c0666c1-f498-4f09-b161-8ac1c8d912e3,Microsoft Building 31,commercial,commercial,OpenStreetMap,2024-07-27T19:11:12.000Z,,seattle,True
73695603-85a6-4fe7-9bd5-56ebfa183f28,Microsoft Studio B,event_planning,,WA,Redmond,98052.0,15301 NE 38th Ct,47.6440567,-122.1057033,meta,2025-06-02T07:00:00.000Z,0.296943231441048,9978e511-2eb5-4c41-a844-c22c6b1056ad,,,,OpenStreetMap,2024-07-27T19:29:30.000Z,,seattle,True
8a307055-aa12-4ab5-ba4d-241879c8809f,Microsoft Cricket Club,sports_club_and_league,"['active_life', 'stadium_arena']",WA,Redmond,98052.0,6046 W Lake Sammamish Pkwy NE,47.665542,-122.115632,meta,2025-06-02T07:00:00.000Z,0.909823677581864,,,,,,,,seattle,False
7ffa1bb1-e988-42f7-a16a-d797675ea80a,Microsoft Redmond Town Center,software_development,"['information_technology_company', 'campus_building']",WA,Redmond,98052.0,7332 166th Ave NE,47.6689214,-122.1182898,meta,2025-06-02T07:00:00.000Z,0.9459263554653524,05952e19-ba6b-4432-8841-815bc546bd69,Microsoft RTC B5,commercial,commercial,OpenStreetMap,2025-02-06T23:46:20.000Z,,seattle,True
967000cd-b519-44de-a4dc-292b886b4d8c,Microsoft Building MARYMOOR,corporate_office,['private_establishments_and_corporates'],WA,Redmond,98052.0,17622 NE 67th Ct,47.6652809232473,-122.105201035738,Microsoft,,0.77,,,,,,,,seattle,True
cbb1569d-ec0e-42cd-84d2-6897d0a39781,Microsoft,professional_services,['software_development'],WA,Redmond,98052.0,17760 NE 67th Ct,47.66543,-122.102869,meta,2025-06-02T07:00:00.000Z,0.3376623376623376,398ac844-6bb2-4137-a86a-309cd801b7be,,commercial,commercial,OpenStreetMap,2024-08-16T07:02:23.000Z,,seattle,True
e2a1fdfa-92ef-4dc5-bbf0-ba2f5b489dd7,Microsoft Corporation,it_service_and_computer_repair,['information_technology_company'],WA,Redmond,98052.0,8332 167th Ave NE,47.677098,-122.117751,meta,2025-06-02T07:00:00.000Z,0.3376623376623376,b278890d-197a-4c6c-87fa-e1840c754548,,residential,detached,OpenStreetMap,2020-04-18T23:07:31.000Z,,seattle,False
187d3d02-2bb1-4a5b-9b5a-866d9d838da5,Microsoft Building BEAR CREEK A,corporate_office,['private_establishments_and_corporates'],WA,REDMOND,98052.0,17411 NE Union Hill Rd,47.67466,-122.10745,Microsoft,,0.77,,,,,,,,seattle,True
e95696fa-05e9-4c1a-8556-bb6386737640,Microsoft Millenium E,pizza_restaurant,"['indian_restaurant', 'information_technology_company']",WA,Redmond,98052.0,18600 NE Union Hill Rd,47.6775474,-122.0917178,meta,2025-06-02T07:00:00.000Z,0.5662921348314607,07a47a95-fad1-4bef-9107-be35132944f1,E,commercial,commercial,OpenStreetMap,2018-11-27T21:52:39.000Z,,seattle,True
27baa6a0-fcca-4400-ba9c-3dfa00899dc7,Microsoft Building MILLENNIUM F,corporate_office,['private_establishments_and_corporates'],WA,Redmond,98052.0,18700 NE Union Hill Rd,47.677635,-122.090662,Microsoft,,0.77,be124612-5aa6-47a1-b891-232aaeba02a0,F,commercial,commercial,OpenStreetMap,2018-11-27T21:52:34.000Z,,seattle,True
769ea7c2-f1ea-4a45-a980-ba84b6f4c173,Microsoft Building WILLOWS-9825,corporate_office,['private_establishments_and_corporates'],WA,Redmond,98052.0,9825 Willows Rd NE,47.6872108267955,-122.150748968124,Microsoft,,0.77,a2bbd7e5-0173-40e6-97ea-ec97ff51c89d,,commercial,commercial,OpenStreetMap,2024-04-02T02:22:20.000Z,,seattle,True
c6afb3d6-02d0-4c34-aadf-0aee76bdf1d2,Microsoft REC,event_planning,"['professional_services', 'information_technology_company']",WA,Redmond,98052.0,9825 Willows Rd NE,47.6872847,-122.1507647,meta,2025-06-02T07:00:00.000Z,0.5662921348314607,a2bbd7e5-0173-40e6-97ea-ec97ff51c89d,,commercial,commercial,OpenStreetMap,2024-04-02T02:22:20.000Z,,seattle,True
a73e894f-ae52-4cef-9629-4038e55a88ec,Microsoft Willows,business,,WA,Redmond,98052.0,10525 Willows Rd NE,47.693961,-122.153146,meta,2025-06-02T07:00:00.000Z,0.3376623376623376,03b93f83-6bdb-45c1-8aaa-6000caa71651,Genesis,commercial,commercial,OpenStreetMap,2024-08-17T21:55:24.000Z,,seattle,False
60f92ed3-6f02-4817-b7ba-3f98a286d82b,Microsoft,it_service_and_computer_repair,"['professional_services', 'information_technology_company']",WA,Lynnwood,98037.0,17300 Highway 99,47.841856,-122.301658,meta,2025-06-02T07:00:00.000Z,0.296943231441048,21994cd3-2531-44e3-8094-3c83ddb7e3ea,Centersquare Lynnwood SE1,,,OpenStreetMap,2024-09-02T15:39:12.000Z,,seattle,False
88be7cb2-c3b8-4f7f-b8bf-e6da72b126b7,Microsoft Building PITTSBURGH-1001 LIBERTY,organization,,PA,Pittsburgh,15222.0,1001 Liberty Ave,40.44427,-79.99456,Microsoft,,0.77,549119c2-2e92-478f-925c-155bbea07027,The Westin Convention Center Pittsburgh,,,OpenStreetMap,2024-01-17T03:39:15.000Z,,pittsburgh,False
71dd6ff5-5f3e-4815-bac0-e7a32ec8b836,Microsoft,event_planning,['business'],PA,Pittsburgh,15222.0,1001 Liberty Ave,40.444452,-79.994166,meta,2025-06-02T07:00:00.000Z,0.5662921348314607,0d001b1b-f426-4708-9cfe-78d46ab8d512,Federated Tower,,,OpenStreetMap,2024-02-06T20:17:27.000Z,,pittsburgh,True
ed18cb0f-1224-4fd9-a5eb-b7e0f63ef0d9,Microsoft Corporation,software_development,"['it_service_and_computer_repair', 'business']",AZ,Tempe,85281.0,60 E Rio Salado Pkwy,33.4311299,-111.9392571,meta,2025-06-02T07:00:00.000Z,0.9784508333782836,026a8381-8b06-4d0d-bfbc-734590a0c6ae,,,,OpenStreetMap,2022-12-15T00:36:54.000Z,,phoenix,False
c63d72af-dc0a-4d8f-9b3b-b22734fabf3f,Microsoft Corporation,it_service_and_computer_repair,"['community_services_non_profits', 'professional_services']",MO,St Louis,63141.0,3 Cityplace Dr,38.6723133,-90.4407903,meta,2025-06-02T07:00:00.000Z,0.9415384615384615,2dc1660b-d4de-4b3e-8535-47799c427b13,,,,Microsoft ML Buildings,2022-08-25T00:00:00.000Z,,st-louis,False
bae3e76f-06a8-4434-9773-f182d7fbcb69,Microsoft Corporation,it_service_and_computer_repair,"['professional_services', 'electronics']",TX,Houston,77042.0,2000 W Sam Houston Pkwy S,29.74619,-95.559569,meta,2025-06-02T07:00:00.000Z,0.3376623376623376,dbf2dc91-bd34-4b5d-82c9-088267b62105,One BriarLake Plaza,commercial,office,OpenStreetMap,2021-05-04T12:55:00.000Z,,houston,False
1c3b9203-849b-4fc0-a99e-c310378b67ae,Microsoft Corporate Office,event_planning,"['business', 'information_technology_company']",TX,Houston,77024.0,750 Town and Country Blvd,29.7782361,-95.5602724,meta,2025-06-02T07:00:00.000Z,0.9784508333782836,3eaabe5f-55eb-4830-9da9-3a5791d22a81,,,,OpenStreetMap,2020-01-09T13:54:38.000Z,,houston,True
1cdeb627-6196-489e-9abf-0d503f308c8d,Microsoft Store Houston Galleria,electronics,['computer_store'],TX,Houston,77056.0,5006 Westheimer Rd,29.739431,-95.463384,meta,2025-06-02T07:00:00.000Z,0.4929396662387676,1a4fd79d-4e61-400b-91e2-c2f348b75ab0,The Galleria,,,OpenStreetMap,2024-01-09T09:55:27.000Z,,houston,False
364c2ef5-cd86-4bd5-b899-bde710570d73,Microsoft Midwest District,software_development,"['information_technology_company', 'business']",IL,Chicago,60601.0,200 E Randolph St,41.8853981,-87.6215174,meta,2025-06-02T07:00:00.000Z,0.9459263554653524,aef295ec-4ca7-4a15-9e0a-1b3a980d34f1,Aon Center,commercial,office,OpenStreetMap,2024-06-30T20:38:31.000Z,,chicago,True
