id_left,primary_name_left,primary_category,alternate_category,region,locality,zipcode,address,latitude,longitude,plc_source_dataset,plc_source_update_time,plc_source_confidence,id_right,primary_name_right,subtype,class,bldg_dataset,bldg_update_time,bldg_confidence,source_city,is_office_by_pipeline
671a385d-d265-4acc-84ce-6ef4efe8f8ba,Hana Micron America,professional_services,['commercial_real_estate'],CA,Milpitas,95035.0,1900 McCarthy Blvd,37.399083,-121.912968,meta,2025-06-02T07:00:00.000Z,0.296943231441048,475556be-6613-4606-85ff-e3f49dafa806,,commercial,commercial,OpenStreetMap,2021-04-17T18:30:22.000Z,,san-jose,False
d0a3205c-454a-48cc-8eb4-d0934e1304fb,Micron USA,information_technology_company,"['campus_building', 'software_development']",CA,Milpitas,95035.0,590 Alder Dr.,37.4130016,-121.9151615,meta,2025-06-02T07:00:00.000Z,0.3961437335670464,,,,,,,,san-jose,True
d78194ab-7c7f-4085-a982-3b711e0d0a13,Micron Painting,contractor,['painting'],NC,Charlotte,28202.0,615 S College St,35.2217501,-80.847927,meta,2025-06-02T07:00:00.000Z,0.8860580325548478,79a2d5d6-480f-4024-ae06-69df7fe6e244,Regions 615,,,OpenStreetMap,2025-01-19T06:04:03.000Z,,charlotte,False
57bf0bef-8f35-4ad0-b97d-1fb505b75825,Micron Business Products,electronics,"['shopping', 'automotive_repair']",WI,Madison,53711.0,2799 S Syene Rd,43.00743,-89.39642,meta,2025-06-02T07:00:00.000Z,0.3376623376623376,,,,,,,,madison,False
a2911424-f5c2-46cb-ac88-f88bfb720c53,Micron Manufacturing Company,machine_shop,"['professional_services', 'commercial_industrial']",MI,Grand Rapids,49504.0,1722 Kloet St NW,43.003174,-85.7115642,meta,2025-06-02T07:00:00.000Z,0.9784508333782836,3753b17a-d511-4013-b2e6-a01ef6645339,,,,OpenStreetMap,2022-11-28T06:01:40.000Z,,grand-rapids,True
1accae39-4582-421f-9504-a80f42c6bf8b,Micron Mapping Service,professional_services,"['environmental_conservation_and_ecological_organizations', 'public_service_and_government']",TX,San Antonio,78251.0,7603 Micron Dr,29.458638,-98.646809,meta,2025-06-02T07:00:00.000Z,0.242152466367713,422f3a76-7819-401f-86ce-4fcf0b8ed4bf,,,,OpenStreetMap,2022-12-13T05:10:55.000Z,,san-antonio,False
69c360ae-bb31-4d86-9a07-5250192f94c5,Micron USA,b2b_science_and_technology,"['information_technology_company', 'engineering_services']",CA,Folsom,95630.0,2235 Iron Point Rd,38.64425,-121.13236,meta,2025-06-02T07:00:00.000Z,0.4929396662387676,91cfeee9-ed7e-45a0-92cb-cf97fbe8e28b,Micron Technology Inc. (Folsom),,,OpenStreetMap,2024-03-27T18:49:02.000Z,,sacramento,True
738e1ec6-f2a7-44a9-94f8-415d63e50ddd,Micron Technology,business_manufacturing_and_supply,"['information_technology_company', 'commercial_industrial']",CA,Folsom,95630.0,2235 Iron Point Rd,38.6443299,-121.1324044,meta,2025-06-02T07:00:00.000Z,0.9784508333782836,,,,,,,,sacramento,True
404e27d2-4842-441a-807e-c93edd8f4602,Micron USA,engineering_services,"['software_development', 'professional_services']",MN,Minneapolis,55413.0,3001 NE Broadway St,44.9997549,-93.2194083,meta,2025-06-02T07:00:00.000Z,0.3376623376623376,c92380b7-68f5-45de-846b-9a9ff1a0ee8e,Broadway Ridge,,,OpenStreetMap,2020-02-18T14:29:58.000Z,,minneapolis,True
a6b08ee6-28dd-40bf-ae32-3848b84d163d,Micron Metalworks,metal_supplier,"['commercial_industrial', 'professional_services']",MN,Ham Lake,55304.0,14203 Lincoln St NE,45.2282344,-93.2374046,meta,2025-06-02T07:00:00.000Z,0.9415384615384615,de5c017b-9a79-40ba-a731-3adb86f53ccf,,,,Microsoft ML Buildings,2023-09-13T00:00:00.000Z,0.9991999864578248,minneapolis,False
52416ce8-53f2-4d2f-991b-8ac448649d2c,Micron Laser Technology,machine_shop,"['metal_fabricator', 'engineering_services']",OR,Hillsboro,97124.0,5560 NE Wagon Dr,45.5610053,-122.911138,meta,2025-06-02T07:00:00.000Z,0.9300613496932516,64077240-db05-4814-a198-a3f93b3569e5,Micron Laser Technology,,,OpenStreetMap,2024-11-07T06:54:38.000Z,,portland,False
65137a47-a52b-4807-8151-beaaa2fb95d2,Micron Metal Finishing,metal_supplier,"['commercial_industrial', 'industrial_company']",OR,Portland,97222.0,13505 SE Johnson Rd,45.4254508,-122.5872618,meta,2025-06-02T07:00:00.000Z,0.9784508333782836,,,,,,,,portland,False
e2475248-5199-4b5b-a951-e047e6161330,Micron USA,b2b_science_and_technology,"['it_service_and_computer_repair', 'professional_services']",VA,Manassas,20110.0,9600 Godwin Dr,38.7487897,-77.5069875,meta,2025-06-02T07:00:00.000Z,0.5662921348314607,f6210054-8422-479c-9b42-0d0d49cde210,Micron Technology,industrial,industrial,OpenStreetMap,2025-02-16T14:10:30.000Z,,washington-dc,False
2133dc9c-5a6d-46f2-9ecf-7f7fbce9f6f0,Micron Machining,machine_shop,"['professional_services', 'commercial_industrial']",CA,Modesto,95356.0,619 Glass Ln,37.7055213,-120.9991161,meta,2025-06-02T07:00:00.000Z,0.9459263554653524,28a0ae81-eeca-4c10-8d29-b07275de7521,,,,OpenStreetMap,2023-04-25T09:25:26.000Z,,modesto,False
21d1dd9c-6adf-4029-9068-bdc719804f85,Hosokawa Micron Powder Systems,business,"['industrial_equipment', 'industrial_company']",NJ,Summit,7901.0,10 Chatham Rd,40.7313623,-74.3764833,meta,2025-06-02T07:00:00.000Z,0.9784508333782836,,,,,,,,new-york,False
1fc35ce1-fba5-438c-850b-08202257f240,"Micron Applied Technologies, Inc.",machine_shop,"['commercial_industrial', 'professional_services']",TX,Lewisville,75057.0,635 Hembry St,33.041053,-96.9923091,meta,2025-06-02T07:00:00.000Z,0.9784508333782836,30cdb6d5-6240-4c8d-8ab4-a0f9bdeb693f,,,,OpenStreetMap,2019-01-11T17:39:46.000Z,,denton-lewisville,False
e5bbd331-fe25-4a92-93db-3ac662c1b9f1,Micron Semiconductor Products,electronics,"['computer_store', 'shopping']",ID,Meridian,83642.0,3475 E Commercial Ct,43.6094555,-116.3508141,meta,2025-06-02T07:00:00.000Z,0.9459263554653524,8417ed4c-898e-4a9d-a086-5e350e7cd0e3,,,,OpenStreetMap,2022-08-13T07:06:21.000Z,,boise-city,False
47eb7451-37a6-4b5d-b0f6-3165ba24a6a5,Boise State Micron School of Materials Science and Engineering,college_university,,ID,Boise,83706.0,1910 W University Dr,43.6014663,-116.2016517,meta,2025-06-02T07:00:00.000Z,0.7548172757475083,13cb4f1d-943e-4b4b-8fd5-6c780a6ca69a,Student Union Building,education,university,OpenStreetMap,2023-04-13T17:38:15.000Z,,boise-city,False
1013be3b-550d-4c28-9bfc-5b506cb95121,Micron Engineering Center,campus_building,"['college_university', 'engineering_services']",ID,Boise,83706.0,1021 S Manitou Ave,43.6001023,-116.1983896,meta,2025-06-02T07:00:00.000Z,0.9784508333782836,5a04aa7a-6fdd-42d1-8833-730b242d423c,Micron Engineering Center,education,university,OpenStreetMap,2025-04-06T00:21:13.000Z,,boise-city,True
778f130e-2741-4c51-8a05-8d56c9100c9e,Micron School of Materials Science and Engineering,college_university,"['b2b_science_and_technology', 'engineering_services']",ID,Boise,83706.0,1375 W University Dr,43.6001023,-116.1983896,meta,2025-06-02T07:00:00.000Z,0.5662921348314607,5a04aa7a-6fdd-42d1-8833-730b242d423c,Micron Engineering Center,education,university,OpenStreetMap,2025-04-06T00:21:13.000Z,,boise-city,False
4f441247-2383-482f-bcbc-3ec24e705e35,Simplot Micron Advising and Success Hub,b2b_science_and_technology,"['information_technology_company', 'campus_building']",ID,Boise,83706.0,2055 W Cesar Chavez Ln,43.605121,-116.2056263,meta,2025-06-02T07:00:00.000Z,0.9204819277108434,bf98d6e9-ada3-4c46-a560-5377e4cd0c1b,Simplot Micron Advising and Success Hub,,,OpenStreetMap,2025-06-06T21:46:52.000Z,,boise-city,True
18933399-1892-40e4-894e-2f51a9ec524f,MICRON,telecommunications,['it_service_and_computer_repair'],FL,Boca Raton,33431.0,1001 W Yamato Rd Ste 400,26.39598587,-80.10896023,Microsoft,2025-03-10T23:55:16.117Z,0.77,3e629861-39da-4925-b46b-6e127a7efd0a,,,,OpenStreetMap,2015-08-24T16:59:14.000Z,,miami,False
61e88656-b072-47d2-9c5a-16de7b9bbc2e,Micron Disinfection,home_cleaning,"['janitorial_services', 'contractor']",CA,Manhattan Beach,90266.0,2100 N Sepulveda Blvd,33.892884,-118.3957572,meta,2025-06-02T07:00:00.000Z,0.8831168831168831,bee586bf-38fe-4a64-a9cc-28a463105b97,,commercial,commercial,OpenStreetMap,2022-12-16T06:36:46.000Z,,los-angeles,False
04e8f218-2704-4fcd-a27e-b800b439c342,Micron Construction Services,contractor,"['roofing', 'construction_services']",GA,Johns Creek,30097.0,5805 State Bridge Rd,34.018097,-84.1849096,meta,2025-06-02T07:00:00.000Z,0.9204819277108434,,,,,,,,atlanta,False
ff9d59bc-4f50-4879-9107-2085f9ff2395,Micron Machine & Tool,machine_shop,"['metal_fabricator', 'plastic_fabrication_company']",TX,Dallas,75207.0,4824 Vicksburg St,32.805981,-96.8499824,meta,2025-06-02T07:00:00.000Z,0.9459263554653524,0aa2ac3d-23de-4165-9c7a-e65279bf009d,,commercial,warehouse,OpenStreetMap,2020-01-03T15:04:46.000Z,,dallas,False
1fc35ce1-fba5-438c-850b-08202257f240,"Micron Applied Technologies, Inc.",machine_shop,"['commercial_industrial', 'professional_services']",TX,Lewisville,75057.0,635 Hembry St,33.041053,-96.9923091,meta,2025-06-02T07:00:00.000Z,0.9784508333782836,30cdb6d5-6240-4c8d-8ab4-a0f9bdeb693f,,,,OpenStreetMap,2019-01-11T17:39:46.000Z,,dallas,False
843a4c7c-4f9d-4566-a13c-7804e2f9f99f,Micron Industries,metal_plating_service,"['commercial_industrial', 'industrial_equipment']",TX,Garland,75042.0,3609 Marquis Dr,32.9021956,-96.6854532,meta,2025-06-02T07:00:00.000Z,0.9459263554653524,f0687dff-0cd3-44b7-9782-45ec0780dd7e,,,,OpenStreetMap,2018-11-06T19:06:12.000Z,,dallas,False
a6a9871d-a500-437e-ba6e-3f8312736c25,Micron USA,b2b_science_and_technology,"['professional_services', 'laboratory_testing']",TX,Allen,75013.0,805 Central Expy S,33.08959,-96.68004,meta,2025-06-02T07:00:00.000Z,0.242152466367713,c3d5251f-d77d-402d-a07a-b04d739f710e,,,,OpenStreetMap,2018-04-17T16:03:19.000Z,,dallas,False
8bc7d353-11f7-4e51-b9f8-ab480ee27c9d,Micron Corporation,business_manufacturing_and_supply,"['industrial_equipment', 'commercial_industrial']",MA,Norwood,2062.0,89 Access Rd,42.1857871,-71.1772632,meta,2025-06-02T07:00:00.000Z,0.9459263554653524,,,,,,,,boston,True
7be114b8-2586-48f5-9bc2-472d27a6e5ea,Micron Inc.,b2b_science_and_technology,"['engineering_services', 'professional_services']",DE,Wilmington,19805.0,3815 Lancaster Pike,39.7566299,-75.5948438,meta,2025-06-02T07:00:00.000Z,0.3961437335670464,a2eab3ae-752e-4e8f-ade8-00c06e66642f,,,,OpenStreetMap,2020-07-27T17:31:16.000Z,,philadelphia,False
4808b775-46e2-4466-acb6-d413c70647f5,Micron Technologies,commercial_industrial,"['pharmaceutical_companies', 'information_technology_company']",PA,Malvern,19355.0,333 Phoenixville Pike,40.066362,-75.560227,meta,2025-06-02T07:00:00.000Z,0.4929396662387676,ff92abba-d76d-4c58-8c6c-c679c8a41cfd,,,,OpenStreetMap,2020-12-24T01:04:55.000Z,,philadelphia,True
571cc3a9-3b18-4e8f-ba7e-e93d7945385b,MICRON Filter Cartridge Corp.,business_equipment_and_supply,['business_to_business'],IL,Elmhurst,60126.0,506 S Spring Rd,41.884937,-87.949902,Microsoft,2020-04-30T12:13:58.480Z,0.77,9041b166-3bb3-41d0-8c50-c5aa3eac336c,,,,OpenStreetMap,2019-04-23T15:32:33.000Z,,chicago,False
cc6be525-785d-466a-a644-ee0854597da0,Micron Engine & Machine,engine_repair_service,"['auto_parts_and_supply_store', 'transmission_repair', 'automotive', 'retail']",IL,Stone Park,60165.0,1540 N Mannheim Rd,41.8994483947754,-87.8840866088867,Microsoft,2013-01-29T07:35:24.437Z,0.77,2fa7c50d-ebbd-4249-ac5b-e073cb69df6b,,,,Microsoft ML Buildings,2023-09-01T00:00:00.000Z,0.9983000159263612,chicago,False
3c561da9-a62a-4c65-9dbf-f33173cae0a0,Micron Industries,business_to_business,,NY,Rochester,14624.0,31 Industrial Pk Circle,43.1301222,-77.7383797,Microsoft,2025-04-19T10:37:55.710Z,0.77,,,,,,,,rochester,False
