id_left,primary_name_left,primary_category,alternate_category,region,locality,zipcode,address,latitude,longitude,plc_source_dataset,plc_source_update_time,plc_source_confidence,id_right,primary_name_right,subtype,class,bldg_dataset,bldg_update_time,bldg_confidence,source_city,is_office_by_pipeline
8d82b074-8293-45e5-b53d-013f83315470,Maxim Doucet Hall,college_university,['campus_building'],LA,Lafayette,70503.0,1401 Johnston St,30.2150376,-92.0207006,meta,2025-06-02T07:00:00.000Z,0.9784508333782836,35ff24d3-5c7d-45e1-aa4a-01a2c155616f,Maxim Doucet Hall,education,university,OpenStreetMap,2023-04-18T20:22:26.000Z,,lafayette,True
49283cfc-04d8-4f09-bc3b-7b5f8663720b,Maxim Insurance,insurance_agency,,TX,Cypress,77429.0,14555 Skinner Rd,29.986866,-95.687956,meta,2025-06-02T07:00:00.000Z,0.2456896551724137,5a0e9bab-3f85-4d21-b20a-3fcea123a835,,,,OpenStreetMap,2024-08-11T23:38:29.000Z,,houston,False
dc916e46-991e-4d26-81c5-9c4c35a0fd71,"Maxim Crane Works, LP",industrial_equipment,"['commercial_industrial', 'industrial_company']",TX,Rosharon,77583.0,303 Peach Ln,29.4874349,-95.4678731,meta,2025-06-02T07:00:00.000Z,0.4929396662387676,,,,,,,,houston,False
57fefe4d-d092-49b5-9ff8-39597ccee39a,US Maxim Nail Supply,shopping,"['cosmetic_and_beauty_supplies', 'beauty_salon']",TX,Houston,77072.0,10600 Bellaire Blvd,29.7047123,-95.5668749,meta,2025-06-02T07:00:00.000Z,0.9784508333782836,7ae9e265-e350-4ca9-bf18-0930f7a2cadb,,,,Microsoft ML Buildings,2023-09-01T00:00:00.000Z,0.9987999796867372,houston,False
4d0f6b48-ed1e-46a0-862b-160995bb466d,Maxim III Motel,hotel,"['accommodation', 'motel']",TX,Houston,77045.0,4700 W Fuqua St,29.6134732,-95.4491885,meta,2025-06-02T07:00:00.000Z,0.9784508333782836,5d64710c-e89f-4631-9dbd-3bf3bc15821d,Maxim III Motel,,,OpenStreetMap,2023-12-03T17:34:39.000Z,,houston,False
d531d0f6-0c70-4cca-8007-763e734d7762,Maxim Seafood,seafood_restaurant,"['fast_food_restaurant', 'cajun_and_creole_restaurant']",TX,Houston,77021.0,6510 Weston St,29.6917901,-95.3460022,meta,2025-06-02T07:00:00.000Z,0.9784508333782836,,,,,,,,houston,False
8ac41e63-3ead-457f-9ac7-5d431395fcbe,"MAXIM Entertainment, LLC",topic_concert_venue,"['comedy_club', 'smoothie_juice_bar']",TX,Houston,77072.0,6438 Wilcrest Dr,29.71107,-95.57189,meta,2025-06-02T07:00:00.000Z,0.296943231441048,,,,,,,,houston,False
0397bc56-00ee-4c4d-a733-b127b66552ca,Maxim Tea & Coffee,bubble_tea,['coffee_shop'],TX,Houston,77072.0,6438 Wilcrest Dr,29.71107,-95.57189,meta,2025-06-02T07:00:00.000Z,0.5662921348314607,,,,,,,,houston,False
4ccc1673-42a6-4df3-80d4-c0592032a4f0,"Maxim Healthcare Services Houston, TX Regional Office",home_health_care,"['hospital', 'health_and_medical']",TX,Houston,77042.0,10777 Westheimer Rd,29.7360219,-95.5665653,meta,2025-06-02T07:00:00.000Z,0.9459263554653524,b3d2ed49-20e3-4313-881c-dfa0326fbeef,,,,OpenStreetMap,2014-12-24T17:18:17.000Z,,houston,True
f4b05374-eff2-438e-a48d-ac5713832937,Maxim Silencers,industrial_company,"['business_manufacturing_and_supply', 'wholesale_store']",TX,Houston,77041.0,6545 N Eldridge Pkwy,29.8696978,-95.6109999,meta,2025-06-02T07:00:00.000Z,0.9204819277108434,e74753a0-8157-4e41-a638-fee7364d3676,,,,OpenStreetMap,2017-09-06T15:38:36.000Z,,houston,False
391e3f77-6123-4b61-bc42-32660ecb996e,Powertherm Maxim,industrial_company,['business_manufacturing_and_supply'],TX,Houston,77041.0,6545 N Eldridge Pkwy,29.8698211,-95.6104245,meta,2025-06-02T07:00:00.000Z,0.9204819277108434,3532a3e7-ef42-4f5a-9fa2-2478d8ac3220,,,,OpenStreetMap,2017-09-06T15:38:35.000Z,,houston,False
ee96aea9-3f90-421e-97af-65d454e34850,Maxim Roofing and Restoration,roofing,['professional_services'],TX,Houston,77055.0,7635 Long Point Rd,29.8026656,-95.48018,meta,2025-06-02T07:00:00.000Z,0.672566371681416,,,,,,,,houston,False
5e9e7a1f-81a3-4ced-90b6-d43b33c30770,Maxim Lighting,lighting_store,['topic_concert_venue'],TX,Houston,77027.0,4218 Richmond Ave,29.7329,-95.4462,meta,2025-06-02T07:00:00.000Z,0.3376623376623376,2f300edd-5385-47b5-9d2b-c0b661aaeff8,Lighting Inc,,,OpenStreetMap,2022-09-16T21:24:35.000Z,,houston,False
6a1906ae-ba5d-4623-b7d7-637ceecc428f,MAXIM Hair Restoration,hair_loss_center,"['hair_removal', 'beauty_and_spa', 'health_and_medical']",TX,Houston,77098.0,4101 Greenbriar Dr Ste 200,29.729529,-95.41284,Microsoft,2020-12-14T21:59:36.363Z,0.77,,,,,,,,houston,False
97a91d02-e88f-4736-809f-0f3266bc4204,Maxim Hair Restoration & Transplants - Houston,hair_replacement,['beauty_salon'],TX,Houston,77098.0,4101 Greenbriar Dr,29.7294758,-95.412382,meta,2025-06-02T07:00:00.000Z,0.9415384615384615,4536c16a-7a3d-4c12-a453-441c344b780b,,,,OpenStreetMap,2018-04-09T23:24:02.000Z,,houston,False
94e6062e-266f-4f4a-b2fc-6e5346ff038e,MAXIM ReGen,medical_center,['health_and_medical'],TX,Houston,77098.0,4101 Greenbriar Dr Ste 200,29.729468,-95.412363,Microsoft,2025-01-23T13:11:15.883Z,0.77,4536c16a-7a3d-4c12-a453-441c344b780b,,,,OpenStreetMap,2018-04-09T23:24:02.000Z,,houston,False
d5a560ea-dfcc-4703-ac27-941c7964bb41,Maxim Crane Works,industrial_equipment,"['b2b_machinery_and_tools', 'hydraulic_equipment_supplier', 'crane_services', 'business_equipment_and_supply', 'business_to_business']",TX,Houston,77015.0,15919 Jacintoport Blvd,29.750276,-95.119798,Microsoft,2019-03-06T20:56:00.027Z,0.77,e1f696c7-a2fa-43c9-982e-743a2fc3b30e,,,,Microsoft ML Buildings,2000-01-01T00:00:00.000Z,,houston,False
40625c6c-7ea8-4c11-90ef-565f75e0f1cd,"Maxim Crane Works, LP",industrial_equipment,"['automotive', 'auto_company']",TX,Houston,77015.0,15919 Jacintoport Blvd,29.7503178,-95.1195992,meta,2025-06-02T07:00:00.000Z,0.4929396662387676,e1f696c7-a2fa-43c9-982e-743a2fc3b30e,,,,Microsoft ML Buildings,2000-01-01T00:00:00.000Z,,houston,False
8c958fd7-41a9-438d-be06-5617a08f4f18,"Maxim Healthcare Services Spring, TX Regional Office",home_health_care,"['hospital', 'health_and_medical']",TX,Spring,77380.0,460 Wildwood Forest Dr,30.122943,-95.4457281,meta,2025-06-02T07:00:00.000Z,0.9415384615384615,e677935c-ffaf-4133-9a9d-67719ef10037,,,,OpenStreetMap,2021-01-14T08:07:10.000Z,,houston,True
ba86b63a-6df5-4a8f-a1a1-a92ad05a61b6,"Maxim Danilevich, MD",orthopedist,"['doctor', 'health_and_medical']",TX,Conroe,77304.0,508 Medical Ctr Blvd Ste 360,30.0500599,-95.2552222,Microsoft,2025-05-20T19:02:25.867Z,0.77,033383cd-1e95-4798-bb12-4d638435689a,HCA Houston Healthcare Kingwood,medical,hospital,OpenStreetMap,2020-06-18T03:41:33.000Z,,houston,False
9422685a-2ae1-4198-b005-a30e14277e98,"Maxim Healthcare Services Reno, NV Regional Office",home_health_care,"['hospital', 'health_department']",NV,Reno,89521.0,10345 Professional Cir,39.4318822,-119.7584367,meta,2025-06-02T07:00:00.000Z,0.9459263554653524,a0644542-d5f9-4055-a74c-28481b14933d,,commercial,office,OpenStreetMap,2024-10-23T01:15:31.000Z,,reno,True
a85be968-fea0-4bfd-b1f8-bfa9a4334f67,Maxim Small Engine Maintenance & Repair LLC,engine_repair_service,"['transmission_repair', 'automotive']",KS,Olathe,66062.0,14735 W 141st St,38.84234,-94.81396,Microsoft,2023-10-17T19:53:31.923Z,0.77,54824f16-d7c9-403d-8002-f17b8e0ff091,,,,OpenStreetMap,2020-09-24T15:17:44.000Z,,kansas-city,False
e37baf3f-4b04-4402-9121-b7ad43d6cdec,Maxim Concrete Construction,contractor,['construction_services'],KS,Olathe,66062.0,18690 W 159th Ter,38.8395118,-94.8024628,meta,2025-06-02T07:00:00.000Z,0.8831168831168831,,,,,,,,kansas-city,False
4d01e64d-b5ae-47fa-b3ab-6723474a33fd,Maxim Healthcare Services Kansas City Regional Office,home_health_care,"['hospital', 'health_and_medical']",KS,Overland Park,66210.0,10881 Lowell Ave,38.9327156,-94.676239,meta,2025-06-02T07:00:00.000Z,0.9784508333782836,95c4bf31-06ce-4245-93e3-d732d89039af,,commercial,office,OpenStreetMap,2024-01-31T16:52:46.000Z,,kansas-city,True
203ab985-7a9c-4813-909b-af91a3f3e130,"Maxim Healthcare Services Jacksonville, FL Regional Office",home_health_care,"['hospital', 'health_and_medical']",FL,Jacksonville,32256.0,7775 Baymeadows Way,30.2306038,-81.5822566,meta,2025-06-02T07:00:00.000Z,0.9784508333782836,c8b2448d-568a-41f8-a9a1-df849c34c1ed,,,,OpenStreetMap,2018-03-12T05:13:20.000Z,,jacksonville-florida,True
d9c4e97c-a4f4-4e21-86d6-4677b11b1a9e,"Maxim Healthcare Services Jacksonville, FL Regional Office",home_health_care,"['personal_care_service', 'health_and_medical']",FL,Jacksonville,32256.0,7775 Baymeadows Way Ste 200,30.230807,-81.582099,Microsoft,2025-05-10T08:27:25.210Z,0.77,c8b2448d-568a-41f8-a9a1-df849c34c1ed,,,,OpenStreetMap,2018-03-12T05:13:20.000Z,,jacksonville-florida,True
fc4b9f3f-b6b7-4d48-a212-dc79e582686d,Maxim Staffing Solutions,employment_agencies,"['professional_services', 'health_and_medical']",FL,Jacksonville,32207.0,4811 Beach Blvd,30.298113,-81.617352,meta,2025-06-02T07:00:00.000Z,0.3961437335670464,30faab55-05ae-436a-93c0-a599054cc865,,,,OpenStreetMap,2018-05-14T15:53:18.000Z,,jacksonville-florida,False
28abf479-af4b-45c1-a27b-3208a235e2c1,MAXIM Hair Restoration Charlotte,hair_loss_center,"['beauty_and_spa', 'health_and_medical']",NC,Charlotte,28210.0,10512 Park Rd Ste 111,35.093052,-80.870901,Microsoft,2025-01-24T07:55:33.633Z,0.77,c849816f-a871-44dc-9b78-1f2fdf2585ba,Park Medical Center,commercial,retail,OpenStreetMap,2024-07-28T01:55:53.000Z,,charlotte,False
ae21e469-4dc9-4db5-9f79-07d6c71aa35f,Maxim Tickets,ticket_sales,['arts_and_entertainment'],NC,Charlotte,28210.0,6135 Park South Dr Ste 110,35.1477028,-80.8435893,Microsoft,2013-01-28T21:42:05.827Z,0.77,,,,,,,,charlotte,False
f964484e-fdae-4ecd-8609-07e56b4324de,Maxim Car,car_dealer,['used_car_dealer'],NC,Charlotte,28227.0,2124 Crown Centre Dr,35.1450222,-80.7339424,meta,2025-06-02T07:00:00.000Z,0.9459263554653524,5ecebd84-1eec-47e0-a0a6-b56df3420925,,,,OpenStreetMap,2023-01-10T18:53:24.000Z,,charlotte,False
1fb4f5fa-4b22-4d5c-bb93-f4e7ba46dba0,"Maxim J. McKibben, MD",urologist,"['doctor', 'health_and_medical']",NC,Charlotte,28204.0,1225 Harding Pl Ste 3100,35.2096522,-80.8391142,Microsoft,2025-04-05T20:06:02.040Z,0.77,,,,,,,,charlotte,False
863690f1-52eb-4460-8214-49b2902078cb,"Maxim J. McKibben, MD",urologist,"['doctor', 'health_and_medical']",NC,Charlotte,28204.0,1225 Harding Pl Ste 3100,35.209789,-80.8389466,Microsoft,2025-05-05T06:30:47.750Z,0.77,ab723a1b-ecbc-4e5d-8a2f-64747966228b,Kenilworth Medical Plaza I,,,OpenStreetMap,2021-04-14T18:45:00.000Z,,charlotte,False
98ff046c-4236-479c-b089-fa773ec589b6,"Maxim Healthcare Services Charlotte, NC Regional Office",home_health_care,"['hospital', 'health_and_medical']",NC,Charlotte,28204.0,1300 Baxter St,35.2104888,-80.8355251,meta,2025-06-02T07:00:00.000Z,0.9784508333782836,953b9a77-4152-4320-8e10-1be8661c5034,,,,OpenStreetMap,2023-10-09T18:08:50.000Z,,charlotte,True
6bf8b376-7bb8-4659-aacb-d7123ac6bc28,"Maxim Healthcare Services Oxnard, CA Regional Office",health_and_medical,,CA,Oxnard,93036.0,300 E Esplanade Dr Ste 1500,34.228334,-119.17445,Microsoft,2025-05-10T08:27:40.680Z,0.77,22680b58-9b2f-481d-ac61-9d3029c7d080,,commercial,commercial,OpenStreetMap,2022-05-14T00:57:49.000Z,,oxnard,True
9b1fb6ba-4b9f-40a2-af2f-f8af31bbf10f,Maxim Healthcare,home_health_care,"['health_and_medical', 'hospital']",CA,Oxnard,93036.0,500 E Esplanade Dr,34.22895,-119.17221,meta,2025-06-02T07:00:00.000Z,0.4929396662387676,653ce51d-dce0-408c-84aa-933ad1ecde7f,,commercial,commercial,OpenStreetMap,2022-05-14T00:57:49.000Z,,oxnard,False
a170df01-f55d-4301-86a7-5c7c792bdec7,"Maxim Healthcare Services Greensboro, NC Regional Office",home_health_care,"['hospital', 'nurse_practitioner']",NC,Greensboro,27409.0,200 Centreport Dr,36.0840951,-79.9623353,meta,2025-06-02T07:00:00.000Z,0.9784508333782836,645b35d1-a4f5-4265-89e7-63edbddc6235,,,,OpenStreetMap,2015-01-21T03:43:28.000Z,,greensboro,True
5f87edf6-ba6a-4425-9e1b-6f106e9e624a,Maxim Healthcare Services,health_and_medical,"['doctor', 'hospital']",NC,Greensboro,27407.0,4411 W Market St,36.06833,-79.85653,meta,2025-06-02T07:00:00.000Z,0.4929396662387676,5803b83c-f896-4243-8eba-e366d8aabfe6,,,,OpenStreetMap,2020-11-27T01:20:06.000Z,,greensboro,False
fb9bb7d9-6f91-400e-9ada-c13b616e4fec,Maxim's Landscape and Snow Removal,landscaping,"['professional_services', 'home_improvement_store']",MN,Minneapolis,55426.0,6857 Oxford St,44.9332318,-93.3665689,meta,2025-06-02T07:00:00.000Z,0.672566371681416,da8ca92f-58c8-4418-877b-128e5c8189b7,,industrial,industrial,OpenStreetMap,2022-03-22T00:36:52.000Z,,minneapolis,False
65b52883-7818-4df6-a773-2c959be4218d,Maxim Healthcare,home_health_care,"['hospital', 'medical_service_organizations']",MN,Golden Valley,55426.0,8421 Wayzata Blvd,44.9722955,-93.3871274,meta,2025-06-02T07:00:00.000Z,0.9297091412742382,3be5e34d-1bc8-4ada-a355-e7080c4b4b82,,commercial,office,OpenStreetMap,2023-08-22T01:06:45.000Z,,minneapolis,False
e600adf9-56cd-4c00-a1f5-87d544d67a32,Maxim Antiperspirant,cosmetic_and_beauty_supplies,"['wholesale_store', 'beauty_and_spa']",,,55110.0,5000 Township Pkwy,45.0922697,-93.0452468,meta,2025-06-02T07:00:00.000Z,0.8540983606557377,9e10323b-a0b8-4b5c-8e1a-954a9ea88087,,,,Microsoft ML Buildings,2023-09-13T00:00:00.000Z,0.9997000098228456,minneapolis,False
10436a9f-a475-43d3-abcb-42bfdcc36718,Maxim Consulting,professional_services,['software_development'],OK,Oklahoma City,73132.0,5909 Northwest Expy,35.5514494,-97.6213477,meta,2025-06-02T07:00:00.000Z,0.9204819277108434,,,,,,,,oklahoma-city,True
c4c6d4e1-0133-4852-bcab-9b2f48d636ef,Maxim Cleaning & Restoration,home_cleaning,"['damage_restoration', 'hvac_services']",NE,La Vista,68128.0,10524 Chandler Rd,41.1827475,-96.0751937,meta,2025-06-02T07:00:00.000Z,0.9459263554653524,,,,,,,,omaha,False
a7541b00-0023-4e5e-ae07-dc8360898e8e,Maxim Cleaning & Restoration Inc,carpet_store,"['damage_restoration', 'air_duct_cleaning_service', 'carpet_cleaning', 'retail']",NE,La Vista,68128.0,10524 Chandler Rd Ste 1,41.183,-96.07531,Microsoft,2018-02-07T23:04:55.760Z,0.77,176d0751-a3cd-4366-9539-3ab03395f0ad,,,,OpenStreetMap,2012-10-06T05:21:40.000Z,,omaha,False
f658017d-eae6-47b6-b092-1b006f65c273,"Maxim Healthcare Services Omaha, NE Regional Office",home_health_care,"['hospital', 'health_and_medical']",NE,Omaha,68124.0,9239 W Center Rd,41.2328743,-96.0570481,meta,2025-06-02T07:00:00.000Z,0.9784508333782836,f42363e8-8ca0-45ce-94d9-321bf153afac,,,,Esri Community Maps,2024-10-15T00:00:00.000Z,,omaha,True
9c9f42b0-d2b4-4458-8697-99cf21bb539f,Maxim Realty Group,property_management,"['real_estate', 'real_estate_agent']",NE,Omaha,68105.0,1910 S 44th St,41.2405461,-95.9784116,meta,2025-06-02T07:00:00.000Z,0.9459263554653524,8f08c3de-5153-4b39-a0f1-129349b9131a,,,,OpenStreetMap,2016-03-29T00:25:47.000Z,,omaha,False
4f69b0eb-2ebe-448d-ba41-bd1b294d5431,"Maxim Healthcare Services Miami, FL Regional Office",home_health_care,"['health_and_medical', 'health_department']",FL,Doral,33122.0,8400 NW 33rd St,25.8044655,-80.3338273,meta,2025-06-02T07:00:00.000Z,0.9784508333782836,,,,,,,,miami,True
ac79e677-5848-4e2a-9400-0c193806f6ad,Maxim batteries,automotive_dealer,['automotive_repair'],FL,Hollywood,33023.0,5815 Dewey St,26.00203,-80.20371,meta,2025-06-02T07:00:00.000Z,0.4929396662387676,4db92f01-5a4d-4238-8855-ef0c3e01d175,,,,OpenStreetMap,2017-09-29T13:26:23.000Z,,miami,False
ac79e677-5848-4e2a-9400-0c193806f6ad,Maxim batteries,automotive_dealer,['automotive_repair'],FL,Hollywood,33023.0,5815 Dewey St,26.00203,-80.20371,meta,2025-06-02T07:00:00.000Z,0.4929396662387676,6f74f7f6-d344-48f5-b4cb-dc3a480068ca,,,,OpenStreetMap,2017-09-29T13:26:23.000Z,,miami,False
63be81c8-fe5a-4080-bf91-81a21b6faa5e,Maxim Sadik Photography,photo_booth_rental,"['wedding_planning', 'bridal_shop', 'retail']",FL,Hollywood,33024.0,1631 N 74th Ter,26.023820881909785,-80.2365449549888,Microsoft,2017-09-07T02:13:02.770Z,0.77,1e3b222b-d2e4-47ba-8da2-aa2af8ab81bc,,,,OpenStreetMap,2023-07-10T21:39:52.000Z,,miami,False
5e220fd7-069f-44b7-bc74-cdfe98116bad,"MAXIM Hair Restoration & Transplants - Hollywood, FL",hair_loss_center,"['hair_removal', 'beauty_and_spa']",FL,Hollywood,33020.0,2205 Hollywood Blvd #B,26.011591,-80.151278,Microsoft,2024-03-07T08:02:54.447Z,0.77,0b0cdfd6-ac53-420a-9443-18a1e2e954e4,,,,OpenStreetMap,2020-04-05T19:59:38.000Z,,miami,False
8be4e82e-6a2e-4b8c-8a68-d426cfec2146,Maxim Healthcare Services,hospital,"['health_and_medical', 'financial_service']",FL,Fort Lauderdale,33309.0,100 NW 62nd St,26.200417,-80.150093,meta,2025-06-02T07:00:00.000Z,0.296943231441048,dbb463a7-2b09-41f9-a997-caf7af5a632e,,,,OpenStreetMap,2015-12-06T18:28:51.000Z,,miami,False
3ea8b1a9-9ce1-498c-8ca5-c154c0474c18,"Maxim Healthcare Services Fort Lauderdale, FL Regional Office",home_health_care,"['health_department', 'nurse_practitioner']",FL,Fort Lauderdale,33309.0,6301 NW 5th Way,26.2055774,-80.151325,meta,2025-06-02T07:00:00.000Z,0.9459263554653524,33909caf-8c23-43d5-a015-0d129209b61a,,,,OpenStreetMap,2015-12-17T19:02:18.000Z,,miami,True
57f913c7-41e1-4d43-9e30-598c3f5c0a5e,MAXIM Hair Restoration Boca Raton,hair_loss_center,"['beauty_and_spa', 'health_and_medical']",FL,Boca Raton,33431.0,5550 Glades Rd Ste 210,26.36697,-80.130428,Microsoft,2025-01-24T07:55:31.070Z,0.77,550e54c3-1cf1-43f6-b457-c1d78bb354c4,,,,OpenStreetMap,2022-01-23T23:52:21.000Z,,miami,False
850a4d7a-73ef-4492-b661-5a87243ef674,"Maxim Healthcare Services West Palm Beach, FL Regional Office",home_health_care,"['health_and_medical', 'hospital']",FL,Boynton Beach,33426.0,1301 N Congress Ave,26.5381733,-80.0915901,meta,2025-06-02T07:00:00.000Z,0.9415384615384615,a24ddeae-686c-4111-b51d-0ed548820fec,Congress Executive Center,commercial,commercial,OpenStreetMap,2025-02-12T22:30:33.000Z,,miami,True
9277972c-b63d-4de5-b5ec-5403fff0b326,Maxim Healthcare,hospital,"['health_and_medical', 'pharmacy']",FL,Sarasota,34233.0,5763 Rosin Way,27.270176,-82.466343,meta,2025-06-02T07:00:00.000Z,0.296943231441048,5950cda7-8681-4d83-af45-312724a4e3bf,,,,OpenStreetMap,2021-06-22T20:23:35.000Z,,sarasota-bradenton,False
afa669b9-8910-4121-b0a5-47ece8bd8ac5,MAXIM Hair Restoration & Transplants - Sarasota,hair_loss_center,"['beauty_and_spa', 'health_and_medical']",FL,Sarasota,34240.0,"5566 Broadcast Ct, Maxim",27.378433,-82.420365,Microsoft,2023-02-02T09:51:15.350Z,0.77,ec4f20d4-ab06-442b-b820-13d90ca38acb,,,,OpenStreetMap,2021-01-11T01:10:22.000Z,,sarasota-bradenton,False
d0e5c0bd-9816-43b9-b612-a30cfdde144b,Maxim Salon,hair_salon,"['beauty_salon', 'beauty_and_spa']",FL,Tampa,33609.0,4341 W Kennedy Blvd,27.9450605,-82.5174615,meta,2025-06-02T07:00:00.000Z,0.9784508333782836,a494d6f4-9ebe-46cb-85f2-568bf786a219,,,,OpenStreetMap,2017-09-13T07:24:50.000Z,,tampa,False
d0e5c0bd-9816-43b9-b612-a30cfdde144b,Maxim Salon,hair_salon,"['beauty_salon', 'beauty_and_spa']",FL,Tampa,33609.0,4341 W Kennedy Blvd,27.9450605,-82.5174615,meta,2025-06-02T07:00:00.000Z,0.9784508333782836,f22f8463-432b-42b1-840f-61e8600317f1,,,,OpenStreetMap,2017-09-13T07:24:50.000Z,,tampa,False
e3c76299-f350-4355-93f1-39cb60db4dc2,Maxim Lighting,lighting_store,,FL,Tampa,33629.0,1711 S Dale Mabry Hwy,27.92776,-82.50674,meta,2025-06-02T07:00:00.000Z,0.3376623376623376,887a67cd-1e27-4d07-ab11-6384ff8d3d3a,,,,OpenStreetMap,2022-01-11T21:27:43.000Z,,tampa,False
0ca0a22c-fe40-43e5-bca5-9332a49bd604,Maxim Insurance Group,insurance_agency,,FL,Riverview,33578.0,11252 Winthrop Main St,27.8922282,-82.3159463,meta,2025-06-02T07:00:00.000Z,0.9300613496932516,e9d47c44-2954-419c-8d10-23f161c4bc56,The Times Building,commercial,office,OpenStreetMap,2018-02-13T04:45:27.000Z,,tampa,False
84878ce2-ad86-4267-987f-412f710bd89e,Maxim Hair Restoration & Transplants - Tampa,health_and_medical,,FL,Tampa,33607.0,2202 N Westshore Blvd Ste 200-M,27.9597805,-82.5242,Microsoft,2025-05-14T23:20:55.233Z,0.77,,,,,,,,tampa,False
7b2bf6f9-acb9-4b60-8815-4a2508a77149,"Maxim Healthcare Services Tampa, FL Regional Office",home_health_care,"['hospital', 'health_department']",FL,Tampa,33607.0,3109 W Dr Martin Luther King Jr Blvd,27.9830277,-82.4958819,meta,2025-06-02T07:00:00.000Z,0.9784508333782836,abdda656-cde4-41c0-8ce5-b3332b35af9a,,commercial,commercial,OpenStreetMap,2017-09-08T20:59:08.000Z,,tampa,True
c04a22b6-9062-46e2-9b26-198d7a08a367,"Maxim Healthcare Services Tampa, FL Regional Office",software_development,,FL,Tampa,33607.0,"3109 W . Martin Luther King Jr. Blvd., Suites 500 and 501",27.9815813,-82.4680405,Microsoft,2025-05-10T08:27:00.180Z,0.77,,,,,,,,tampa,True
c08b7542-e767-4f04-a488-f45236a4aa30,Maxim Eyes Optical Inc,eyewear_and_optician,['optometrist'],FL,Valrico,33594.0,2615 E State Road 60,27.9373699,-82.2412976,meta,2025-06-02T07:00:00.000Z,0.9784508333782836,2e54307d-a9de-4713-9390-6d140f850647,,commercial,commercial,OpenStreetMap,2021-05-08T20:06:51.000Z,,tampa,False
4d8146d1-4e38-48dc-8c6d-d073836b9355,"Maxim Healthcare Services Emeryville, CA Regional Office",home_health_care,"['health_department', 'nurse_practitioner']",CA,Emeryville,94608.0,2000 Powell St,37.8380721,-122.3006132,meta,2025-06-02T07:00:00.000Z,0.9415384615384615,d6967e4a-afa7-4ef6-bb33-dc92e274bb3e,Watergate Tower 3,,,OpenStreetMap,2022-12-11T23:45:22.000Z,,oakland,True
b4a761cb-aca1-4b8d-8cf0-a1ceb2633a34,"Maxim Healthcare Services Tacoma, WA Regional Office",home_health_care,"['hospital', 'health_and_medical']",WA,Tacoma,98402.0,950 Broadway,47.2535579,-122.4405433,meta,2025-06-02T07:00:00.000Z,0.9784508333782836,fd59a508-dd06-450b-ad61-3c8f2e6660c0,Tacoma Rhodes Center,,,OpenStreetMap,2018-05-31T08:41:02.000Z,,seattle,True
3073933b-bdc8-43c9-822e-eb3328810779,Law Offices of Maxim Lissak,real_estate_law,"['professional_services', 'legal_services']",WA,Bellevue,98004.0,400 112th Ave NE,47.6142722,-122.1901698,meta,2025-06-02T07:00:00.000Z,0.9415384615384615,1c2b4420-7366-4613-bc3b-39e5fdbf1ed7,,,,OpenStreetMap,2021-05-21T00:19:38.000Z,,seattle,False
52a121ae-04c9-4f21-8578-018e7deabcc6,Maxim Healthcare Services,employment_agencies,['home_health_care'],WA,Mountlake Terrace,98043.0,24120 Van Ry Blvd,47.779983,-122.315017,meta,2025-06-02T07:00:00.000Z,0.3961437335670464,7d12902d-1235-4579-ad9e-18b0f654f3cd,Umpqua Bank Home Lending,,,OpenStreetMap,2023-06-05T02:18:44.000Z,,seattle,False
4e29bd4e-0591-4c13-84df-6e9c731fe519,"Maxim Healthcare Services Seattle, WA Regional Office",home_health_care,"['nurse_practitioner', 'health_department']",WA,Mountlake Terrace,98043.0,6100 219th St SW,47.8002619,-122.316639,meta,2025-06-02T07:00:00.000Z,0.9415384615384615,b3ce4ef0-a705-4ed5-9a80-7d91d9f28ec6,,,,OpenStreetMap,2017-12-12T16:35:28.000Z,,seattle,True
18cddb73-289d-4098-9c30-db46ce724a39,"Maxim Healthcare Services Dallas, TX Regional Office",home_health_care,"['personal_care_service', 'health_and_medical']",TX,Dallas,75244.0,"5001 LBJ Freeway, Ste 350",32.928156,-96.823101,Microsoft,2025-05-10T08:27:42.017Z,0.77,7e3b3faa-ac62-45be-8946-052e3f7f3149,,commercial,office,OpenStreetMap,2018-11-18T19:51:34.000Z,,denton-lewisville,True
5fb1cb35-c8d7-4638-ac1b-cddb400a25e0,Sara Stuckly - Maxim Advanced Practitioners,health_and_medical,"['professional_services', 'retirement_home']",TX,Dallas,75244.0,5001 Lyndon B Johnson Fwy,32.92837,-96.82314,meta,2025-06-02T07:00:00.000Z,0.296943231441048,,,,,,,,denton-lewisville,False
1aa43c30-bc9b-4b77-9be5-3dbd77745f5e,Maxim Integrated Products,industrial_equipment,"['software_development', 'computer_store']",TX,Dallas,75244.0,4401 Beltwood Pkwy S,32.948814,-96.83507,meta,2025-06-02T07:00:00.000Z,0.296943231441048,bd3cd537-50e4-4532-b729-54943c9a6ac8,,commercial,commercial,OpenStreetMap,2025-04-12T18:14:47.000Z,,denton-lewisville,True
f0a01c18-3616-4101-8237-94f1dddb09eb,Maxim Medical Supplies,medical_supply,"['pharmacy', 'hospital']",TX,Dallas,75252.0,18800 Preston Rd,33.0058524,-96.7946489,meta,2025-06-02T07:00:00.000Z,0.8860580325548478,99dcd090-e97d-4018-af38-5925203dd0e0,,commercial,commercial,OpenStreetMap,2020-12-18T05:40:26.000Z,,denton-lewisville,False
20b18bc4-af43-4b23-b2b1-bc1dcfb7072a,Your Las Vegas Real Estate Resource - Max Viorel Maxim,real_estate_agent,['real_estate'],,,89148.0,5588 S Fort Apache Rd Ste 100,36.0874,-115.29549,meta,2025-06-02T07:00:00.000Z,0.242152466367713,335d0da4-edac-4384-993d-83911d3684c6,,,,OpenStreetMap,2024-01-03T04:09:29.000Z,,las-vegas,False
b8e8fc13-6625-46bc-ab54-327ee37758de,"Maxim Healthcare Services Las Vegas, NV Regional Office",home_health_care,"['health_and_medical', 'nurse_practitioner']",NV,Las Vegas,89169.0,3930 Howard Hughes Pkwy,36.1180588,-115.1565657,meta,2025-06-02T07:00:00.000Z,0.9784508333782836,eb83c36e-54f9-48b6-b451-342831af2239,,,,OpenStreetMap,2019-07-23T16:32:15.000Z,,las-vegas,True
4e0ed70f-808a-4ab4-9575-bede5733591f,MAXIM Realty Las Vegas,property_management,"['real_estate_agent', 'real_estate']",NV,Las Vegas,89146.0,2725 S Jones Blvd,36.1399054,-115.2256121,meta,2025-06-02T07:00:00.000Z,0.9415384615384615,607ca070-06ce-421a-b0d5-884e3fdb0468,,,,OpenStreetMap,2022-05-01T22:12:43.000Z,,las-vegas,False
6711cbe9-f0f1-406c-bbde-61b05555160c,Maxim Healthcare Services,home_health_care,"['personal_care_service', 'health_and_medical']",MI,Grand Rapids,49512.0,5300 Patterson Ave SE Ste 125,42.86727,-85.54614,Microsoft,2018-05-08T12:38:49.367Z,0.77,,,,,,,,grand-rapids,False
fb5782b8-2e2a-4b1a-8b81-54ad31f24898,"Maxim Healthcare Services Grand Rapids, MI Regional Office",home_health_care,"['hospital', 'health_department']",MI,Grand Rapids,49512.0,5300 Patterson Ave SE,42.8679219,-85.5448741,meta,2025-06-02T07:00:00.000Z,0.9784508333782836,62480c7d-ebe0-477e-9e8f-025e450134ed,,,,OpenStreetMap,2019-02-28T16:42:40.000Z,,grand-rapids,True
e7bfdd9f-505d-4182-b08a-dc9381581b79,"Maxim Healthcare Services Merrillville, IN Regional Office",home_health_care,"['hospital', 'health_and_medical']",IN,Schererville,46307.0,5265 Commerce Dr,41.4738234,-87.399424,meta,2025-06-02T07:00:00.000Z,0.9784508333782836,,,,,,,,chicago,True
bbc973ac-4ab9-4c46-8275-29350e9f7f9f,Maxim Power Sports,motorcycle_dealer,"['car_dealer', 'active_life']",IN,Merrillville,46410.0,5901 E Lincoln Hwy,41.4699621,-87.2651576,meta,2025-06-02T07:00:00.000Z,0.9784508333782836,304c8084-a2a0-4adb-8f50-97f754383c9b,,,,Microsoft ML Buildings,2019-08-24T00:00:00.000Z,,chicago,False
69f950b7-652f-4352-aa12-e2f6c8176a38,Maxim Plow Parts,automotive_parts_and_accessories,"['wholesale_store', 'professional_services']",IL,Joliet,60435.0,1000 Essington Rd,41.539927,-88.1601705,meta,2025-06-02T07:00:00.000Z,0.3376623376623376,,,,,,,,chicago,False
69a0113a-0031-4678-9873-2b6bcd9a122d,Maxim Maintenance,cleaning_services,,IL,Orland-Park,60467.0,17183 Ashwood Lane,41.5772631,-87.89821289999999,Microsoft,2025-05-15T21:45:12.373Z,0.77,997ebd4a-d23f-42fc-a2eb-5f7b28ed0bde,,residential,house,OpenStreetMap,2025-01-01T18:17:37.000Z,,chicago,False
af66a50e-cef4-483b-9b94-3bbd3e567b3d,"Maxim Healthcare Services Lombard, IL Regional Office",home_health_care,"['hospital', 'health_and_medical']",IL,Lombard,60148.0,377 E Butterfield Rd,41.8356444,-88.0073935,meta,2025-06-02T07:00:00.000Z,0.9784508333782836,a3bbbdb7-05a5-41d0-9d5c-9aca426e8d2b,,transportation,parking,OpenStreetMap,2021-03-05T13:15:56.000Z,,chicago,True
af66a50e-cef4-483b-9b94-3bbd3e567b3d,"Maxim Healthcare Services Lombard, IL Regional Office",home_health_care,"['hospital', 'health_and_medical']",IL,Lombard,60148.0,377 E Butterfield Rd,41.8356444,-88.0073935,meta,2025-06-02T07:00:00.000Z,0.9784508333782836,0ae2cbe9-29eb-4a45-b3e3-cd7ef240879f,,commercial,office,OpenStreetMap,2013-08-28T06:48:28.000Z,,chicago,True
7880fa3b-96c6-40ed-83bb-bf2504049ada,Maxim Alexis Chasanov MD,psychiatrist,"['doctor', 'health_and_medical']",IL,Elk Grove Village,60007.0,800 Biesterfield Rd 8 Ste. 655,42.003532409668,-88.0166168212891,Microsoft,2019-09-03T11:57:34.107Z,0.77,,,,,,,,chicago,False
692ec9c4-9e6d-4dd4-8584-4296ab381ca5,Maxim Alexis Chasanov MD,psychiatrist,"['doctor', 'health_and_medical']",IL,Elk Grove Village,60007.0,800 Biesterfield Rd 8 Ste. 655,42.0050048828125,-88.015998840332,Microsoft,2021-05-17T06:02:05.343Z,0.77,2a85a022-2bb2-440f-b81f-b6582afaa1fe,,medical,hospital,OpenStreetMap,2024-03-26T16:05:57.000Z,,chicago,False
b7cbdaf3-e333-49ae-b81f-3fa1d3ddf6d4,"Maxim Healthcare Services Chicago, IL Regional Office",home_health_care,"['nurse_practitioner', 'hospital']",IL,Orland Park,60467.0,10811 W 143rd St,41.6293977,-87.8831682,meta,2025-06-02T07:00:00.000Z,0.9784508333782836,3f597a46-88fd-42f5-9ee5-8aa1389f9c3a,,commercial,commercial,OpenStreetMap,2024-06-17T03:41:15.000Z,,chicago,True
934c9e7c-8b8b-45b4-8ed4-63ac8efb81d7,Maxim Nails,nail_salon,"['beauty_and_spa', 'beauty_salon']",IL,Chicago,60616.0,3469 S Dr Martin Luther King Jr Dr,41.8317464,-87.6150218,meta,2025-06-02T07:00:00.000Z,0.9784508333782836,a2b85091-f7ae-4b5f-842d-84814fd2fada,,commercial,retail,OpenStreetMap,2020-11-08T04:53:57.000Z,,chicago,False
29df3c1c-fa58-4f5c-b82b-bec462e61bd2,Maxim's Restaurant & Lounge,sports_bar,"['bar', 'diner', 'greek_restaurant', 'pizza_restaurant', 'restaurant']",IN,Merrillville,46410.0,7205 Broadway,41.486945,-87.335955,Microsoft,2009-06-28T02:31:24.453Z,0.77,,,,,,,,chicago,False
6598f30b-5298-4d89-b972-92d18ec3dac6,Maxim's Restaurant & Lounge,sports_bar,"['bar', 'diner', 'greek_restaurant', 'pizza_restaurant', 'restaurant']",IN,Merrillville,46410.0,7205 Broadway,41.4865496,-87.3354578,Microsoft,2025-05-14T05:27:13.917Z,0.77,414178d8-929b-4adb-82b2-ffd7a5c1fcf5,,,,Microsoft ML Buildings,2019-08-24T00:00:00.000Z,,chicago,False
166c3d7a-4c4e-4d0d-a630-f2f79fd01e2c,Maxim Gym Kickboxing and Fitness,gym,"['active_life', 'martial_arts_club']",IN,Hobart,46342.0,707 N Hobart Rd,41.549084,-87.2388236,meta,2025-06-02T07:00:00.000Z,0.9784508333782836,,,,,,,,chicago,False
a64e5dc8-dbcb-4371-857c-bb903e0ad76a,Maxim's,event_planning,['fast_food_restaurant'],IL,Chicago,60610.0,24 E Goethe St,41.905983,-87.627652,meta,2025-06-02T07:00:00.000Z,0.3961437335670464,48d00c51-db1c-40ec-973f-8dec8fb4a4bb,Astor Tower,residential,apartments,OpenStreetMap,2024-08-23T11:25:23.000Z,,chicago,True
f1c7bb49-da9e-41c7-83fe-a82de49118cf,Maxim Cosmetic Surgery,plastic_surgeon,"['doctor', 'naturopathic_holistic']",IL,Chicago,60611.0,680 N Lake Shore Dr,41.8946995,-87.6177335,meta,2025-06-02T07:00:00.000Z,0.8540983606557377,de825d0a-ebb0-48f2-bd80-8fe0091c1c4a,680 North Lake Shore Drive,residential,apartments,OpenStreetMap,2024-11-04T19:04:19.000Z,,chicago,False
1149252d-5128-4ef1-944e-0052611848ff,MAXIM Hair Restoration,hair_replacement,"['beauty_salon', 'hospital']",IL,Chicago,60611.0,680 N Lake Shore Dr,41.8944089,-87.61662,meta,2025-06-02T07:00:00.000Z,0.9297091412742382,de825d0a-ebb0-48f2-bd80-8fe0091c1c4a,680 North Lake Shore Drive,residential,apartments,OpenStreetMap,2024-11-04T19:04:19.000Z,,chicago,False
71497631-bed8-4885-9d8d-753348e09cdc,MAXIM Hair Restoration,hair_loss_center,"['hair_removal', 'beauty_and_spa', 'health_and_medical']",IL,Chicago,60611.0,680 N Lake Shore Dr # 1201,41.8949792,-87.6158019,Microsoft,2020-12-14T21:59:38.610Z,0.77,,,,,,,,chicago,False
cd654da2-745c-4e14-a48b-63a1036005d9,MAXiM Hair Restoration,hair_loss_center,"['hair_removal', 'beauty_and_spa']",IL,Glenview,60025.0,2350 Ravine Way #400,42.098866,-87.8125129,Microsoft,2019-12-20T18:10:57.300Z,0.77,,,,,,,,chicago,False
9f7069fb-4a1c-442e-b500-6b68e840eae8,Maxim Crane Works,contractor,"['rental_service', 'construction_services']",AZ,Phoenix,85043.0,4545 W Van Buren St,33.4510767,-112.158057,meta,2025-06-02T07:00:00.000Z,0.9784508333782836,46e77161-6540-48f8-8f63-70af7970abf8,,,,OpenStreetMap,2021-07-05T05:04:33.000Z,,phoenix,False
237e853a-917e-4e8b-84fe-b3c63d21cc27,Maxim Restaurant,vietnamese_restaurant,"['asian_restaurant', 'restaurant']",AZ,Phoenix,85015.0,3424 N 19th Ave,33.4884358,-112.100499,meta,2025-06-02T07:00:00.000Z,0.296943231441048,90205faa-3087-43c8-9a85-113edfa639af,,commercial,commercial,OpenStreetMap,2022-08-07T20:42:56.000Z,,phoenix,False
6e15c029-e459-460a-82ad-c1a8bb9a1c38,"Maxim Healthcare Services Phoenix, AZ Regional Office",home_health_care,"['personal_care_service', 'health_and_medical']",AZ,Phoenix,85012.0,3300 N Central Ave Ste 2500,33.4869491,-112.0741765,Microsoft,2025-05-10T08:27:07.957Z,0.77,e1d1b978-453c-4c3f-bab4-02463f542bdf,3300 Tower,commercial,office,OpenStreetMap,2021-04-02T01:15:13.000Z,,phoenix,True
efdfc18a-9a68-43ed-a05f-3fa79cd6680a,MAXIM Hair Restoration Phoenix,hair_loss_center,"['beauty_and_spa', 'health_and_medical']",AZ,Phoenix,85016.0,3102 E Indian School Rd,33.495371,-112.016012,Microsoft,2025-01-24T07:55:28.640Z,0.77,91f8a726-8cde-49e6-956d-26663475bb9f,,,,OpenStreetMap,2024-05-21T21:10:19.000Z,,phoenix,False
ac9b4427-81e1-4cd6-880f-054f6d16c616,"Maxim Healthcare Services San Antonio, TX Regional Office",home_health_care,"['hospital', 'health_department']",TX,San Antonio,78229.0,7550 W I-10,29.504081,-98.5513902,meta,2025-06-02T07:00:00.000Z,0.9459263554653524,e4ce4a28-b3a4-4b4b-b934-077d661e1691,Northwest Center,commercial,office,OpenStreetMap,2019-11-16T21:34:33.000Z,,san-antonio,True
7390e44d-21d2-4811-95de-bab48d5a6888,MAXIM Hair Restoration & Transplants - San Antonio,hair_loss_center,"['beauty_and_spa', 'health_and_medical']",TX,San Antonio,78231.0,"10003 NW Military Hwy., Ste 2205",29.554118,-98.535712,Microsoft,2025-01-24T07:55:36.420Z,0.77,,,,,,,,san-antonio,False
d919338a-883f-4e42-a985-87ca54e7280a,"Maxim Healthcare Services Pensacola, FL Regional Office",home_health_care,"['hospital', 'health_and_medical']",FL,Pensacola,32503.0,85 W Airport Blvd,30.4743612,-87.2479356,meta,2025-06-02T07:00:00.000Z,0.9415384615384615,,,,,,,,pensacola,True
bc6789cb-57f6-492f-9e00-dd380bd29d19,"Maxim Healthcare Services Pensacola, FL Regional Office",home_health_care,"['personal_care_service', 'health_and_medical']",FL,Pensacola,32503.0,85 W Airport Blvd Ste 5,30.474947,-87.246078,Microsoft,2025-05-10T08:27:18.917Z,0.77,9af5e463-baf9-409c-a886-804a9625e7b7,,,,Microsoft ML Buildings,2022-03-26T00:00:00.000Z,,pensacola,True
70b3a95c-7867-4596-95ba-7bae87a7ca11,Maxim Healthcare Services-Pensacola Home Care,home_health_care,['health_and_medical'],FL,Pensacola,32503.0,4900 Bayou Blvd,30.47018,-87.20612,meta,2025-06-02T07:00:00.000Z,0.3376623376623376,9fe24f80-6301-4e1b-865b-cb48582098ba,,,,OpenStreetMap,2015-06-15T16:45:00.000Z,,pensacola,False
2ffc929e-cb1b-452e-912d-acbb564cb969,Maxim Crane Works,contractor,"['industrial_equipment', 'industrial_company']",KY,Wilder,41076.0,840 Licking Pike,39.0335,-84.4839236,meta,2025-06-02T07:00:00.000Z,0.9784508333782836,56515045-1c33-4ee1-9fe8-7d00690afac5,,,,OpenStreetMap,2011-04-14T09:05:40.000Z,,cincinnati,False
53c61ab0-f323-4fff-911f-7a2629e4eceb,Maxim Crane Works,industrial_equipment,"['b2b_machinery_and_tools', 'hydraulic_equipment_supplier', 'crane_services', 'business_equipment_and_supply', 'business_to_business']",KY,Wilder,41076.0,840 Licking Pike,39.03747,-84.48261,Microsoft,2019-03-06T22:49:14.817Z,0.77,,,,,,,,cincinnati,False
287b832c-c92b-4a48-b126-85fc62a82be0,"Maxim Healthcare Services Cincinnati, OH Regional Office",home_health_care,"['health_department', 'nurse_practitioner']",OH,Blue Ash,45242.0,4600 McAuley Pl,39.2450061,-84.3799303,meta,2025-06-02T07:00:00.000Z,0.9784508333782836,dcc7561a-da93-4a4f-83ea-f1b0beaa74d9,,,,OpenStreetMap,2019-05-21T09:16:43.000Z,,cincinnati,True
a3112d18-b6c0-4b1a-86ec-21362f299ed6,"Maxim Healthcare Services Cincinnati, OH Regional Office",home_health_care,"['doctor', 'personal_care_service', 'health_and_medical']",OH,Cincinnati,45242.0,4600 McAuley Pl Ste 300,39.245053,-84.379892,Microsoft,2025-05-10T08:27:15.087Z,0.77,dcc7561a-da93-4a4f-83ea-f1b0beaa74d9,,,,OpenStreetMap,2019-05-21T09:16:43.000Z,,cincinnati,True
cb07c361-9ab6-47db-8dee-b7f85bfb90a1,MAXIM Hair Restoration and Transplants,hair_replacement,['beauty_salon'],VA,Alexandria,22312.0,5250 Cherokee Ave,38.8076884,-77.1602701,meta,2025-06-02T07:00:00.000Z,0.9459263554653524,5fd4a660-ae67-40ca-b551-4c7a65e0310d,,,,OpenStreetMap,2022-09-16T06:39:00.000Z,,washington-dc,False
e62b531f-05c7-40e2-9780-10fd06924cac,MAXIM ReGen,medical_center,['health_and_medical'],VA,Alexandria,22312.0,5250 Cherokee Ave Ste 300B,38.807728,-77.160191,Microsoft,2025-01-23T13:11:18.460Z,0.77,5fd4a660-ae67-40ca-b551-4c7a65e0310d,,,,OpenStreetMap,2022-09-16T06:39:00.000Z,,washington-dc,False
9c28f638-adb8-424d-9a3b-c17f364de6d2,MAXIM Facial Aesthetics,health_and_medical,,VA,Alexandria,22312.0,5250 Cherokee Ave Ste 301,38.807728,-77.160191,Microsoft,2025-01-23T13:11:26.797Z,0.77,5fd4a660-ae67-40ca-b551-4c7a65e0310d,,,,OpenStreetMap,2022-09-16T06:39:00.000Z,,washington-dc,False
332cfc7e-e221-4298-a978-6983b352dd96,MAXIM COSMETIC SURGERY,health_and_medical,,VA,Alexandria,22312.0,5250 Cherokee Ave Ste 301,38.807728,-77.160191,Microsoft,2025-01-23T13:11:46.780Z,0.77,5fd4a660-ae67-40ca-b551-4c7a65e0310d,,,,OpenStreetMap,2022-09-16T06:39:00.000Z,,washington-dc,False
6978a94c-458b-4f4e-89ac-7e873346de8d,Maxim hair salon,beauty_salon,"['beauty_and_spa', 'barber']",VA,Vienna,22180.0,139 Park St SE,38.90213,-77.26178,meta,2025-06-02T07:00:00.000Z,0.3961437335670464,5de1e9d6-8848-464a-bad4-2fc3267dd204,,commercial,retail,OpenStreetMap,2018-04-30T23:23:32.000Z,,washington-dc,False
3a3efe4b-dcd2-47ab-84c1-a7cd71066efa,"Maxim Healthcare Services Arlington, VA Regional Office",home_health_care,"['hospital', 'health_department']",VA,Vienna,22180.0,2600 Park Tower Dr,38.8829552,-77.2258751,meta,2025-06-02T07:00:00.000Z,0.9784508333782836,1e334586-72dd-4394-922f-07dcfff25183,,commercial,commercial,OpenStreetMap,2025-03-15T12:26:29.000Z,,washington-dc,True
2224dd46-384a-4184-8ff7-e009072c9b3f,US Maxim Nail Supply Outlet,cosmetic_and_beauty_supplies,"['beauty_product_supplier', 'shopping']",VA,Falls Church,22042.0,6533 Arlington Blvd,38.8702959,-77.1683105,meta,2025-06-02T07:00:00.000Z,0.9879256218304756,0478174c-f226-4713-bfa2-f9807e749513,South Cherry Plaza,,,OpenStreetMap,2018-12-25T21:44:29.000Z,,washington-dc,False
7d443d84-fb05-4101-9c7a-5cabbb2e0894,"Maxim Healthcare Services Arlington, VA Regional Office",home_health_care,"['personal_care_service', 'health_and_medical']",VA,Vienna,22180.0,2600 Park Tower Dr Ste 200,38.9078007,-77.2080912,Microsoft,2025-05-10T08:26:41.097Z,0.77,79938013-7bcd-4bb6-ac1c-9c3b9be613b6,,,,OpenStreetMap,2022-09-19T20:46:43.000Z,,washington-dc,True
9d77ebd2-b8b2-4ac3-94a4-229055e9a766,Maxim Wholesale Inc,beauty_salon,"['cosmetic_and_beauty_supplies', 'shopping']",VA,Falls Church,22044.0,6795 Wilson Blvd,38.8728173,-77.1528265,meta,2025-06-02T07:00:00.000Z,0.4929396662387676,df015f74-b7b7-4fa5-bcab-8ab1243d6307,,commercial,retail,OpenStreetMap,2023-12-27T00:36:03.000Z,,washington-dc,False
ffd026b9-d0b4-4739-a711-c02205d82eb6,Maxim Healthcare Svc,medical_center,['health_and_medical'],MD,Silver Spring,20910.0,9525 Georgia Ave Ste 101,39.011318,-77.041201,Microsoft,2013-01-28T00:11:37.297Z,0.77,,,,,,,,washington-dc,False
173b41dd-85f3-42e5-9b8d-9cec4bff88a4,"Maxim Healthcare Services Silver Spring, MD Regional Office",home_health_care,['medical_supply'],MD,Greenbelt,20770.0,7500 Greenway Center Dr,38.992071,-76.8814612,meta,2025-06-02T07:00:00.000Z,0.9204819277108434,7fd209a3-dfe8-4ec4-bf85-925f5c2039a9,,,,OpenStreetMap,2011-02-17T05:05:39.000Z,,washington-dc,True
22d257d3-5167-4121-8591-8a91c00c4ed2,Maxim Allied Health,employment_agencies,,MD,Columbia,21046.0,7227 Lee Deforest Dr,39.172262,-76.820664,meta,2025-06-02T07:00:00.000Z,0.296943231441048,f3368c8b-f0e7-4f47-bb8b-62afe427c3e1,,,,OpenStreetMap,2021-11-09T08:52:35.000Z,,washington-dc,False
79cbbc0d-db39-4bba-ac53-2fd96b5fb6a9,"Maxim Healthcare Services Columbia, MD Headquarters",home_health_care,"['medical_center', 'personal_care_service', 'health_and_medical']",MD,Columbia,21046.0,7227 Lee Deforest Dr,39.1722819,-76.8206509,Microsoft,2025-05-10T08:27:31.903Z,0.77,f3368c8b-f0e7-4f47-bb8b-62afe427c3e1,,,,OpenStreetMap,2021-11-09T08:52:35.000Z,,washington-dc,True
1dbddcca-01bf-4faf-b606-9b4d8d5d72cd,Maxim Greceannii CRNP,laboratory_testing,"['doctor', 'nurse_practitioner', 'health_and_medical']",MD,Columbia,21045.0,7130 Minstrel Way Ste 120,39.17967,-76.84639,Microsoft,2025-05-24T07:19:45.780Z,0.77,89349851-5ac6-47d3-b6da-3ced3bc8f655,Waterview Office Center,,,OpenStreetMap,2014-01-01T21:47:19.000Z,,washington-dc,False
cf182a49-50f3-40f3-856f-305a00669493,Maxim Crane Works,industrial_equipment,"['travel', 'automotive_repair']",MD,Jessup,20794.0,8635 Old Dorsey Run Rd,39.1324398,-76.7963007,meta,2025-06-02T07:00:00.000Z,0.9784508333782836,21656909-2111-4427-b4b0-65665dd78d4b,Maxim Crane Works,industrial,industrial,OpenStreetMap,2023-12-09T15:27:18.000Z,,washington-dc,False
723f733f-3314-4d0b-b80b-08028a6f165e,Maxim Healthcare Services,hospital,"['health_and_medical', 'pharmacy']",MD,Columbia,21046.0,6992 Columbia Gateway Dr,39.17824,-76.80306,meta,2025-06-02T07:00:00.000Z,0.4929396662387676,375bfcf0-4859-46b3-b440-4de55ba8ab50,,commercial,office,OpenStreetMap,2023-01-03T03:00:58.000Z,,washington-dc,False
f127314d-2f53-47d1-981c-8547275c7e25,Maxim Beauty Supply Salon & Eyebrow Threading,beauty_salon,"['beauty_and_spa', 'cosmetic_and_beauty_supplies']",CA,Mira Loma,91752.0,12411 Limonite Ave,33.976781,-117.5528461,meta,2025-06-02T07:00:00.000Z,0.9784508333782836,a9db7b09-c579-40ce-a390-74f35f0fe005,,,,OpenStreetMap,2021-05-04T18:44:15.000Z,,riverside-san-bernardino,False
f8088d01-f082-4b80-8c67-ef190ff5b2dc,Maxim beauty supply,beauty_salon,"['beauty_and_spa', 'cosmetic_and_beauty_supplies']",CA,Rancho Cucamonga,91737.0,6331 Haven Ave,34.1392665,-117.5746948,meta,2025-06-02T07:00:00.000Z,0.9297091412742382,45571d0d-834b-4615-9266-bccda5b0ad02,,,,OpenStreetMap,2021-03-03T21:10:49.000Z,,riverside-san-bernardino,False
b22e956d-6969-4443-a0c4-b7f2540000c7,Maxim Healthcare Services,hospital,"['health_and_medical', 'pharmacy']",CA,Riverside,92501.0,4240 Latham St,34.0013434,-117.3733593,meta,2025-06-02T07:00:00.000Z,0.909823677581864,960b891e-3742-421a-a8c0-c577a29b5c7d,,commercial,commercial,OpenStreetMap,2023-01-21T20:23:19.000Z,,riverside-san-bernardino,False
fb9fbb77-ebd2-4714-bdff-4f138574a435,"Maxim Healthcare Services San Bernardino, CA Regional Office",home_health_care,"['hospital', 'health_department']",CA,San Bernardino,92408.0,560 E Hospitality Ln,34.0679265,-117.2733415,meta,2025-06-02T07:00:00.000Z,0.9784508333782836,5a750f60-fabc-4dca-9ebf-6848af4fb674,,,,OpenStreetMap,2015-08-09T22:04:52.000Z,,riverside-san-bernardino,True
904251d2-4449-4c4d-809c-ae691b6fbbfb,Maxim Auto Trade,used_car_dealer,"['car_dealer', 'professional_services']",CA,Huntington Beach,92647.0,17301 Beach Blvd,33.711008,-117.989958,meta,2025-06-02T07:00:00.000Z,0.9784508333782836,320d26ce-146a-4210-9395-eba56c6648d6,,,,OpenStreetMap,2021-06-01T15:19:57.000Z,,los-angeles,False
b640b714-34de-4741-a230-8d7c68821abe,Maxim Karaoke,karaoke,"['bar', 'music_and_dvd_store']",CA,Westminster,92683.0,15358 Beach Blvd,33.7395133,-117.9882809,meta,2025-06-02T07:00:00.000Z,0.9879256218304756,717c823a-e7de-4f9b-9a30-2ba0ad5c0bbe,,,,OpenStreetMap,2014-10-24T14:32:28.000Z,,los-angeles,False
92804431-9e1f-4abe-a70d-bae20e4c2c84,Maxim B,fashion_accessories_store,"['eyewear_and_optician', 'boutique']",CA,Westminster,92683.0,9200 Bolsa Ave,33.743091,-117.9685748,meta,2025-06-02T07:00:00.000Z,0.9300613496932516,79386b6b-6ad8-4ea7-92b9-1519c417c586,Phước Lộc Thọ;Asian Garden Mall,commercial,retail,OpenStreetMap,2017-03-27T09:47:41.000Z,,los-angeles,False
3462def2-67c2-47fc-8211-e897fe279a17,MAXiM Hair Restoration,hair_replacement,['beauty_salon'],CA,Newport Beach,92660.0,280 Newport Center Dr,33.6103913,-117.8727237,meta,2025-06-02T07:00:00.000Z,0.9415384615384615,ba7e3d96-7b1e-4a50-b812-a151444f7ad6,,,,OpenStreetMap,2021-06-11T21:12:57.000Z,,los-angeles,False
46d267fe-ded5-476e-bcb6-19b8eb785656,MAXIM ReGen,medical_center,['health_and_medical'],CA,Newport Beach,92660.0,280 Newport Center Dr Ste 110,33.61287,-117.874008,Microsoft,2022-12-01T19:55:02.940Z,0.77,,,,,,,,los-angeles,False
c1925f00-3032-48a5-b817-7e3ff3d757f6,Maxim Hotel Brokerage,hotel,"['real_estate', 'real_estate_agent']",CA,Newport Beach,92660.0,1303 Avocado Ave,33.6111742,-117.8719964,meta,2025-06-02T07:00:00.000Z,0.9297091412742382,807ffa25-e5e4-4aef-b30f-0ea34849f9c7,,,,OpenStreetMap,2021-06-11T21:12:57.000Z,,los-angeles,False
92b4963f-c52f-4afd-b9eb-3b1924dfbfb7,Maxim Real Estate Group,real_estate,"['property_management', 'real_estate_agent']",CA,Irvine,92614.0,2372 Morse Ave,33.6817887,-117.8493745,meta,2025-06-02T07:00:00.000Z,0.8831168831168831,3e4d1559-1b8e-4e85-9f67-d6b18ba79d32,,commercial,commercial,OpenStreetMap,2023-12-27T19:49:00.000Z,,los-angeles,False
707e5e4c-59fe-45e7-b4a8-01927d8910c9,Maxim Lending,mortgage_broker,['installment_loans'],CA,Laguna Hills,92653.0,23272 Mill Creek Dr,33.624525,-117.735403,meta,2025-06-02T07:00:00.000Z,0.3376623376623376,a2a6149c-290c-4acf-87e9-c99a37cc07ff,,commercial,commercial,OpenStreetMap,2020-09-11T04:33:48.000Z,,los-angeles,False
ad609ed0-09ab-4ffc-abca-63a797a29827,Maxim Healthcare Services,home_health_care,"['personal_care_service', 'health_and_medical']",CA,Laguna Hills,92653.0,23421 S Pointe Dr Ste 200,33.6257171630859,-117.720916748047,Microsoft,2016-12-02T21:57:35.083Z,0.77,b5e7cbfd-1a4f-4c96-ba7c-b7b18711421c,,,,OpenStreetMap,2023-02-02T22:42:34.000Z,,los-angeles,False
3fef48a7-c13b-4a36-969d-c9b744f3c22c,Maxim Senin - Astrophotography,professional_services,['art_gallery'],CA,Redondo Beach,90277.0,500 Avenue G,33.81846,-118.38031,meta,2025-06-02T07:00:00.000Z,0.3313953488372093,,,,,,,,los-angeles,False
e0ef0f15-b69d-4b08-bac1-48c562d9fdc5,Maxim Farm,eat_and_drink,"['wholesale_store', 'restaurant']",CA,Torrance,90505.0,3120 Sepulveda Blvd,33.8236611,-118.3419727,meta,2025-06-02T07:00:00.000Z,0.909823677581864,5dac5ce4-6693-4804-94cf-15cd7d2f0145,,industrial,industrial,OpenStreetMap,2016-09-13T20:00:31.000Z,,los-angeles,False
644a0f57-8545-4d11-bb16-daf2bf1cf918,Maxim Healthcare,home_health_care,"['hospital', 'health_department']",CA,Gardena,90248.0,1515 W 190th St,33.858944,-118.305905,meta,2025-06-02T07:00:00.000Z,0.5662921348314607,,,,,,,,los-angeles,False
16c30fc7-2e29-4ec0-aaef-b55968a725a4,Maxim Crane Works,industrial_equipment,"['industrial_company', 'commercial_industrial']",CA,Long Beach,90806.0,1101 E Spring St,33.8119092,-118.1780597,meta,2025-06-02T07:00:00.000Z,0.9784508333782836,8396b214-97db-4910-87c5-761fb76f81f8,,commercial,commercial,OpenStreetMap,2016-09-08T15:29:56.000Z,,los-angeles,False
427faeec-dea4-4889-bb59-0d10f536ab05,"Maxim Healthcare Services Gardena, CA Regional Office",home_health_care,"['personal_care_service', 'health_and_medical']",CA,Gardena,90248.0,879 W 190th St Ste 1000,33.860135,-118.289211,Microsoft,2025-05-10T08:26:49.600Z,0.77,a835ed01-8bbf-4060-918c-42720a9f39ef,,commercial,commercial,OpenStreetMap,2016-04-02T22:53:30.000Z,,los-angeles,True
503230c4-9349-4c94-853a-df0ff6c15a6b,Maxim Commercial Capital,financial_service,"['installment_loans', 'machine_shop']",CA,Los Angeles,90025.0,11620 Wilshire Blvd,34.05014,-118.4593852,meta,2025-06-02T07:00:00.000Z,0.9459263554653524,cb2cbc3b-409f-4b21-8ea6-91bde21b7f63,,commercial,commercial,OpenStreetMap,2022-10-05T17:41:55.000Z,,los-angeles,False
ebaa10e2-6681-4b70-b559-10bcf0b82606,Maxim Healthcare,home_health_care,"['nurse_practitioner', 'health_and_medical']",CA,Los Angeles,90010.0,3580 Wilshire Blvd,34.0609973,-118.3026894,meta,2025-06-02T07:00:00.000Z,0.9415384615384615,24f2be8f-2deb-4e77-9416-f74f1ae1be3d,Paramount Plaza West,,,OpenStreetMap,2017-04-29T19:23:45.000Z,,los-angeles,False
ebaa10e2-6681-4b70-b559-10bcf0b82606,Maxim Healthcare,home_health_care,"['nurse_practitioner', 'health_and_medical']",CA,Los Angeles,90010.0,3580 Wilshire Blvd,34.0609973,-118.3026894,meta,2025-06-02T07:00:00.000Z,0.9415384615384615,e361068d-3bb8-4aa7-86dc-66ccfe9f53e2,,commercial,commercial,OpenStreetMap,2017-04-29T19:23:50.000Z,,los-angeles,False
f97ac1e9-9201-4751-bc16-af1d17a772e7,Maxim Mattress Inc,furniture_store,['mattress_store'],CA,Cudahy,90201.0,4609 Ardine St,33.9577406,-118.1865495,meta,2025-06-02T07:00:00.000Z,0.9784508333782836,11057610-0107-404d-aaac-c1b3cf84f814,,commercial,warehouse,OpenStreetMap,2016-11-04T17:21:03.000Z,,los-angeles,False
549c0bf0-6dd2-40b2-ab0d-87cce97752e7,Maxim Beauty Supply and Salon,beauty_and_spa,['cosmetic_and_beauty_supplies'],CA,Downey,90240.0,7942 Florence Ave,33.9534565,-118.1310792,meta,2025-06-02T07:00:00.000Z,0.9784508333782836,ee0a8d88-a8fb-4bc2-8064-2dedc127c605,,commercial,retail,OpenStreetMap,2016-10-28T20:20:54.000Z,,los-angeles,False
a5f564d7-010d-4797-ac94-e6dd415a7919,Maxim Healthcare Svc,home_health_care,"['assisted_living_facility', 'personal_care_service', 'health_and_medical']",CA,Los Angeles,90017.0,1055 Wilshire Blvd Ste 1436,34.052185,-118.262977,Microsoft,2013-01-29T02:36:48.250Z,0.77,,,,,,,,los-angeles,False
28926e2e-6fec-44c0-a6ec-5731746dfdcc,"Maxim Healthcare Services Alhambra, CA Regional Office",home_health_care,"['health_department', 'nurse_practitioner']",CA,Alhambra,91803.0,1000 S Fremont Ave,34.0813774,-118.1502363,meta,2025-06-02T07:00:00.000Z,0.9784508333782836,15f4143f-289d-4b35-87e6-6dc264fe0772,,commercial,commercial,OpenStreetMap,2017-02-02T16:14:49.000Z,,los-angeles,True
c16d5350-b5e3-4778-aea4-b2d4ce6bc13f,Maxim Healthcare Services - Companion Services,hospice,"['personal_care_service', 'health_and_medical']",CA,Sherman Oaks,91403.0,15335 Morrison St Ste 103B,34.16106,-118.467781,Microsoft,2010-09-16T09:05:46.790Z,0.77,2de12601-bfb4-4a1b-824e-328661024d80,,commercial,commercial,OpenStreetMap,2016-07-19T10:20:35.000Z,,los-angeles,False
5175b9d2-308d-494a-977c-23ff737ce0c0,Maxim Wholesale Eletric Supply,lighting_store,['retail'],CA,Van Nuys,91411.0,6131 Kester Ave,34.181798,-118.457442,Microsoft,2010-10-05T13:36:14.703Z,0.77,,,,,,,,los-angeles,False
d1a6a219-04bd-4b31-8e25-528d95de3cf1,Maxim Chinese Food,chinese_restaurant,"['restaurant', 'asian_restaurant']",CA,Los Angeles,90028.0,6051 Hollywood Blvd,34.1018339,-118.321879,meta,2025-06-02T07:00:00.000Z,0.9784508333782836,6ea9708d-8fce-49d6-98cc-8ecb4c89c1d1,,commercial,retail,OpenStreetMap,2021-02-16T19:01:35.000Z,,los-angeles,False
90acbd7d-3464-48aa-b746-399171279297,Maxim's Furniture,furniture_store,['shopping'],CA,Los Angeles,91605.0,12607 Sherman Way,34.2014628,-118.407838,meta,2025-06-02T07:00:00.000Z,0.9459263554653524,438fab60-2a52-47df-819d-0e6ca4df884a,,industrial,industrial,OpenStreetMap,2016-07-18T11:38:25.000Z,,los-angeles,False
56effb32-844b-423f-ab76-602ec3fe041e,"Maxim Healthcare Services Orange County, CA Regional Office",home_health_care,"['hospital', 'health_department']",CA,Orange,92868.0,500 S Main St,33.7801392,-117.8679167,meta,2025-06-02T07:00:00.000Z,0.9784508333782836,a8884600-978b-4f33-9abe-8161eca167a0,,,,OpenStreetMap,2020-02-16T20:37:29.000Z,,los-angeles,True
9e301246-7179-49c8-88ad-e1f5c7b42aa2,Maxim Lighting,lighting_store,['home_improvement_store'],CA,City of Industry,91746.0,253 Vineland Ave,34.0500173,-117.9910731,meta,2025-06-02T07:00:00.000Z,0.9459263554653524,7481f1f0-d5e1-439a-b516-ca0c7017a803,,industrial,industrial,OpenStreetMap,2017-02-07T20:11:42.000Z,,los-angeles,False
ee92f903-7aae-411b-b657-1dc2505d25c0,"Maxim Healthcare Services Pomona, CA Regional Office",home_health_care,"['health_department', 'nurse_practitioner']",CA,Pomona,91768.0,801 Corporate Center Dr,34.0647057,-117.8018559,meta,2025-06-02T07:00:00.000Z,0.9784508333782836,,,,,,,,los-angeles,True
89cac014-f49e-4d6a-94f7-856133501476,Maxim Trucking,freight_and_cargo_service,,NJ,Edison,8837.0,20 Seneca St,40.5156718,-74.3470798,meta,2025-06-02T07:00:00.000Z,0.8148148148148148,,,,,,,,new-york,False
c6dfa6ee-0d64-44bb-a393-c02d703ff2d2,Maxim Agro,agriculture,,,Jessore,0.0,"Adjacent of Churamonkati Bazar, Jhenaidah Highway, Jashore. Mayamari Road, Taher clinic Moor, Meherpur, Saatgari, Chuadanga Sadar, Chuadanga. Mahasthangarh, Bagura.",40.7148624,-74.00915,meta,2025-06-02T07:00:00.000Z,0.8148148148148148,080a2899-cf6c-4fee-a761-32f8f0bcf369,,,,OpenStreetMap,2025-02-06T19:41:04.000Z,,new-york,False
c6dfa6ee-0d64-44bb-a393-c02d703ff2d2,Maxim Agro,agriculture,,,Jessore,0.0,"Adjacent of Churamonkati Bazar, Jhenaidah Highway, Jashore. Mayamari Road, Taher clinic Moor, Meherpur, Saatgari, Chuadanga Sadar, Chuadanga. Mahasthangarh, Bagura.",40.7148624,-74.00915,meta,2025-06-02T07:00:00.000Z,0.8148148148148148,538a63c0-2b1c-41e1-a12a-2835d2c8d21e,,,,OpenStreetMap,2025-02-06T19:41:04.000Z,,new-york,False
0c13cf80-a102-4448-b2a2-d53b51444102,Maxim Maximov,lawyer,"['lounge', 'mortgage_broker']",NY,New York,11229.0,1701 Avenue P,40.6107466,-73.9565539,meta,2025-06-02T07:00:00.000Z,0.909823677581864,3b059dc3-52a6-4a3f-a0f9-0572b81ed1d8,,,,OpenStreetMap,2014-02-08T22:34:50.000Z,,new-york,False
00ff2a8c-9b64-4f32-bc7f-94f4f495bd8c,Maxim Creative Group,advertising_agency,['public_relations'],NY,New York,10003.0,32 Union Sq E,40.735532,-73.989225,meta,2025-06-02T07:00:00.000Z,0.3376623376623376,b7920076-ffab-41c4-9cdf-fe3161760afb,,commercial,office,OpenStreetMap,2021-04-26T20:57:27.000Z,,new-york,False
e4ea6b80-7ec5-478d-9288-d744fd49e27a,MAXIM Hair Restoration,hair_loss_center,"['beauty_and_spa', 'health_and_medical']",NY,New York,10001.0,308 5th Ave,40.7469409,-73.9860177,Microsoft,2023-10-15T01:30:04.590Z,0.77,97403157-d96c-442e-b0ab-8c9be1ff72e3,,,,OpenStreetMap,2022-04-20T16:44:34.000Z,,new-york,False
e4ea6b80-7ec5-478d-9288-d744fd49e27a,MAXIM Hair Restoration,hair_loss_center,"['beauty_and_spa', 'health_and_medical']",NY,New York,10001.0,308 5th Ave,40.7469409,-73.9860177,Microsoft,2023-10-15T01:30:04.590Z,0.77,a47c0bd1-3b0c-496d-9261-5980e767b9db,,,,OpenStreetMap,2022-04-20T16:44:34.000Z,,new-york,False
4088ae87-bf9c-4210-82db-5f0cae0007bf,Maxim,topic_publisher,"['print_media', 'advertising_agency']",NY,New York,10017.0,415 Madison Ave,40.756713,-73.976078,meta,2025-06-02T07:00:00.000Z,0.296943231441048,3b0a5bca-b488-4069-ba86-20a4a978a386,,,,OpenStreetMap,2014-07-07T09:05:32.000Z,,new-york,False
4eb15dcb-6d54-43f6-bf60-aaa56947ea88,Maxim Group LLC,financial_service,"['banks', 'bank_credit_union']",NY,New York,10022.0,300 Park Ave,40.7568983,-73.9747915,meta,2025-06-02T07:00:00.000Z,0.9459263554653524,8f543471-12a0-4d32-a077-f23eb8da3bc3,Grand Central Terminal,transportation,train_station,OpenStreetMap,2023-11-09T20:30:25.000Z,,new-york,False
4eb15dcb-6d54-43f6-bf60-aaa56947ea88,Maxim Group LLC,financial_service,"['banks', 'bank_credit_union']",NY,New York,10022.0,300 Park Ave,40.7568983,-73.9747915,meta,2025-06-02T07:00:00.000Z,0.9459263554653524,332fcac1-8ee2-4c35-b81f-7606cff79c85,Colgate-Palmolive Building,commercial,commercial,OpenStreetMap,2017-01-17T16:41:48.000Z,,new-york,False
fc129815-075c-4f50-97a5-51a38a68b2ce,"Maximum Orthopaedics and Sports Medicine: Maxim Tyorkin, MD",orthopedist,"['doctor', 'health_and_medical']",NY,New York,10065.0,521 Park Ave,40.76362,-73.96894,Microsoft,2025-05-23T07:54:11.957Z,0.77,30e85d55-4435-48fb-baa5-7e5e7379d2b5,,,,OpenStreetMap,2014-03-14T22:07:22.000Z,,new-york,False
ecdc1f90-7d58-4c14-8441-b31d997b3368,MAXIM Hair Restoration - Long Island,hair_loss_center,"['beauty_and_spa', 'health_and_medical']",NY,Huntington,11743.0,775 Park Ave Ste 360,40.771345,-73.963233,Microsoft,2025-01-24T07:55:21.127Z,0.77,62af4d2e-220f-4264-bfc4-50044773b3c3,,residential,apartments,OpenStreetMap,2015-01-09T18:18:10.000Z,,new-york,False
768a1017-db1f-4609-9255-62348e4e3d3a,MAXiM Hair Restoration,hair_loss_center,"['hair_removal', 'beauty_and_spa']",NY,New York,10075.0,903 Park Ave,40.775732,-73.95997,Microsoft,2019-06-07T16:36:05.660Z,0.77,afed9232-9adf-4dd1-b703-a8787bfff3f2,,,,OpenStreetMap,2019-10-22T21:42:58.000Z,,new-york,False
0a1f816f-5266-4a15-9656-5506434d0dff,MAXiM Hair Restoration,hair_loss_center,"['hair_removal', 'beauty_and_spa']",NY,New York,10075.0,903 Park Ave,40.7758016,-73.9602371,Microsoft,2019-12-20T18:10:57.300Z,0.77,,,,,,,,new-york,False
8bcf002d-b31e-42a5-a601-537e653d8bb2,Maxim Beautique,hair_salon,"['beauty_salon', 'beauty_and_spa']",NY,New York,10128.0,402 E 87th St,40.777363,-73.9486009,meta,2025-06-02T07:00:00.000Z,0.9784508333782836,d2083e0b-47b2-411a-a76e-e8039a08e14d,,,,OpenStreetMap,2014-03-17T19:57:29.000Z,,new-york,False
deaec9bf-20aa-454b-9be0-f5734c14b86b,MAXIM ReGen,osteopathic_physician,"['doctor', 'health_and_medical']",NY,Astoria,11102.0,28-18 31st St 2nd Floor,40.768031,-73.920794,Microsoft,2022-12-01T19:55:02.940Z,0.77,a5df2996-0248-4227-97d8-f491519cefa2,,,,OpenStreetMap,2014-05-09T20:18:51.000Z,,new-york,False
8a01b719-c8ad-4460-b3d1-51946996ddf6,Maxim Premier Realty,real_estate_agent,"['real_estate', 'real_estate_service']",NY,Forest Hills,11375.0,118-35 Queens Blvd,40.714823,-73.831064,meta,2025-06-02T07:00:00.000Z,0.4929396662387676,6f7b9ae1-7569-4944-915b-ff95f5b8c267,Forest Hills Tower,,,OpenStreetMap,2018-01-28T18:39:30.000Z,,new-york,False
68c49a24-7ce9-4e91-8474-f9732110af84,"Maximum Orthopaedics and Sports Medicine: Maxim Tyorkin, MD",sports_medicine,"['doctor', 'health_and_medical']",NY,Forest Hills,11375.0,11615 Queens Blvd,40.71618,-73.833,Microsoft,2025-05-23T07:54:11.957Z,0.77,da487267-d01d-43c7-a03c-117bcf72cfd5,The Dover,,,OpenStreetMap,2023-02-04T19:13:29.000Z,,new-york,False
c3614497-10cf-4707-8dd8-9c1b641c8c9d,Maxim,chinese_restaurant,"['restaurant', 'asian_restaurant']",NY,New York,11377.0,68-12 Roosevelt Ave,40.7461755,-73.8969409,meta,2025-06-02T07:00:00.000Z,0.9784508333782836,64b19628-24f5-4017-b057-3b5c60b92009,,,,OpenStreetMap,2025-04-15T19:34:04.000Z,,new-york,False
023672bf-d415-4323-99a3-426b52b75a0b,Maxim Garden,chinese_restaurant,"['restaurant', 'asian_restaurant']",NY,Jamaica,11435.0,138-61 Queens Blvd,40.7074588,-73.8171794,meta,2025-06-02T07:00:00.000Z,0.9784508333782836,16ec209e-600c-4811-bf09-968651b29b6e,,,,OpenStreetMap,2014-05-20T17:41:15.000Z,,new-york,False
023672bf-d415-4323-99a3-426b52b75a0b,Maxim Garden,chinese_restaurant,"['restaurant', 'asian_restaurant']",NY,Jamaica,11435.0,138-61 Queens Blvd,40.7074588,-73.8171794,meta,2025-06-02T07:00:00.000Z,0.9784508333782836,426c080f-a2bf-4dc5-9002-9f0788df3a11,,,,OpenStreetMap,2014-05-20T17:41:21.000Z,,new-york,False
95657c38-01e4-4959-bc44-2b3361de0395,"Maxim Healthcare Services Westbury, NY Regional Office",home_health_care,"['nurse_practitioner', 'employment_agencies']",NY,Westbury,11590.0,900 Merchants Concourse,40.7447435,-73.5919391,meta,2025-06-02T07:00:00.000Z,0.9784508333782836,de76a780-cb79-4c56-8d8e-95707f254dd7,,,,OpenStreetMap,2021-05-30T19:34:47.000Z,,new-york,True
0ea3c32d-b1f2-4650-9605-a0e2890eedfd,Maxim Glen park,park,"['attractions_and_activities', 'topic_concert_venue']",NJ,Hopatcong,0.0,Lakeside Blvd,40.9331548,-74.6671263,meta,2025-06-02T07:00:00.000Z,0.5662921348314607,,,,,,,,new-york,False
1ecd3309-0011-4d85-8b74-11372e62a2de,Maxim Motorcars LLC.,car_dealer,"['used_car_dealer', 'automotive']",NJ,Dover,7801.0,303 W Clinton St,40.8964954,-74.5657789,meta,2025-06-02T07:00:00.000Z,0.9415384615384615,fed3a815-d8d6-4f6e-881b-c1f2e3a9613e,,,,Microsoft ML Buildings,2022-10-16T00:00:00.000Z,,new-york,False
f2c03283-e2b5-4788-b55f-4bad1f9f7118,Maxim Health,pain_management,"['doctor', 'health_and_medical']",NJ,Morristown,7960.0,310 Madison Ave,40.7815472,-74.4500986,Microsoft,2025-02-24T07:18:57.733Z,0.77,,,,,,,,new-york,False
70677959-d5c7-49c0-9855-1990fae50983,Maxim Physical Therapy and Wellness,physical_therapy,['hospital'],NJ,Morris Twp,7960.0,310 Madison Ave,40.781788,-74.4493064,meta,2025-06-02T07:00:00.000Z,0.8860580325548478,4507ce17-4853-47c6-b73d-3d2949a91f20,,,,OpenStreetMap,2017-12-03T19:43:33.000Z,,new-york,False
f98eb0d6-a447-4e4c-9969-3d55ab418b2b,Maxim Healthcare Services,hospital,"['counseling_and_mental_health', 'retirement_home']",NJ,Hackensack,7601.0,411 Hackensack Ave,40.909134,-74.033882,meta,2025-06-02T07:00:00.000Z,0.3376623376623376,1a52cfda-71cd-4772-bddf-7ac162bbd111,,,,OpenStreetMap,2018-09-15T21:24:35.000Z,,new-york,False
014b36d6-efb7-4abc-894b-8496d9a5e0a9,Maxim Hair Restoration,hair_replacement,['beauty_salon'],NJ,Paramus,7652.0,37 W Century Rd,40.9312377,-74.0735808,meta,2025-06-02T07:00:00.000Z,0.9459263554653524,7794cf1f-6444-4f8e-bb43-26ee0cb3ff96,,,,OpenStreetMap,2016-09-13T19:51:41.000Z,,new-york,False
1ea19381-8298-4bba-8026-42347c9f86a2,MAXiM Hair Restoration,health_and_medical,,NJ,Paramus,7652.0,"New Century Surgery Center, 37 W Century Rd Ste 113",40.931452,-74.073886,Microsoft,2020-04-10T19:06:36.510Z,0.77,7794cf1f-6444-4f8e-bb43-26ee0cb3ff96,,,,OpenStreetMap,2016-09-13T19:51:41.000Z,,new-york,False
63276ca3-8cd8-492a-bb74-df4497762358,MAXIM Hair Restoration,health_and_medical,,NJ,Paramus,7652.0,37 W Century Rd Ste 113,40.928461,-74.066546,Microsoft,2025-01-23T13:10:56.880Z,0.77,,,,,,,,new-york,False
76894e53-a4b7-4b89-9ab5-42ff9138190d,MAXIM ReGen,health_and_medical,,NJ,Paramus,7652.0,37 W Century Rd,40.928461,-74.066546,Microsoft,2025-01-23T13:11:07.790Z,0.77,,,,,,,,new-york,False
1ab4aa34-9066-4dd3-84a8-f25555985033,MAXIM Facial Aesthetics,health_and_medical,,NJ,Paramus,7652.0,37 W Century Rd,40.928461,-74.066546,Microsoft,2025-01-23T13:11:24.140Z,0.77,,,,,,,,new-york,False
cd693d51-152c-4745-81ba-1dbd6cae160a,MAXIM BREAST SURGERY,health_and_medical,,NJ,Paramus,7652.0,37 W Century Rd,40.928461,-74.066546,Microsoft,2025-01-23T13:11:32.403Z,0.77,,,,,,,,new-york,False
460d8695-e027-4de4-8232-ecfc8d4e0932,"Maxim Analytico Consultants, Inc.",business_consulting,,NY,New York,10029.0,434 E 115 St Ste 5a,40.79462,-73.9347989,Microsoft,2025-05-14T12:11:47.170Z,0.77,b1f90653-6c68-4e8e-bac3-18f21e983d11,,residential,apartments,OpenStreetMap,2021-04-25T17:55:58.000Z,,new-york,False
608a4bdf-92f4-4b2e-9781-7a6280eccb5c,MAXIM Facial Aesthetics,hair_replacement,['beauty_salon'],NY,Great Neck,11021.0,15 Barstow Rd,40.7879455,-73.7244816,meta,2025-06-02T07:00:00.000Z,0.9459263554653524,,,,,,,,new-york,False
122803ae-c9eb-42f7-a517-cf3edc78a004,MAXIM ReGen,health_and_medical,,NY,Great Neck,11021.0,15 Barstow Rd,40.788021,-73.724341,Microsoft,2022-12-01T19:55:02.940Z,0.77,21de283d-60ff-41ba-a09e-5be743f3fdcd,,,,OpenStreetMap,2020-02-08T22:24:03.000Z,,new-york,False
f5f1dced-17c9-4a90-b651-5ca891413290,MAXIM Hair Restoration,hair_loss_center,"['hair_removal', 'beauty_and_spa']",NY,Great Neck,11021.0,15 Barstow Rd,40.788021,-73.724341,Microsoft,2022-12-01T19:55:02.940Z,0.77,21de283d-60ff-41ba-a09e-5be743f3fdcd,,,,OpenStreetMap,2020-02-08T22:24:03.000Z,,new-york,False
467fa931-11a1-4b81-8381-234a0ee8e2e3,"Maxim Healthcare Services White Plains, NY Regional Office",home_health_care,"['health_department', 'nurse_practitioner']",NY,White Plains,10604.0,1025 Westchester Ave,41.02061,-73.72924,meta,2025-06-02T07:00:00.000Z,0.9415384615384615,075df50e-45e3-4fc1-95ed-2cb90bd4bff7,,,,OpenStreetMap,2015-02-19T22:43:55.000Z,,new-york,True
6ddae373-0c8b-46a0-a7fd-32029a63dc96,"Maxim Healthcare Services White Plains, NY Regional Office",home_health_care,"['personal_care_service', 'skilled_nursing', 'health_and_medical']",NY,White Plains,10604.0,1025 Westchester Ave Ste 305,41.0230033,-73.7315641,Microsoft,2025-05-10T08:26:46.153Z,0.77,b6690389-d8bd-4621-9123-49c8bb4909a6,,,,OpenStreetMap,2021-10-03T07:25:17.000Z,,new-york,True
e1af8e14-aa15-4680-812c-e11b0558da9b,MAXIM Hair Restoration,hair_loss_center,['beauty_and_spa'],CT,Greenwich,6830.0,195 Field Point Rd #100,41.021637,-73.631452,Microsoft,2020-12-14T21:59:36.593Z,0.77,2cc7b1b1-b82d-4cd9-b754-e01cea687ef7,,,,OpenStreetMap,2021-01-02T06:56:19.000Z,,new-york,False
ccd622e8-f746-43a4-a871-0d0ec8f53f5b,MAXIM Hair Restoration & Transplants - Long Island,hair_loss_center,"['beauty_and_spa', 'health_and_medical']",NY,Huntington,11743.0,775 Park Ave Ste 360,40.858712,-73.395277,Microsoft,2024-12-01T04:46:25.397Z,0.77,3633bc32-77ba-439f-b9b9-cebcdc09912a,,commercial,commercial,OpenStreetMap,2022-07-20T01:19:42.000Z,,new-york,False
d786b2d1-45ac-4701-a0d8-629086e65e71,"Maxim Healthcare Services Lexington, KY Regional Office",home_health_care,"['health_and_medical', 'medical_service_organizations']",KY,Lexington,40504.0,2525 Harrodsburg Rd,38.0171461,-84.5501056,meta,2025-06-02T07:00:00.000Z,0.9784508333782836,7406f45d-d3f0-42ab-b52c-b3bbd341fb81,,,,OpenStreetMap,2016-03-15T02:47:01.000Z,,lexington-fayette,True
11048395-7802-4508-9e83-f9e112219923,"Maxim Healthcare Services Spokane, WA Regional Office",home_health_care,"['hospital', 'health_and_medical']",WA,Spokane Valley,99216.0,16201 E Indiana Ave,47.668884,-117.186549,meta,2025-06-02T07:00:00.000Z,0.9459263554653524,2442d3ab-55ab-4da9-bcbf-76447e7cd8a3,,,,OpenStreetMap,2022-07-05T17:20:25.000Z,,spokane,True
8fcfddda-1397-49f7-ad80-b084c3b6eea9,Maxim's Restaurant,american_restaurant,"['restaurant', 'diner']",WI,Brookfield,53045.0,18025 W Capitol Dr,43.0901456,-88.1359048,meta,2025-06-02T07:00:00.000Z,0.9784508333782836,,,,,,,,milwaukee,False
2412af48-574a-45e0-a9f3-858988dc542f,"Maxim Healthcare Services Memphis, TN Regional Office",home_health_care,"['hospital', 'health_department']",TN,Memphis,38119.0,1255 Lynnfield Rd,35.0972338,-89.8689988,meta,2025-06-02T07:00:00.000Z,0.9784508333782836,,,,,,,,memphis,True
3f89fc65-7f8b-4b3c-973e-6b32f2a5bfd2,"Maxim Healthcare Services Springfield, MO Regional Office",home_health_care,"['hospital', 'health_and_medical']",MO,Springfield,65807.0,1341 W Battlefield Rd,37.1608905,-93.3105963,meta,2025-06-02T07:00:00.000Z,0.9459263554653524,a6a88b44-d858-4229-a5f4-c098fcdba1f6,Guaranty Bank,,,OpenStreetMap,2025-01-08T05:45:02.000Z,,springfield-missouri,True
3462def2-67c2-47fc-8211-e897fe279a17,MAXiM Hair Restoration,hair_replacement,['beauty_salon'],CA,Newport Beach,92660.0,280 Newport Center Dr,33.6103913,-117.8727237,meta,2025-06-02T07:00:00.000Z,0.9415384615384615,ba7e3d96-7b1e-4a50-b812-a151444f7ad6,,,,OpenStreetMap,2021-06-11T21:12:57.000Z,,mission-viejo,False
46d267fe-ded5-476e-bcb6-19b8eb785656,MAXIM ReGen,medical_center,['health_and_medical'],CA,Newport Beach,92660.0,280 Newport Center Dr Ste 110,33.61287,-117.874008,Microsoft,2022-12-01T19:55:02.940Z,0.77,,,,,,,,mission-viejo,False
c1925f00-3032-48a5-b817-7e3ff3d757f6,Maxim Hotel Brokerage,hotel,"['real_estate', 'real_estate_agent']",CA,Newport Beach,92660.0,1303 Avocado Ave,33.6111742,-117.8719964,meta,2025-06-02T07:00:00.000Z,0.9297091412742382,807ffa25-e5e4-4aef-b30f-0ea34849f9c7,,,,OpenStreetMap,2021-06-11T21:12:57.000Z,,mission-viejo,False
92b4963f-c52f-4afd-b9eb-3b1924dfbfb7,Maxim Real Estate Group,real_estate,"['property_management', 'real_estate_agent']",CA,Irvine,92614.0,2372 Morse Ave,33.6817887,-117.8493745,meta,2025-06-02T07:00:00.000Z,0.8831168831168831,3e4d1559-1b8e-4e85-9f67-d6b18ba79d32,,commercial,commercial,OpenStreetMap,2023-12-27T19:49:00.000Z,,mission-viejo,False
707e5e4c-59fe-45e7-b4a8-01927d8910c9,Maxim Lending,mortgage_broker,['installment_loans'],CA,Laguna Hills,92653.0,23272 Mill Creek Dr,33.624525,-117.735403,meta,2025-06-02T07:00:00.000Z,0.3376623376623376,a2a6149c-290c-4acf-87e9-c99a37cc07ff,,commercial,commercial,OpenStreetMap,2020-09-11T04:33:48.000Z,,mission-viejo,False
ad609ed0-09ab-4ffc-abca-63a797a29827,Maxim Healthcare Services,home_health_care,"['personal_care_service', 'health_and_medical']",CA,Laguna Hills,92653.0,23421 S Pointe Dr Ste 200,33.6257171630859,-117.720916748047,Microsoft,2016-12-02T21:57:35.083Z,0.77,b5e7cbfd-1a4f-4c96-ba7c-b7b18711421c,,,,OpenStreetMap,2023-02-02T22:42:34.000Z,,mission-viejo,False
56effb32-844b-423f-ab76-602ec3fe041e,"Maxim Healthcare Services Orange County, CA Regional Office",home_health_care,"['hospital', 'health_department']",CA,Orange,92868.0,500 S Main St,33.7801392,-117.8679167,meta,2025-06-02T07:00:00.000Z,0.9784508333782836,a8884600-978b-4f33-9abe-8161eca167a0,,,,OpenStreetMap,2020-02-16T20:37:29.000Z,,mission-viejo,True
f159c47b-8314-4c1d-9b2a-b62675a57567,"Maxim Healthcare Services Providence, RI Regional Office",home_health_care,"['hospital', 'nurse_practitioner']",RI,Providence,2903.0,1 Cedar St,41.824286,-71.4205442,meta,2025-06-02T07:00:00.000Z,0.9459263554653524,87c51dd7-8fe8-4bbd-8448-80c1114b3891,,industrial,industrial,OpenStreetMap,2011-12-16T22:57:43.000Z,,providence,True
6895dcc4-c20a-41de-a7da-a8f36aa4b03c,"Maxim Healthcare Services Columbus, OH Regional Office",home_health_care,"['hospital', 'health_and_medical']",OH,Columbus,43235.0,445 Hutchinson Ave,40.1128646,-83.0049662,meta,2025-06-02T07:00:00.000Z,0.9459263554653524,78a18eac-8fb3-4c4c-aff7-0213e2a2ba00,,,,OpenStreetMap,2017-01-06T20:29:22.000Z,,columbus-ohio,False
6d5859c0-fb87-4c5d-ace5-7eac5da8bfb9,"Maxim Healthcare Services Syracuse, NY Regional Office",home_health_care,"['health_and_medical', 'medical_supply']",NY,Syracuse,13204.0,1011 W Genesee St,43.0533461,-76.1719591,meta,2025-06-02T07:00:00.000Z,0.9204819277108434,7fa7647e-bb1b-4354-84c0-cca642294ac0,,,,OpenStreetMap,2021-08-23T19:31:49.000Z,,syracuse,True
ba67cf81-0046-4b6f-9017-bdcf8606e7fb,Syracuse Maxim Healthcare,hospital,['retirement_home'],NY,Syracuse,13202.0,224 Harrison St,43.04408,-76.14981,meta,2025-06-02T07:00:00.000Z,0.3961437335670464,d0eba2c3-6f34-4972-832a-02f3e455588d,,,,OpenStreetMap,2015-04-07T22:38:43.000Z,,syracuse,False
b70d521e-6d48-46e8-aa99-e1abf63d095f,"Maxim Healthcare Services Rockford, IL Regional Office",home_health_care,"['nurse_practitioner', 'hospital']",IL,Rockford,61107.0,973 Featherstone Rd,42.2801684,-88.9955828,meta,2025-06-02T07:00:00.000Z,0.9784508333782836,7c83ba3e-11f5-42b7-93f6-39bf12b85e8d,,commercial,commercial,OpenStreetMap,2021-06-18T01:26:20.000Z,,rockford,True
6f42e215-b0bb-4033-ab72-1d04452df132,Maxim Evaporators,professional_services,['garbage_collection_service'],LA,Shreveport,71106.0,6702 Linwood Ave,32.444048,-93.763566,meta,2025-06-02T07:00:00.000Z,0.3376623376623376,c9fd7a58-d863-40ce-b7e3-813e2a415e79,,,,OpenStreetMap,2020-10-13T08:54:11.000Z,,shreveport,False
4cffea74-f301-47e2-95a1-d2a193c7b356,Maxim Vulpe/Real Estate Professional,real_estate_agent,"['real_estate_service', 'real_estate']",FL,Naples,34103.0,800 Seagate Dr,26.2109078,-81.8019694,meta,2025-06-02T07:00:00.000Z,0.9204819277108434,d05a264b-d478-47d0-8533-fee23fd7e781,,,,OpenStreetMap,2017-09-12T09:43:55.000Z,,bonita-springs-naples,False
afeabb0b-da19-4a8d-956e-d045a78c08a3,Beatrice Kollmeier Maxim Realty,real_estate_agent,"['real_estate', 'professional_services']",FL,Bonita Springs,34134.0,69 8th St,26.32356,-81.82251,meta,2025-06-02T07:00:00.000Z,0.2456896551724137,875b2b14-d0a0-4a38-a78d-d320459df7a2,,,,OpenStreetMap,2017-09-10T22:28:03.000Z,,bonita-springs-naples,False
d9c01ef6-2af0-45dd-8ddd-451b28140312,"Maxim Healthcare Services Wichita, KS Regional Office",home_health_care,"['hospital', 'health_and_medical']",KS,Wichita,67206.0,8301 E 21st St N,37.7220961,-97.2407262,meta,2025-06-02T07:00:00.000Z,0.9784508333782836,d7ab230d-5452-426e-a349-14a86e7a2ea0,,,,OpenStreetMap,2024-09-27T13:41:37.000Z,,wichita,True
be0844a8-ea4f-4040-bf3b-bad41c243aa5,"Maxim Healthcare Services Temecula, CA Regional Office",home_health_care,"['hospital', 'health_and_medical']",CA,Temecula,92591.0,27555 Ynez Rd,33.5029859,-117.1505466,meta,2025-06-02T07:00:00.000Z,0.9459263554653524,39fa1c47-d828-4e3e-9448-73057ac8b729,Tower Office Plaza,,,OpenStreetMap,2011-12-21T08:22:32.000Z,,temecula-murrieta,True
be0844a8-ea4f-4040-bf3b-bad41c243aa5,"Maxim Healthcare Services Temecula, CA Regional Office",home_health_care,"['hospital', 'health_and_medical']",CA,Temecula,92591.0,27555 Ynez Rd,33.5029859,-117.1505466,meta,2025-06-02T07:00:00.000Z,0.9459263554653524,d8c3c815-4788-479e-9f5e-539aebb4ca0c,,,,OpenStreetMap,2017-04-25T17:31:10.000Z,,temecula-murrieta,True
f75180ff-9183-4d54-80d7-ec029acaeafd,Maxim Crane Works,industrial_equipment,"['b2b_machinery_and_tools', 'hydraulic_equipment_supplier', 'crane_services', 'business_equipment_and_supply', 'business_to_business']",IN,Indianapolis,46217.0,1405 W Hanna Ave,39.706391,-86.184477,Microsoft,2019-06-28T20:44:34.240Z,0.77,,,,,,,,indianapolis,False
db78670c-9240-451a-a4b6-523c92f31baa,MAXIM Hair Restoration & Transplants Austin,hair_loss_center,"['beauty_and_spa', 'health_and_medical']",TX,Austin,78701.0,811 Trinity St Unit A,30.269427,-97.737684,Microsoft,2023-01-13T13:36:02.990Z,0.77,c4cc84c4-969f-46e2-90cd-52dc55b2dc02,,transportation,parking,OpenStreetMap,2017-08-17T05:48:51.000Z,,austin,False
afe98890-c7fa-4c2f-8669-196678b2fe02,"Maxim Healthcare Services Austin, TX Regional Office",home_health_care,"['hospital', 'health_department']",TX,Austin,78731.0,3737 Executive Center Dr,30.3627893,-97.7506665,meta,2025-06-02T07:00:00.000Z,0.9459263554653524,e1d18613-0733-4ab6-ae2c-eaa9148dfa07,,,,OpenStreetMap,2015-11-21T17:49:00.000Z,,austin,True
7cc5b7f5-bfd6-4d83-95fb-26250165e30b,"Maxim Healthcare Services Toledo, OH Regional Office",home_health_care,"['hospital', 'nurse_practitioner']",OH,Toledo,43606.0,3130 Executive Pkwy,41.6780759,-83.6284788,meta,2025-06-02T07:00:00.000Z,0.9784508333782836,82338f1a-3c2a-4361-bcdd-8ee0aff1f184,Citizen's National Bank,commercial,commercial,OpenStreetMap,2020-11-02T16:50:18.000Z,,toledo,True
834be4b1-1766-4f29-b1ee-dbeef70e0622,"Maxim Crane Works, LP",industrial_equipment,"['commercial_industrial', 'contractor']",LA,New Orleans,70121.0,725 Central Ave,29.96729,-90.172819,meta,2025-06-02T07:00:00.000Z,0.5662921348314607,1f6af2a5-6d42-43cf-b4fe-4870b445a65b,,,,OpenStreetMap,2022-05-28T21:32:32.000Z,,new-orleans,False
b5c28b41-7ac8-4dbf-8a41-f79f9c8b6f29,LV Maxim Group,real_estate,['brokers'],OH,Westlake,44145.0,159 Crocker Park Blvd,41.45922,-81.95094,meta,2025-06-02T07:00:00.000Z,0.2456896551724137,117a841a-ece8-443c-8082-537c51d1485b,,commercial,commercial,OpenStreetMap,2018-07-09T19:41:04.000Z,,cleveland,False
1aec0d52-97cb-4891-9306-b6baedb9c4f5,Maxim Financial Group LLC,financial_advising,"['professional_services', 'shopping']",OH,Westlake,44145.0,27865 Clemens Rd,41.4736516,-81.9351875,meta,2025-06-02T07:00:00.000Z,0.9459263554653524,7f6a465e-348f-4431-b5c3-b45dcbff36c6,,,,Microsoft ML Buildings,2020-09-25T00:00:00.000Z,0.9980000257492064,cleveland,False
61fc6dab-fcd2-407b-be88-80cd25b9477d,"Maxim Healthcare Services Cleveland, OH Regional Office",home_health_care,"['medical_service_organizations', 'hospital']",OH,North Olmsted,44070.0,25000 Country Club Blvd,41.4162418,-81.8989836,meta,2025-06-02T07:00:00.000Z,0.9459263554653524,bb8b1ee4-158e-49a4-a5e1-a0e47b54b690,,,,OpenStreetMap,2021-07-26T19:11:02.000Z,,cleveland,True
c4afc5b0-d837-4dda-8f87-d2d2fbe3bcf8,"Maxim Management, Inc",property_management,,CA,Fremont,94536.0,3833 Peralta Blvd,37.55943,-122.00605,meta,2025-06-02T07:00:00.000Z,0.5662921348314607,64ae5220-78e3-4f0f-9a91-2fe6bf767f94,,commercial,commercial,OpenStreetMap,2025-05-25T00:01:39.000Z,,san-jose,False
a454f0d5-4df1-44f6-b8e3-3f67701e2239,Maxim Market III,supermarket,"['grocery_store', 'shopping']",CA,San Jose,95122.0,955 McLaughlin Ave,37.334166,-121.8561288,meta,2025-06-02T07:00:00.000Z,0.9784508333782836,1726d99a-0640-4439-87b7-318dc99c1314,Asian Plaza,commercial,retail,OpenStreetMap,2022-03-16T20:06:18.000Z,,san-jose,False
2a3eb4d6-29e9-4f8c-801c-18676a65a1e6,"Maxim Healthcare Services San Jose, CA Regional Office",home_health_care,"['hospital', 'health_and_medical']",CA,San Jose,95134.0,631 River Oaks Pkwy,37.3968623,-121.9209877,meta,2025-06-02T07:00:00.000Z,0.9784508333782836,625c2d14-a06b-4590-9abb-86eb6c2a2748,,,,OpenStreetMap,2022-06-25T20:13:30.000Z,,san-jose,True
a05065b6-df2a-4001-8f66-a8d9f4c30fda,"Maxim Healthcare Services San Jose, CA Regional Office",home_health_care,"['personal_care_service', 'employment_agencies', 'health_and_medical']",CA,San Jose,95134.0,631 River Oaks Pkwy,37.3972784,-121.9204958,Microsoft,2025-05-10T08:27:41.087Z,0.77,625c2d14-a06b-4590-9abb-86eb6c2a2748,,,,OpenStreetMap,2022-06-25T20:13:30.000Z,,san-jose,True
92cc2d2e-bef7-4d87-8c7e-1ff4e990755f,Maxim Market,grocery_store,"['shopping', 'supermarket']",CA,San Jose,95121.0,1930 Aborn Rd,37.3100266,-121.8112447,meta,2025-06-02T07:00:00.000Z,0.9784508333782836,24ea31d1-059a-4d7d-ad05-5de0d5cd5bbb,,,,OpenStreetMap,2021-07-06T22:18:45.000Z,,san-jose,False
cd892e60-a8d2-4444-a14b-6063c66c9718,Maxim Crane Works,industrial_equipment,"['b2b_machinery_and_tools', 'hydraulic_equipment_supplier', 'crane_services', 'business_equipment_and_supply', 'corporate_office', 'business_to_business', 'private_establishments_and_corporates']",CA,Stockton,95205.0,2373 S Mariposa Rd,37.934501,-121.239396,Microsoft,2019-03-06T20:56:00.027Z,0.77,,,,,,,,stockton,True
ecf1016e-9dc3-422a-8680-6f21b7784797,Maxim Crane Works,industrial_equipment,"['freight_and_cargo_service', 'professional_services']",CA,Stockton,95205.0,2373 E Mariposa Rd,37.9355751,-121.2385758,meta,2025-06-02T07:00:00.000Z,0.9784508333782836,abd1e6eb-b773-46ab-8f22-f986d3b66418,,,,OpenStreetMap,2014-07-21T01:05:04.000Z,,stockton,False
77d2e654-114b-4da2-93f4-2ee5f751ef37,Avi Maxim Wholesale,wholesale_store,['professional_services'],CA,San Diego,92154.0,10031 Marconi Dr,32.554035,-116.9294386,meta,2025-06-02T07:00:00.000Z,0.9784508333782836,,,,,,,,san-diego,False
7e3e240f-f390-4a2a-b678-2b1ab5ea53c3,Maxim Athletic Training,gym,"['fitness_trainer', 'sports_wear']",CA,Chula Vista,91914.0,2381 Boswell Rd,32.6557501,-116.9632319,meta,2025-06-02T07:00:00.000Z,0.9300613496932516,abb148ed-3c28-4854-af15-82b6abbbadcc,,,,OpenStreetMap,2022-11-18T08:11:34.000Z,,san-diego,False
8ea5aeb6-f1a8-4542-a4ad-891d1a839c3c,New Maxim's Palace,chinese_restaurant,"['restaurant', 'asian_restaurant']",CA,San Diego,92104.0,2810 El Cajon Blvd,32.7557136,-117.1333805,meta,2025-06-02T07:00:00.000Z,0.9784508333782836,1f2675ae-2e7b-4e27-9bd0-c858306107be,,,,OpenStreetMap,2009-03-05T23:49:25.000Z,,san-diego,False
d5fdaa59-9f53-4899-9d99-a29d7e5233b3,"Maxim Healthcare Services San Diego, CA Regional Office",home_health_care,"['hospital', 'health_department']",CA,San Diego,92108.0,3111 Camino del Rio N,32.7747661,-117.1275778,meta,2025-06-02T07:00:00.000Z,0.9784508333782836,,,,,,,,san-diego,True
67249f00-332a-448c-8607-0984f29d8383,Maxim's Seafood Restaurant,seafood_restaurant,"['chinese_restaurant', 'restaurant']",CA,San Diego,92115.0,4616 El Cajon Blvd,32.7557991,-117.0952453,meta,2025-06-02T07:00:00.000Z,0.9784508333782836,4d960e36-5a44-49f4-92cd-4bb531be3f43,,,,OpenStreetMap,2009-04-12T05:56:13.000Z,,san-diego,False
0b2e6687-ca7b-427c-b4a5-88b36f96a505,"Maxim Healthcare Services St. Petersburg, FL Regional Office",home_health_care,"['hospital', 'health_and_medical']",FL,Clearwater,33761.0,26750 US-19 N,28.0152869,-82.738224,meta,2025-06-02T07:00:00.000Z,0.9459263554653524,65b5cf55-d2b1-4e84-8fe3-27954e3c630b,,,,OpenStreetMap,2022-10-18T14:58:35.000Z,,st-petersburg,True
3f8cb5af-6403-4624-b600-3e8c9a232330,"Maxim Healthcare Services Chattanooga, TN Regional Office",home_health_care,"['hospital', 'nurse_practitioner']",TN,Chattanooga,37402.0,555 Walnut St,35.0504171,-85.3080493,meta,2025-06-02T07:00:00.000Z,0.9784508333782836,a17c39cf-6c99-401a-bfe7-dac9ddce33df,,,,OpenStreetMap,2012-07-31T14:17:56.000Z,,chattanooga,True
e061e317-a05f-4763-a97a-1c957d29bf75,"Maxim Healthcare Services Dayton, OH Regional Office",home_health_care,"['personal_care_service', 'health_and_medical']",OH,Miamisburg,45342.0,2 Prestige Pl Ste 160,39.62648773,-84.26151276,Microsoft,2025-05-10T08:26:55.983Z,0.77,,,,,,,,dayton,True
e7d23076-8862-4162-84fc-1c6dd1c541c8,"Maxim Healthcare Services Dayton, OH Regional Office",home_health_care,"['nurse_practitioner', 'hospital']",OH,Miamisburg,45342.0,2 Prestige Pl,39.6354973,-84.2274723,meta,2025-06-02T07:00:00.000Z,0.9415384615384615,61208cfe-afa0-4b5c-9e08-7c82c8756b62,,,,OpenStreetMap,2021-05-16T07:25:13.000Z,,dayton,True
5d82bc8a-d94e-4259-a4ea-671f4a8000e8,Maxim Healthcare Services,medical_center,['health_and_medical'],OH,Moraine,45439.0,3055 Kettering Blvd Ste 319,39.706786,-84.202644,Microsoft,2012-08-13T07:46:34.377Z,0.77,,,,,,,,dayton,False
636db281-6b48-4d54-b2f7-c49e678cedda,Maxim Crane Works,crane_services,,OH,Dayton,45417.0,1530 Nicholas Rd,39.732295,-84.220281,Microsoft,2019-03-06T20:56:00.027Z,0.77,043ff0c2-4f3c-468e-80da-70bf24880985,,,,OpenStreetMap,2022-09-17T14:31:37.000Z,,dayton,False
a0541016-fe75-460d-b2c1-e7a70a9c8351,Maxim Trucking & Materials Inc.,travel,,IA,Des Moines,50320.0,1540 Hartford Ave,41.5699488,-93.5930368,Microsoft,2025-04-09T06:33:46.790Z,0.77,,,,,,,,des-moines,False
0c1981d7-8c8f-4cec-b96a-c1935469b072,Maxim Trucking Materials,freight_and_cargo_service,"['garbage_collection_service', 'transportation']",IA,Des Moines,50320.0,1540 Hartford Ave,41.5706767,-93.5929556,meta,2025-06-02T07:00:00.000Z,0.9784508333782836,fdb6beee-f686-40b3-8828-4523a7c0ddb3,,,,Microsoft ML Buildings,2020-06-12T00:00:00.000Z,1.0,des-moines,False
004c5d1c-a601-4f1e-8651-c1fd8ed8b870,Maxim Industries Inc,commercial_industrial,"['construction_services', 'contractor']",TX,Dallas,75212.0,1630 Terre Colony Ct,32.7721177,-96.8673205,meta,2025-06-02T07:00:00.000Z,0.9300613496932516,22e7e149-1994-4307-93e7-2285a0bd2e5e,,commercial,warehouse,OpenStreetMap,2017-01-17T17:16:19.000Z,,dallas,False
18cddb73-289d-4098-9c30-db46ce724a39,"Maxim Healthcare Services Dallas, TX Regional Office",home_health_care,"['personal_care_service', 'health_and_medical']",TX,Dallas,75244.0,"5001 LBJ Freeway, Ste 350",32.928156,-96.823101,Microsoft,2025-05-10T08:27:42.017Z,0.77,7e3b3faa-ac62-45be-8946-052e3f7f3149,,commercial,office,OpenStreetMap,2018-11-18T19:51:34.000Z,,dallas,True
5fb1cb35-c8d7-4638-ac1b-cddb400a25e0,Sara Stuckly - Maxim Advanced Practitioners,health_and_medical,"['professional_services', 'retirement_home']",TX,Dallas,75244.0,5001 Lyndon B Johnson Fwy,32.92837,-96.82314,meta,2025-06-02T07:00:00.000Z,0.296943231441048,,,,,,,,dallas,False
1aa43c30-bc9b-4b77-9be5-3dbd77745f5e,Maxim Integrated Products,industrial_equipment,"['software_development', 'computer_store']",TX,Dallas,75244.0,4401 Beltwood Pkwy S,32.948814,-96.83507,meta,2025-06-02T07:00:00.000Z,0.296943231441048,bd3cd537-50e4-4532-b729-54943c9a6ac8,,commercial,commercial,OpenStreetMap,2025-04-12T18:14:47.000Z,,dallas,True
58eaa435-bfc8-4f93-a268-653f762182db,MAXIM Hair Restoration & Transplants - Dallas,hair_loss_center,"['beauty_and_spa', 'health_and_medical']",TX,Dallas,75240.0,13140 Coit Rd Ste 475,32.9269518,-96.7683002,Microsoft,2023-03-13T11:23:08.440Z,0.77,5e6a5bc9-8e69-4ad7-a027-00dbcae7c618,,,,OpenStreetMap,2021-02-05T04:27:58.000Z,,dallas,False
cd5a0598-d258-4ec1-9925-3202d798757f,MAXIM ReGen,medical_center,['health_and_medical'],TX,Dallas,75240.0,13140 Coit Rd Ste 475,32.927803,-96.769207,Microsoft,2025-01-23T13:11:12.957Z,0.77,,,,,,,,dallas,False
2a783a89-9f94-49d1-a6c2-1bc8dbdfd223,MAXiM Hair Restoration,hair_loss_center,"['hair_removal', 'beauty_and_spa']",TX,Dallas,75251.0,8111 Lyndon B Johnson Fwy #655,32.925631,-96.766415,Microsoft,2019-12-20T18:10:57.300Z,0.77,eebbf41d-71fa-4b93-a26b-f847884a38e8,Gateway Tower,,,OpenStreetMap,2023-11-01T11:06:54.000Z,,dallas,False
8b56d960-6507-4010-89de-be8684007aa3,Maxim's Restaurant,dim_sum_restaurant,"['pan_asian_restaurant', 'restaurant']",TX,Richardson,75081.0,310 Terrace Dr,32.9521129,-96.7283438,Microsoft,2015-05-14T10:20:06.277Z,0.77,,,,,,,,dallas,False
f0a01c18-3616-4101-8237-94f1dddb09eb,Maxim Medical Supplies,medical_supply,"['pharmacy', 'hospital']",TX,Dallas,75252.0,18800 Preston Rd,33.0058524,-96.7946489,meta,2025-06-02T07:00:00.000Z,0.8860580325548478,99dcd090-e97d-4018-af38-5925203dd0e0,,commercial,commercial,OpenStreetMap,2020-12-18T05:40:26.000Z,,dallas,False
6b1125a8-40be-4d49-8e8e-0f2452b2d8f0,Maxim Honda,motorcycle_dealer,['automotive'],TX,Allen,75013.0,420 Central Expy S,33.097141,-96.679796,Microsoft,2013-01-28T00:11:13.453Z,0.77,,,,,,,,dallas,False
53683b29-c84e-44d9-9e74-a62f45542be8,Maxim Jewelry,jewelry_store,"['shopping', 'tanning_salon']",HI,Honolulu,96815.0,2005 Kalia Rd,21.2825772,-157.8368106,meta,2025-06-02T07:00:00.000Z,0.9459263554653524,,,,,,,,honolulu,False
6701eb1a-a37a-4654-8a0d-9a73517203c6,"Maxim Healthcare Services Springfield, MA Regional Office",home_health_care,"['nurse_practitioner', 'health_department']",MA,Holyoke,1040.0,55 Bobala Rd,42.1671553,-72.6518154,meta,2025-06-02T07:00:00.000Z,0.9459263554653524,18740af0-c8ed-41dd-9042-86a3ca9c7890,,,,OpenStreetMap,2019-05-27T18:24:02.000Z,,springfield-massachusett-connecticut,True
22d257d3-5167-4121-8591-8a91c00c4ed2,Maxim Allied Health,employment_agencies,,MD,Columbia,21046.0,7227 Lee Deforest Dr,39.172262,-76.820664,meta,2025-06-02T07:00:00.000Z,0.296943231441048,f3368c8b-f0e7-4f47-bb8b-62afe427c3e1,,,,OpenStreetMap,2021-11-09T08:52:35.000Z,,baltimore,False
79cbbc0d-db39-4bba-ac53-2fd96b5fb6a9,"Maxim Healthcare Services Columbia, MD Headquarters",home_health_care,"['medical_center', 'personal_care_service', 'health_and_medical']",MD,Columbia,21046.0,7227 Lee Deforest Dr,39.1722819,-76.8206509,Microsoft,2025-05-10T08:27:31.903Z,0.77,f3368c8b-f0e7-4f47-bb8b-62afe427c3e1,,,,OpenStreetMap,2021-11-09T08:52:35.000Z,,baltimore,True
cf182a49-50f3-40f3-856f-305a00669493,Maxim Crane Works,industrial_equipment,"['travel', 'automotive_repair']",MD,Jessup,20794.0,8635 Old Dorsey Run Rd,39.1324398,-76.7963007,meta,2025-06-02T07:00:00.000Z,0.9784508333782836,21656909-2111-4427-b4b0-65665dd78d4b,Maxim Crane Works,industrial,industrial,OpenStreetMap,2023-12-09T15:27:18.000Z,,baltimore,False
723f733f-3314-4d0b-b80b-08028a6f165e,Maxim Healthcare Services,hospital,"['health_and_medical', 'pharmacy']",MD,Columbia,21046.0,6992 Columbia Gateway Dr,39.17824,-76.80306,meta,2025-06-02T07:00:00.000Z,0.4929396662387676,375bfcf0-4859-46b3-b440-4de55ba8ab50,,commercial,office,OpenStreetMap,2023-01-03T03:00:58.000Z,,baltimore,False
df580d84-d8b0-434e-924c-97b4dbbf25b5,Maxim Healthcare Services,home_health_care,"['personal_care_service', 'corporate_office', 'health_and_medical', 'private_establishments_and_corporates']",MD,Towson,21204.0,40 York Rd Ste 200,39.395490065217,-76.6037553548813,Microsoft,2013-01-28T00:11:36.937Z,0.77,,,,,,,,baltimore,True
a4c6fb33-8d95-4d4a-b3ef-bf0f95eea618,Maxim Healthcare,home_health_care,"['hospital', 'health_and_medical']",MD,Lutherville Timonium,21093.0,1954 Greenspring Dr,39.4331412,-76.6330195,meta,2025-06-02T07:00:00.000Z,0.9784508333782836,39f9e50d-57ef-4931-9fa6-b59619170047,Timonium Two,,,OpenStreetMap,2022-02-01T03:36:59.000Z,,baltimore,False
6c05ff50-9250-40b3-8092-17e0b92129da,"Maxim Healthcare Services Harrisburg, PA Regional Office",home_health_care,"['hospital', 'health_department']",PA,Harrisburg,17110.0,2550 Interstate Dr,40.3080221,-76.8463377,meta,2025-06-02T07:00:00.000Z,0.9784508333782836,b0e32c61-8713-4e3e-b438-b2f75c760291,,commercial,commercial,OpenStreetMap,2024-12-07T02:14:38.000Z,,harrisburg,True
a7e01506-b16c-4ac6-9919-eeeb79262aee,"Maxim Healthcare Services Worcester, MA Regional Office",home_health_care,"['health_department', 'nurse_practitioner']",MA,Worcester,1606.0,40 Millbrook St,42.2880013,-71.8023165,meta,2025-06-02T07:00:00.000Z,0.9784508333782836,b60c475a-ded9-4129-86f3-b0b116d095a2,,,,OpenStreetMap,2019-05-22T12:07:54.000Z,,worcester,True
81da114c-baf9-4799-980f-09ff720c715d,Maxim Crane Works,industrial_equipment,"['b2b_machinery_and_tools', 'hydraulic_equipment_supplier', 'crane_services', 'business_equipment_and_supply', 'business_to_business']",SC,Columbia,29201.0,1700 Bluff Rd,33.967746,-81.012567,Microsoft,2019-03-06T20:56:00.027Z,0.77,,,,,,,,columbia-south-carolina,False
cf7d1dff-2381-4338-98e5-263bacf01355,Maxim Crane Works,industrial_equipment,"['commercial_industrial', 'professional_services']",SC,Columbia,29201.0,1700 Bluff Rd,33.9658877,-81.0046653,meta,2025-06-02T07:00:00.000Z,0.9459263554653524,9c366702-07a1-49d4-8348-b3959a0765a7,,,,OpenStreetMap,2017-12-21T17:23:49.000Z,,columbia-south-carolina,False
6d82d59f-433a-450b-b787-d453c6a1a8c6,Amanda & Maxim Luxury Real Estate Team,real_estate_agent,"['real_estate', 'real_estate_service']",NC,Cary,27519.0,100 Connemara Dr,35.7923842,-78.8700941,meta,2025-06-02T07:00:00.000Z,0.8980891719745223,03ce61cd-9140-4ce3-976b-3c6b36df3dfd,Coldwell Banker Howard Perry and Walston,commercial,commercial,OpenStreetMap,2019-02-18T04:59:33.000Z,,raleigh,False
ae51b2a9-ebe4-4295-b96f-38adf738c329,US Maxim Beauty Supply,beauty_and_spa,"['hair_supply_stores', 'janitorial_services']",NC,Raleigh,27610.0,3943 New Bern Ave,35.8007668,-78.5691427,meta,2025-06-02T07:00:00.000Z,0.9204819277108434,24fc79cb-9954-4337-9871-72a6db248d81,,,,OpenStreetMap,2015-12-04T06:28:21.000Z,,raleigh,False
637089ef-6404-49fd-9470-dd111f0252e3,"Maxim Healthcare Services Raleigh, NC Regional Office",home_health_care,"['nurse_practitioner', 'hospital']",NC,Raleigh,27615.0,8521 Six Forks Rd,35.8959233,-78.6518682,meta,2025-06-02T07:00:00.000Z,0.9459263554653524,,,,,,,,raleigh,True
e2f558d1-9c71-4852-a403-e5cfef10ae7b,Maxim Consulting Group,professional_services,['marketing_agency'],CO,Englewood,80112.0,9800 Pyramid Ct,39.5371969,-104.8657882,meta,2025-06-02T07:00:00.000Z,0.8860580325548478,2c8bcc50-044d-4002-8610-bba6e6c6e891,,commercial,commercial,OpenStreetMap,2025-02-03T16:22:14.000Z,,denver,False
bcdc31d6-6bc4-4a8a-9bb5-3df65550ca77,"Maxim Healthcare Services Denver, CO Regional Office",home_health_care,"['personal_care_service', 'health_and_medical']",CO,Denver,80203.0,455 N Sherman St Ste 510,39.7232825,-104.985444,Microsoft,2025-05-10T08:27:30.180Z,0.77,6e997496-474f-412f-8dff-70254afc6fc3,,commercial,commercial,OpenStreetMap,2019-03-17T17:28:56.000Z,,denver,True
f9ca19b3-7c7b-47f0-a0a6-912f8076a3e3,Maxim Healthcare Denver,home_health_care,"['hospital', 'nurse_practitioner']",CO,Denver,80203.0,455 N Sherman St,39.723308,-104.9852392,meta,2025-06-02T07:00:00.000Z,0.9784508333782836,6e997496-474f-412f-8dff-70254afc6fc3,,commercial,commercial,OpenStreetMap,2019-03-17T17:28:56.000Z,,denver,False
f2a6de50-f115-47c4-b339-b9a6b71fdefe,Maxim Healthcare Services,home_health_care,"['personal_care_service', 'health_and_medical']",CO,Denver,80211.0,2460 W 26th Ave Ste 217C,39.75476525723934,-105.01670926809312,Microsoft,2016-12-02T21:45:41.523Z,0.77,,,,,,,,denver,False
58956ff2-2360-4875-9c87-865d02bbcda3,MAXIM Tires,tire_dealer_and_repair,"['automotive', 'parking']",CO,Denver,80216.0,4020 Steele St,39.7731545,-104.9492974,meta,2025-06-02T07:00:00.000Z,0.9784508333782836,cb193483-f508-4289-9fa9-8b751a271495,,,,Microsoft ML Buildings,2023-09-01T00:00:00.000Z,0.9840999841690063,denver,False
58956ff2-2360-4875-9c87-865d02bbcda3,MAXIM Tires,tire_dealer_and_repair,"['automotive', 'parking']",CO,Denver,80216.0,4020 Steele St,39.7731545,-104.9492974,meta,2025-06-02T07:00:00.000Z,0.9784508333782836,1276babf-74c4-4385-8717-46a275d86c8c,,,,Microsoft ML Buildings,2023-09-01T00:00:00.000Z,0.9968000054359436,denver,False
a60fae51-6117-40a9-b624-e0108a1ae98f,"Maxim Healthcare Services Fresno, CA Regional Office",home_health_care,"['hospital', 'medical_service_organizations']",CA,Fresno,93710.0,6051 N Fresno St,36.8239346,-119.7829442,meta,2025-06-02T07:00:00.000Z,0.9784508333782836,13c3d83f-98e6-4fd1-a5d2-4cbd741bb242,,,,OpenStreetMap,2012-07-14T06:10:50.000Z,,fresno,True
223e0d08-0f83-450e-85d1-a628eebd12a8,W1AW Hiram Percy Maxim Memorial Station,museum,,CT,Newington,6111.0,225 Main St,41.7147932,-72.7274207,meta,2025-06-02T07:00:00.000Z,0.909823677581864,,,,,,,,hartford,False
1e2cafcc-9b76-4064-9863-89cdf2c1fd8a,Maxim Photo Studio,professional_services,"['event_photography', 'videographer']",TN,Nashville,37209.0,438 Becanni Ln,36.1564073,-86.8734772,meta,2025-06-02T07:00:00.000Z,0.9297091412742382,1602853a-65b6-411a-99ee-1cf00abd1642,,,,Esri Community Maps,2024-10-15T00:00:00.000Z,,nashville-davidson,False
1e2cafcc-9b76-4064-9863-89cdf2c1fd8a,Maxim Photo Studio,professional_services,"['event_photography', 'videographer']",TN,Nashville,37209.0,438 Becanni Ln,36.1564073,-86.8734772,meta,2025-06-02T07:00:00.000Z,0.9297091412742382,27d79827-cd1d-4594-91d8-5ba7a28ec911,,,,Esri Community Maps,2024-10-15T00:00:00.000Z,,nashville-davidson,False
6ab4d8b9-c5d5-4461-b0b1-b4bf9ecfcaaf,Maxim Crane Works,industrial_equipment,"['professional_services', 'industrial_company']",TN,La Vergne,37086.0,150 Waldron Rd,36.0161597,-86.5807937,meta,2025-06-02T07:00:00.000Z,0.9459263554653524,,,,,,,,nashville-davidson,False
ea1f1fd1-04db-46d9-a95c-5a765e48b83b,"Maxim Healthcare Services Nashville, TN Regional Office",home_health_care,"['health_department', 'nurse_practitioner']",TN,Brentwood,37027.0,115 E Park Dr,36.0355044,-86.7925885,meta,2025-06-02T07:00:00.000Z,0.9784508333782836,2a4d51c0-38d8-4d34-a08d-8fdb6c6f51ab,,commercial,commercial,OpenStreetMap,2019-11-11T16:54:13.000Z,,nashville-davidson,True
b3d43ace-40e6-456d-9d9f-5ee477409547,Maxim Healthcare - Nashville Pediatrics,retirement_home,"['hospital', 'pediatrician']",TN,Nashville,37212.0,2416 21st Ave S,36.1266008,-86.8038303,meta,2025-06-02T07:00:00.000Z,0.4929396662387676,46072408-7fef-4d2c-8ba9-97a70541b3ab,,,,OpenStreetMap,2019-10-16T16:04:20.000Z,,nashville-davidson,False
b3095f97-be0d-4bc0-abd2-f0e0531ea374,Maxim Crane Works,professional_services,"['industrial_equipment', 'industrial_company']",TN,Nashville,37217.0,307 Wilhagan Rd,36.1333893,-86.719092,meta,2025-06-02T07:00:00.000Z,0.9297091412742382,,,,,,,,nashville-davidson,False
4407192e-d54b-4775-ac6b-d884b0e22bca,"Maxim Healthcare Services Knoxville, TN Regional Office",home_health_care,"['hospital', 'nurse_practitioner']",TN,Knoxville,37932.0,10024 Investment Dr,35.9259339,-84.1272678,meta,2025-06-02T07:00:00.000Z,0.9784508333782836,,,,,,,,knoxville,True
a3734a22-f0d6-4aa0-8c06-d6f2115b8574,"Maxim Healthcare Services Colorado Springs, CO Regional Office",home_health_care,"['hospital', 'health_and_medical']",CO,Colorado Springs,80920.0,7150 Campus Dr,38.9350704,-104.8112251,meta,2025-06-02T07:00:00.000Z,0.9784508333782836,,,,,,,,colorado-springs,True
0920f9e3-4961-4d4e-a268-a5dc7b0425b5,Maxim Integrated Products,commercial_industrial,"['b2b_electronic_equipment', 'professional_services']",OR,Beaverton,97005.0,14320 SW Jenkins Rd,45.50208,-122.825283,meta,2025-06-02T07:00:00.000Z,0.7548172757475083,a47dae47-0c44-436a-9be2-a26fa7387ba9,,industrial,industrial,OpenStreetMap,2022-12-19T03:39:35.000Z,,portland,False
ecd4122c-ee4a-4944-b90e-8fc6f5e9ec69,"Maxim Healthcare Services Portland, OR Regional Office",home_health_care,"['personal_care_service', 'health_and_medical']",OR,Portland,97223.0,10220 SW Greenburg Rd Ste 500,45.445712,-122.773902,Microsoft,2025-05-10T08:27:34.660Z,0.77,0536ee9a-53a8-4b9d-9f20-2c6fd81d55c2,,commercial,office,OpenStreetMap,2021-12-10T18:35:39.000Z,,portland,True
d71e1cc5-991c-4e4b-9f90-deaed070ca0c,"Maxim Healthcare Portland, OR",home_health_care,"['nurse_practitioner', 'retirement_home']",OR,Portland,97223.0,10220 SW Greenburg Rd,45.4463572,-122.7734196,meta,2025-06-02T07:00:00.000Z,0.9784508333782836,,,,,,,,portland,False
9f72a93a-64bb-473a-98d5-97eda802789a,Maxim Auto Care,automotive_repair,"['tire_dealer_and_repair', 'automotive']",OR,Portland,97214.0,1024 SE Stephens St,45.5092972,-122.6551044,meta,2025-06-02T07:00:00.000Z,0.9784508333782836,47c4e1d2-cef8-468d-9cb9-b535f1324aa5,Space Down Under,,,OpenStreetMap,2025-04-17T19:06:40.000Z,,portland,False
9f72a93a-64bb-473a-98d5-97eda802789a,Maxim Auto Care,automotive_repair,"['tire_dealer_and_repair', 'automotive']",OR,Portland,97214.0,1024 SE Stephens St,45.5092972,-122.6551044,meta,2025-06-02T07:00:00.000Z,0.9784508333782836,ea2a1abf-e6eb-46d3-9a36-4a7ff3472f8c,,,,OpenStreetMap,2025-04-17T19:06:40.000Z,,portland,False
84610fbd-401b-46da-9ceb-cabed49186cb,"Maxim Healthcare Services Buffalo, NY Regional Office",home_health_care,"['hospital', 'health_and_medical']",NY,Buffalo,14204.0,500 Seneca St,42.8778288,-78.8569626,meta,2025-06-02T07:00:00.000Z,0.9784508333782836,5563cd09-af97-48d3-a1dc-559b6915967d,500 Seneca,,,OpenStreetMap,2022-06-18T03:56:17.000Z,,buffalo,True
6ca0f040-6870-4dae-b355-c07f65fb3239,Maxim Crane Works,industrial_equipment,"['commercial_industrial', 'industrial_company']",GA,Mableton,30126.0,1560 Veterans Memorial Hwy SE,33.7953221,-84.5110754,meta,2025-06-02T07:00:00.000Z,0.9784508333782836,,,,,,,,atlanta,False
40561497-d02f-474f-a2bb-c3a2a00cf3f8,Maxim Healthcare Services,home_health_care,"['hospital', 'nurse_practitioner']",GA,Atlanta,30339.0,6425 Powers Ferry Rd NW,33.9046182,-84.432806,meta,2025-06-02T07:00:00.000Z,0.9297091412742382,ee6b70c1-c52c-404f-9f1c-9d78b17b1123,,commercial,office,OpenStreetMap,2014-07-22T02:51:47.000Z,,atlanta,False
9fd0d386-7e5f-49a0-a792-9165bba54d0a,Maxim Barbers,barber,"['beauty_and_spa', 'beauty_salon']",GA,Decatur,30030.0,218 E Ponce de Leon Ave,33.7756888,-84.294021,meta,2025-06-02T07:00:00.000Z,0.9784508333782836,2ad17856-9880-4b1a-b1d7-37a4a6b3b9c8,Decatur Renaissance,,,OpenStreetMap,2025-04-10T11:02:45.000Z,,atlanta,False
cd51493d-8f06-458b-9691-277e6ff13fba,King Maxim Nail Supply,beauty_salon,"['cosmetic_and_beauty_supplies', 'spas']",GA,Atlanta,30340.0,5366 Buford Hwy NE,33.898895,-84.279744,meta,2025-06-02T07:00:00.000Z,0.3376623376623376,47c2a9ab-374d-4395-b142-046c655e2c55,,,,OpenStreetMap,2016-06-04T00:59:45.000Z,,atlanta,False
a1b7510f-d9cd-4d9a-af05-ac0dac29e69c,Atlanta Maxim Realty International,property_management,"['real_estate', 'real_estate_agent']",GA,Norcross,30093.0,6141 Oakbrook Pkwy,33.910642,-84.20665,meta,2025-06-02T07:00:00.000Z,0.3961437335670464,7b136245-3a91-494d-9782-976a0136a45a,,,,OpenStreetMap,2015-12-28T16:33:53.000Z,,atlanta,False
b98024e1-aea2-449c-8772-b77ce2102039,The Maxim Clinic,medical_spa,"['nutritionist', 'health_and_medical']",GA,Norcross,30093.0,5880 Live Oak Pkwy,33.9117417,-84.1997963,meta,2025-06-02T07:00:00.000Z,0.8148148148148148,79de4c4e-066e-4d05-ba54-3c735f1b2875,,commercial,commercial,OpenStreetMap,2024-09-04T18:47:30.000Z,,atlanta,False
d79b6a01-fdb2-4353-ab29-64e280b23f62,NDI Maxim Management,property_management,"['real_estate', 'real_estate_agent']",GA,Duluth,30096.0,4500 Satellite Blvd,33.9613246,-84.2481208,meta,2025-06-02T07:00:00.000Z,0.9459263554653524,,,,,,,,atlanta,False
f113c3aa-f404-415e-9938-c8bb2614bff0,Atlanta Maxim Realty International,real_estate,"['real_estate_agent', 'commercial_real_estate']",GA,Peachtree Corners,30092.0,6251 Smithpointe Dr NW,33.9613793,-84.2480659,meta,2025-06-02T07:00:00.000Z,0.909823677581864,,,,,,,,atlanta,False
e37ee38d-a233-4c89-93cb-5c796c391fc5,US Maxim Beauty Supplies of Atlanta,wholesale_store,"['cosmetic_and_beauty_supplies', 'department_store']",GA,Peachtree Corners,30071.0,6376 Corley Rd NW,33.9322193,-84.2327205,meta,2025-06-02T07:00:00.000Z,0.9879256218304756,6d63b885-89ce-4254-8719-cb793fb93461,,,,OpenStreetMap,2015-06-12T22:15:44.000Z,,atlanta,False
01002aa3-6857-4637-9b4c-0c4002f4460e,"Luis Hernandez, NDI Maxim Commercial",real_estate_agent,"['real_estate', 'professional_services']",GA,Duluth,30096.0,4500 Satellite Blvd,33.9426257,-84.1591121,meta,2025-06-02T07:00:00.000Z,0.909823677581864,8357145b-d709-4246-ad53-97fb7a674c5a,,,,OpenStreetMap,2021-11-05T08:12:49.000Z,,atlanta,False
e84d9bde-6443-468c-8786-f8f98481222f,MAXIM ReGen,medical_center,['health_and_medical'],GA,Duluth,30097.0,10700 Medlock Bridge Rd Ste 104A,34.0415675,-84.1851331,Microsoft,2021-11-09T22:15:05.887Z,0.77,fabca79e-8377-44a3-8606-49808aafa65d,,,,OpenStreetMap,2023-08-03T19:04:55.000Z,,atlanta,False
9352bbbc-c8fb-4256-8ea9-e8eeb7ae6c51,"Maxim Healthcare Services Valencia, CA Regional Office",home_health_care,"['hospital', 'health_and_medical']",CA,Valencia,91355.0,28470 Avenue Stanford,34.44054,-118.5975113,meta,2025-06-02T07:00:00.000Z,0.9784508333782836,27dea2cd-87de-4f46-bfa9-058991b6c653,,commercial,commercial,OpenStreetMap,2017-02-06T11:02:45.000Z,,santa-clarita,True
673fcefe-ba47-47d4-a397-ebdb6ac0ebad,"Maxim Healthcare Services Salt Lake City, UT Regional Office",home_health_care,"['hospital', 'health_and_medical']",UT,Sandy,84070.0,9815 S Monroe St,40.5734752,-111.8979666,meta,2025-06-02T07:00:00.000Z,0.9415384615384615,4adda050-9538-429f-9ecf-4ac52797b4ef,,,,OpenStreetMap,2025-02-10T02:18:30.000Z,,salt-lake-city,True
59208941-a8c9-4d8f-86c8-7799c718327e,"Maxim Healthcare Services Daytona Beach, FL Regional Office",home_health_care,"['hospital', 'health_and_medical']",FL,Daytona Beach,32117.0,1530 Cornerstone Blvd,29.2220158,-81.0944913,meta,2025-06-02T07:00:00.000Z,0.9784508333782836,8f9bddbf-8fff-40d5-8ebb-45b43d482173,,,,OpenStreetMap,2016-06-21T00:53:24.000Z,,daytona-beach-port-orange,True
