id_left,primary_name_left,primary_category,alternate_category,id_right,primary_name_right,subtype,class,source_city,region,locality,zipcode,address,latitude,longitude,plc_source_dataset,plc_source_update_time,plc_source_confidence,bldg_dataset,bldg_update_time,bldg_confidence,is_office_by_pipeline
473721c9-f761-443b-84ee-abd55cde6d40,FPL,energy_company,"['public_utility_company', 'topic_concert_venue']",,,,,orlando,FL,Sanford,32771.0,412 W 6th St,28.80719,-81.27127,meta,2025-06-02T07:00:00.000Z,0.296943231441048,,,,False
d2908a83-47e5-470c-a5f6-126ed71b2773,FPL & Associates,engineering_services,"['contractor', 'professional_services']",,,,,los-angeles,CA,Irvine,92606.0,30 Corporate Park,33.6886833,-117.8280725,meta,2025-06-02T07:00:00.000Z,0.9204819277108434,,,,False
d2908a83-47e5-470c-a5f6-126ed71b2773,FPL & Associates,engineering_services,"['contractor', 'professional_services']",,,,,mission-viejo,CA,Irvine,92606.0,30 Corporate Park,33.6886833,-117.8280725,meta,2025-06-02T07:00:00.000Z,0.9204819277108434,,,,False
21c26fde-b9d5-4432-a512-dc0ee571634a,FPL,public_utility_company,"['energy_company', 'active_life']",,,,,daytona-beach-port-orange,FL,Port Orange,32129.0,3000 Spruce Creek Rd,29.1400531,-80.9992941,meta,2025-06-02T07:00:00.000Z,0.9297091412742382,,,,False
9758423d-82fd-499e-b7f8-54fe48fc18a8,Florida Power & Light Co.,public_utility_company,"['energy_company', 'public_service_and_government']",539df244-36bf-480b-951a-469789e6a7d8,,,,daytona-beach-port-orange,FL,Port Orange,32129.0,3000 Spruce Creek Rd,29.140483,-80.998567,meta,2025-06-02T07:00:00.000Z,0.5662921348314607,OpenStreetMap,2021-07-03T21:19:57.000Z,,False
548aed54-b001-46e4-b198-72d6dc9fcea4,FPL,public_utility_company,"['energy_company', 'electric_utility_provider']",62d5f499-79ea-422d-a088-b9d70ff02731,FPL,,,daytona-beach-port-orange,FL,Daytona Beach,32114.0,425 N Williamson Blvd,29.194739,-81.083523,meta,2025-06-02T07:00:00.000Z,0.242152466367713,OpenStreetMap,2022-10-03T07:15:17.000Z,,False
393d44e5-514b-46b3-875e-5b7d886a08ce,FPL Volusia Substation,public_utility_company,"['energy_company', 'public_service_and_government']",,,,,daytona-beach-port-orange,FL,Daytona Beach,32114.0,1025 N Williamson Blvd,29.21013,-81.0866025,meta,2025-06-02T07:00:00.000Z,0.9297091412742382,,,,False
1b6c69eb-5ff8-46f9-b230-8d5583688a7d,FPL Ormond Service Center,public_service_and_government,['public_utility_company'],,,,,daytona-beach-port-orange,FL,Ormond Beach,32174.0,330 Hand Ave,29.2701623,-81.0600501,meta,2025-06-02T07:00:00.000Z,0.9300613496932516,,,,False
419a495d-996c-42a1-81b5-c00c0612935e,Fpl Energy,energy_company,"['public_utility_company', 'professional_services']",66cb00d9-f50b-453d-a969-a19ee502a7c6,,,,providence,RI,Johnston,2919.0,24 Shun Pike,41.8019185,-71.5183275,meta,2025-06-02T07:00:00.000Z,0.3376623376623376,OpenStreetMap,2012-04-18T20:03:09.000Z,,False
a21c9e4f-ccea-4555-aa38-594e6bb3f60d,Fpl 1960,dry_cleaning,"['bar', 'laundromat']",d63ff44f-358f-4d3c-a64a-86b22a508371,,,,chicago,IL,Chicago,60614.0,1960 N Lincoln Park W,41.9172052,-87.6365746,meta,2025-06-02T07:00:00.000Z,0.296943231441048,OpenStreetMap,2024-05-22T22:36:03.000Z,,False
a21c9e4f-ccea-4555-aa38-594e6bb3f60d,Fpl 1960,dry_cleaning,"['bar', 'laundromat']",8be92eb4-8a87-4bbc-bea0-d565777939cc,,,,chicago,IL,Chicago,60614.0,1960 N Lincoln Park W,41.9172052,-87.6365746,meta,2025-06-02T07:00:00.000Z,0.296943231441048,OpenStreetMap,2013-03-18T03:26:08.000Z,,False
a21c9e4f-ccea-4555-aa38-594e6bb3f60d,Fpl 1960,dry_cleaning,"['bar', 'laundromat']",91fe7835-dc93-4a27-a4f5-0c275ea4c88c,,,,chicago,IL,Chicago,60614.0,1960 N Lincoln Park W,41.9172052,-87.6365746,meta,2025-06-02T07:00:00.000Z,0.296943231441048,OpenStreetMap,2013-03-18T03:25:53.000Z,,False
2a7e834f-01ea-4ed2-9e8e-01810a856755,FPL-900 S Wabash,dry_cleaning,,ea737a1c-1cab-49c1-b57e-a3ceea7a2be7,Fairbanks Morse Building,residential,residential,chicago,IL,Chicago,60605.0,900 S Wabash Ave,41.87041,-87.62638,meta,2025-06-02T07:00:00.000Z,0.3376623376623376,OpenStreetMap,2024-07-26T17:12:31.000Z,,False
46b6b70e-1cbe-4a08-818b-71e33761b04a,FPL 600 W Diversey,dry_cleaning,"['topic_concert_venue', 'laundromat']",4b1b764b-ca77-4d4c-b865-2fa04498433b,,,,chicago,,,60614.0,600 W Diversey Pkwy,41.933071,-87.644104,meta,2025-06-02T07:00:00.000Z,0.4929396662387676,OpenStreetMap,2022-08-12T20:50:26.000Z,,False
46b6b70e-1cbe-4a08-818b-71e33761b04a,FPL 600 W Diversey,dry_cleaning,"['topic_concert_venue', 'laundromat']",83dc9575-dc5a-4ad0-82ab-cdbf4644ef4c,,commercial,retail,chicago,,,60614.0,600 W Diversey Pkwy,41.933071,-87.644104,meta,2025-06-02T07:00:00.000Z,0.4929396662387676,OpenStreetMap,2023-04-16T15:28:10.000Z,,False
0e371647-a58c-477c-a7d8-2648e078b29e,FPL-420 W Surf,landmark_and_historical_building,['fountain'],a2e6f1c7-8f80-4a92-b335-d5a622f518d3,,residential,apartments,chicago,IL,Chicago,60657.0,420 W Surf St,41.934587,-87.640284,meta,2025-06-02T07:00:00.000Z,0.242152466367713,OpenStreetMap,2022-11-29T04:22:32.000Z,,False
27cc9e0f-8460-48ba-86bc-42f4bb1adc24,FPL Golden Gate Service Center,community_center,"['public_service_and_government', 'electric_utility_provider']",f4ba4c33-d71c-407e-84c1-23ad6288330f,,,,bonita-springs-naples,FL,Naples,34116.0,4105 15th Ave SW,26.2019606,-81.6893616,meta,2025-06-02T07:00:00.000Z,0.9300613496932516,OpenStreetMap,2017-09-11T19:46:35.000Z,,False
3d615278-2ba4-410a-8575-d5d6898ae4b0,Florida Power & Light,public_utility_company,"['lighting_store', 'energy_company']",5c1f47ca-5a63-4972-a86a-6f4a691f2843,,,,palm-bay-melbourne,FL,Palm Bay,32905.0,4501 Lipscomb St NE,28.041378,-80.605496,meta,2025-06-02T07:00:00.000Z,0.296943231441048,OpenStreetMap,2013-11-17T16:55:42.000Z,,False
8b3431e9-9a67-4374-b8fa-07522d8dbc02,Florida Power & Light Co.,public_utility_company,"['lighting_store', 'energy_company']",1ada60e0-e896-4f87-9bac-67b68b0cf11b,,,,miami,FL,Homestead,33035.0,9760 SW 344th St,25.44587,-80.35292,meta,2025-06-02T07:00:00.000Z,0.3376623376623376,OpenStreetMap,2016-08-05T03:07:52.000Z,,False
ba740fb8-a4dd-4318-ad82-8be294fdfd48,FPL Turkey Point Nuclear Generating Station,electric_utility_provider,"['public_utility_company', 'public_service_and_government']",,,,,miami,FL,Homestead,33035.0,9700 SW 344th St,25.4344768,-80.3310513,meta,2025-06-02T07:00:00.000Z,0.9415384615384615,,,,False
17c411bd-3585-4c2c-ab3e-b62e82ddac0f,FPL gym,health_and_medical,"['active_life', 'gym']",e629f8cf-1578-4363-bde3-a07040373dc3,,,,miami,FL,Miami,33134.0,4200 W Flagler St,25.770687,-80.26465,meta,2025-06-02T07:00:00.000Z,0.3376623376623376,OpenStreetMap,2024-06-01T22:16:14.000Z,,False
df9e31f7-3aad-4153-84c7-6fcdcfa47eaa,Florida Power & Light LFO,public_utility_company,"['public_service_and_government', 'lighting_store']",e629f8cf-1578-4363-bde3-a07040373dc3,,,,miami,FL,Miami,33134.0,4200 W Flagler St,25.7710231,-80.264382,meta,2025-06-02T07:00:00.000Z,0.9459263554653524,OpenStreetMap,2024-06-01T22:16:14.000Z,,False
66dd0db8-7ef1-4a66-9be2-1f4bb5c0f79d,Florida Power & Light Co.,public_utility_company,"['lighting_store', 'electrician']",481d6a49-1fd6-4f29-bb7b-6dd18f5b5e33,,,,miami,FL,Miami,33166.0,6195 NW 82nd Ave,25.829719,-80.32942,meta,2025-06-02T07:00:00.000Z,0.3961437335670464,OpenStreetMap,2016-08-05T01:02:28.000Z,,False
36916a8a-5768-4de9-baca-799c913b3100,FPL,public_service_and_government,['event_planning'],c46dc0db-aa5d-4d9b-910d-5dd47904f78f,,,,miami,FL,Miami,33166.0,6001 NW 70th Ave,25.8293192,-80.3105786,meta,2025-06-02T07:00:00.000Z,0.8860580325548478,OpenStreetMap,2016-08-03T23:07:51.000Z,,True
001dd1d3-9bb2-4f25-a8c3-db9234e54db5,Fpl Power To Care Facility,campus_building,"['electric_utility_provider', 'college_university']",65e7aa23-c77a-4874-8505-fb8ab17f427d,,,,miami,FL,Miami,33136.0,1545 NW 7th Ave,25.789901,-80.2067045,meta,2025-06-02T07:00:00.000Z,0.9784508333782836,OpenStreetMap,2017-03-15T15:50:06.000Z,,True
fe974dfa-1830-4984-af39-fe162bce8cf0,FPL,public_utility_company,"['energy_company', 'insurance_agency']",e97e0656-0377-4a74-8990-ee39b808c7eb,,,,miami,FL,Miami,33131.0,2 S Biscayne Blvd,25.774088,-80.188573,meta,2025-06-02T07:00:00.000Z,0.296943231441048,OpenStreetMap,2017-01-23T06:03:14.000Z,,False
8201d0cf-e304-41e2-adbd-0279f57c99e0,FPL Solar Amphitheater,theaters_and_performance_venues,"['music_venue', 'theatre']",18e2ba09-4739-499e-a382-2692f287be17,FPL Solar Amphitheater at Bayfront Park,outbuilding,roof,miami,FL,Miami,33132.0,301 Biscayne Blvd,25.7762621,-80.186091,meta,2025-06-02T07:00:00.000Z,0.9784508333782836,OpenStreetMap,2025-04-25T22:15:23.000Z,,False
5646d11b-2084-4856-b063-2e6380906571,Florida Power & Light,public_utility_company,"['public_service_and_government', 'energy_company']",c18eb7ab-3d45-4e3d-9177-b5307d3103eb,,,,miami,FL,Miami Gardens,33014.0,5110 NW 159th St,25.9155665,-80.28259,meta,2025-06-02T07:00:00.000Z,0.5662921348314607,OpenStreetMap,2016-08-05T22:15:54.000Z,,False
391478f9-8d82-4f27-9c63-f09dbd9fcab0,Florida Power & Light Co.,public_utility_company,"['energy_company', 'topic_concert_venue']",d214e302-6e5e-4efb-987f-ad897cc0475e,,residential,house,miami,FL,Miami,33169.0,398 NW 203rd Ter,25.961607,-80.210091,meta,2025-06-02T07:00:00.000Z,0.4929396662387676,OpenStreetMap,2019-05-14T16:24:00.000Z,,False
7159c630-ff0e-4de8-81c4-709ddf8b1197,FPL Gulfstream Service Center,automotive_repair,"['public_utility_company', 'public_service_and_government']",490669b6-140f-4f10-a0ee-287a8f1b0f8e,,,,miami,,,33024.0,,26.0427779,-80.2339675,meta,2025-06-02T07:00:00.000Z,0.9784508333782836,OpenStreetMap,2022-03-15T20:07:28.000Z,,False
d888dffc-d7a4-424d-8521-a94e2c3673ba,Fort Lauderdale FPL Power Plant,energy_company,"['electric_utility_provider', 'public_utility_company']",,,,,miami,FL,Dania Beach,33314.0,4300 SW 42nd Ave,26.0679655,-80.2015792,meta,2025-06-02T07:00:00.000Z,0.9300613496932516,,,,False
050edc4a-0943-4dbb-88f1-0a7df8348a88,FPL,public_utility_company,"['topic_concert_venue', 'energy_company']",,,,,miami,FL,Sunrise,33323.0,4401 NW 112th Ave,26.1794988,-80.299541,meta,2025-06-02T07:00:00.000Z,0.296943231441048,,,,False
bd7dae2e-8493-4b92-a9d5-f612b83fca6c,Florida Power & Light Co.,public_utility_company,['lighting_store'],96553a70-f099-4b8c-9559-a56d44eea897,,,,miami,FL,Lauderhill,33319.0,7200 NW 45th St,26.180319,-80.246134,meta,2025-06-02T07:00:00.000Z,0.3376623376623376,OpenStreetMap,2024-01-30T18:43:04.000Z,,False
f066d421-951c-4240-ace0-357c0d6fa8cc,FPL,electric_utility_provider,"['public_utility_company', 'topic_concert_venue']",,,,,miami,FL,Plantation,33317.0,7201 Cypress Rd,26.1245018,-80.2440459,meta,2025-06-02T07:00:00.000Z,0.9297091412742382,,,,False
6e7c9586-7ce5-4d73-b287-d26ebb4cab7a,FPL WingateService Center,electric_utility_provider,"['automotive_repair', 'public_utility_company']",7784753b-3e82-4417-8d78-2ff53893961a,,,,miami,FL,Fort Lauderdale,33311.0,3020 NW 19th St,26.1505244,-80.1853246,meta,2025-06-02T07:00:00.000Z,0.9784508333782836,OpenStreetMap,2024-02-13T16:32:29.000Z,,False
f1d052ba-f09b-48a5-85ba-6555be168b73,Florida Power & Light Co.,public_utility_company,"['energy_company', 'gas_station']",a000cd52-d4a5-4241-a1a5-30a69530998d,,,,miami,FL,Oakland Park,33311.0,2800 NW 17th Ter,26.161555,-80.164823,meta,2025-06-02T07:00:00.000Z,0.5662921348314607,OpenStreetMap,2021-04-25T13:58:04.000Z,,False
b2ec506d-032f-42a1-8bcf-c13edb712e67,Florida Power & Light,public_service_and_government,['public_utility_company'],,,,,miami,FL,Loxahatchee,33470.0,20505 Southern Blvd,26.6855,-80.3666,meta,2025-06-02T07:00:00.000Z,0.4929396662387676,,,,False
9cf0b473-6f64-42d5-9230-67ebda114cf6,FPL West County Power Generating Plant,jail_and_prison,"['industrial_company', 'central_government_office']",28ce1b6b-4225-4565-991c-39dc222f6bfc,,,,miami,FL,Loxahatchee,0.0,,26.701154,-80.3741888,meta,2025-06-02T07:00:00.000Z,0.4929396662387676,OpenStreetMap,2021-10-18T08:05:33.000Z,,False
06a9512f-4458-41eb-9d6f-32d1c6592c7e,FPL Plant @ Port Everglades,electric_utility_provider,['travel'],,,,,miami,FL,Fort Lauderdale,33316.0,8100 Eisenhower Blvd,26.0853351,-80.1256432,meta,2025-06-02T07:00:00.000Z,0.4929396662387676,,,,False
574f044b-e81c-43e4-bb29-7df7e1f71b73,FPL Pompano Service Center,energy_company,"['public_utility_company', 'public_service_and_government']",,,,,miami,FL,Pompano Beach,33069.0,330 SW 12th Ave,26.2253867,-80.137457,meta,2025-06-02T07:00:00.000Z,0.9415384615384615,,,,False
50df54ee-09f7-4566-b365-67d4d6fc1f2c,Florida Power & Light Company,public_utility_company,"['lighting_store', 'public_service_and_government']",38f77286-66f1-4b51-8f55-65c6ddb533de,,,,miami,FL,Boca Raton,33433.0,21400 Powerline Rd,26.358904,-80.152936,meta,2025-06-02T07:00:00.000Z,0.4929396662387676,Microsoft ML Buildings,2023-05-01T00:00:00.000Z,,True
50df54ee-09f7-4566-b365-67d4d6fc1f2c,Florida Power & Light Company,public_utility_company,"['lighting_store', 'public_service_and_government']",0b2e9236-7c18-4db2-ada9-24090e17935c,,,,miami,FL,Boca Raton,33433.0,21400 Powerline Rd,26.358904,-80.152936,meta,2025-06-02T07:00:00.000Z,0.4929396662387676,Microsoft ML Buildings,2023-05-01T00:00:00.000Z,,True
9a330164-ab47-4dfd-be89-2f1fada2f81b,Florida Power & Light Co.,public_utility_company,"['lighting_store', 'public_service_and_government']",,,,,miami,FL,Boynton Beach,33436.0,9293 S Military Trl,26.53819,-80.123235,meta,2025-06-02T07:00:00.000Z,0.3961437335670464,,,,False
9942050c-f663-4826-88cf-a59cf284514f,Lantana Substation FPL 199,public_utility_company,"['public_service_and_government', 'energy_company']",,,,,miami,FL,Lantana,33462.0,1301 Hypoluxo Rd,26.5727173,-80.0657236,meta,2025-06-02T07:00:00.000Z,0.909823677581864,,,,False
bbe605af-2eb1-4d44-b055-d7d5c5a94c46,FPL Jupiter West Office,public_utility_company,"['public_service_and_government', 'landmark_and_historical_building']",6d48869b-2396-47ef-8d8d-4e8b28044eb0,,commercial,commercial,miami,FL,Jupiter,33478.0,15430 Endeavor Dr,26.9053515,-80.2992574,meta,2025-06-02T07:00:00.000Z,0.9459263554653524,OpenStreetMap,2014-04-10T19:53:46.000Z,,True
8bcc6e78-05f4-4c28-aa2f-8f31a1906772,Fpl Command Center,real_estate,"['public_utility_company', 'energy_company']",4af98cdd-f5a1-4567-bd96-474d3871da69,,,,miami,FL,West Palm Beach,33407.0,4255 Up the Grv,26.763884,-80.10456,meta,2025-06-02T07:00:00.000Z,0.5662921348314607,OpenStreetMap,2022-03-19T21:18:32.000Z,,False
66ecf2bb-0032-4409-b21d-dc39de86eb7e,Florida Power & Light Co.,public_utility_company,"['energy_company', 'electric_utility_provider']",f9b0d283-db5e-4335-8bb1-12edbe64356f,,,,miami,FL,West Palm Beach,33407.0,4217 Upthegrove Ln,26.763715,-80.103189,meta,2025-06-02T07:00:00.000Z,0.3376623376623376,OpenStreetMap,2022-03-19T21:18:32.000Z,,False
232431fb-721e-44e8-8793-37e015cca20a,FPL PDC Central Warehouse,storage_facility,"['public_service_and_government', 'automotive_dealer']",7361bb18-2bdc-465b-9d4f-43f9626b0e11,,,,miami,FL,Riviera Beach,33407.0,2455 Port West Blvd,26.7686504,-80.1016746,meta,2025-06-02T07:00:00.000Z,0.5662921348314607,OpenStreetMap,2014-07-07T15:58:51.000Z,,False
01f1e3ad-2bb5-4ad8-8b32-7915a4de60de,FPL East Area Fleet Services,automotive_repair,"['automotive', 'professional_services']",5a8921f6-49fe-4c26-a1e0-76229c5a55f8,,,,miami,FL,Riviera Beach,33407.0,2457 Port West Blvd,26.7700677,-80.103905,meta,2025-06-02T07:00:00.000Z,0.9459263554653524,OpenStreetMap,2022-03-19T21:18:38.000Z,,False
d353b736-457d-4dc6-ad4d-171753a48664,Florida Power & Light Co Riviera Plant,engineering_services,"['water_supplier', 'public_utility_company']",8d1d82df-5218-402c-962c-46c35060ec13,,,,miami,FL,West Palm Beach,33407.0,3520 Broadway,26.74472,-80.05637,meta,2025-06-02T07:00:00.000Z,0.7548172757475083,OpenStreetMap,2021-04-24T09:35:48.000Z,,False
b485e266-5a00-4426-b774-f2a25c77df69,Florida Power & Light Co.,public_utility_company,['energy_company'],,,,,miami,FL,Riviera Beach,33404.0,300 Broadway,26.77194,-80.05499,meta,2025-06-02T07:00:00.000Z,0.296943231441048,,,,False
818c0765-24e5-443d-b4d0-f51cf4285e05,FPL,public_utility_company,"['energy_company', 'topic_concert_venue']",,,,,miami,FL,North Palm Beach,33408.0,11017 Highway A1a,26.8367092,-80.0493509,meta,2025-06-02T07:00:00.000Z,0.3376623376623376,,,,False
53673d23-6698-44cb-a83e-87d891efeb26,Florida Power & Light Co.,public_utility_company,"['energy_company', 'public_service_and_government']",ade4a170-46cd-4c20-8479-7acd373cb34a,,,,miami,FL,North Palm Beach,33408.0,11770 US Highway 1,26.848997,-80.058317,meta,2025-06-02T07:00:00.000Z,0.5662921348314607,OpenStreetMap,2017-03-02T04:59:16.000Z,,False
ceb872c6-e4bb-4daf-bfd3-539d5aa489de,NextEra Energy Resources,public_utility_company,"['event_planning', 'electric_utility_provider']",58436318-2886-49df-8bc1-56877a15ccaf,,,,miami,FL,Juno Beach,33408.0,700 Universe Blvd,26.8593652,-80.0585547,meta,2025-06-02T07:00:00.000Z,0.9784508333782836,OpenStreetMap,2023-05-23T05:06:50.000Z,,True
7387673f-f6d7-402e-99a9-a57ca671cc61,Florida Power & Light,energy_company,"['electric_utility_provider', 'social_service_organizations']",58436318-2886-49df-8bc1-56877a15ccaf,,,,miami,FL,Juno Beach,33408.0,700 Universe Blvd,26.8593505,-80.0583988,meta,2025-06-02T07:00:00.000Z,0.8253968253968254,OpenStreetMap,2023-05-23T05:06:50.000Z,,False
ec49c790-ef94-4b83-89df-e9fb6eb4ece2,Fpl-Well Health Centers,professional_services,['public_utility_company'],62f32ec4-0339-42e5-a52e-a6120b4d5571,,,,miami,FL,Juno Beach,33408.0,700 Universe Blvd,26.8602796,-80.0592213,meta,2025-06-02T07:00:00.000Z,0.9297091412742382,OpenStreetMap,2019-09-07T19:02:42.000Z,,False
f1a2fd22-f061-4f27-93b1-a75db2078d66,FPL Office of Economic Development,home_service,"['real_estate_agent', 'day_care_preschool']",62f32ec4-0339-42e5-a52e-a6120b4d5571,,,,miami,FL,Juno Beach,33408.0,700 Universe Blvd,26.8602796,-80.0592213,meta,2025-06-02T07:00:00.000Z,0.3313953488372093,OpenStreetMap,2019-09-07T19:02:42.000Z,,False
39db4890-cf89-4244-83fb-3fef2363e9fe,Florida Power & Light Co.,electrician,"['public_utility_company', 'public_service_and_government']",9f1c09cc-ac96-45a3-a140-a2532c4bac71,,,,miami,FL,Jupiter,33458.0,100 S Delaware Blvd,26.933039,-80.118325,meta,2025-06-02T07:00:00.000Z,0.5662921348314607,OpenStreetMap,2022-03-13T06:31:35.000Z,,False
5ba6406c-1bac-4b8b-9407-12ce90c2881f,Florida Power & Light Company,public_utility_company,"['lighting_store', 'energy_company']",0e051bb8-c371-4b90-b24e-3546c3c125a7,,,,sarasota-bradenton,FL,Sarasota,34233.0,5657 McIntosh Rd,27.2722874,-82.4803768,meta,2025-06-02T07:00:00.000Z,0.9297091412742382,OpenStreetMap,2021-06-22T20:46:22.000Z,,True
380a118c-6864-4249-9ce5-30d27065b5bf,FPL,public_utility_company,"['energy_company', 'gas_station']",179ec62a-3af1-4882-97bb-178f55b599b2,,,,sarasota-bradenton,FL,Bradenton,34208.0,3200 29th Ave E,27.473762,-82.524661,meta,2025-06-02T07:00:00.000Z,0.3376623376623376,OpenStreetMap,2019-08-09T14:36:03.000Z,,False
4c36baab-777f-4a26-8e04-50f2a55b266b,FPL Fort Myers Service Center,public_utility_company,"['public_service_and_government', 'electrician']",8d304960-93b8-4597-a6ae-39e0c782233f,,industrial,industrial,cape-coral,FL,Fort Myers,33901.0,1833 Lee St,26.6423,-81.8659262,meta,2025-06-02T07:00:00.000Z,0.9459263554653524,OpenStreetMap,2016-06-25T02:48:04.000Z,,False
52ca6be0-75f0-44e2-8cf7-d5d0c2a128b6,NextEra Energy Services,electricity_supplier,"['utility_service', 'b2b_energy_and_mining', 'business_to_business', 'retail']",a55d4e2b-94d8-44a2-aa6c-3ef49188e29d,JPMorgan Chase Center,commercial,office,houston,TX,Houston,77002.0,601 Travis St Ste 1400,29.759798,-95.363542,Microsoft,2025-05-23T18:47:32.970Z,0.77,OpenStreetMap,2022-12-31T20:39:25.000Z,,True
a2d3d387-b2ea-42cb-8776-f18520765bab,NextEra Energy Services,public_utility_company,"['public_service_and_government', 'energy_company']",9ba173c7-ae5c-41ab-9d68-8753be00651f,,,,houston,TX,Houston,77070.0,20455 State Highway 249,29.990871,-95.575414,meta,2025-06-02T07:00:00.000Z,0.5662921348314607,OpenStreetMap,2018-10-09T19:31:34.000Z,,False
