id_left,primary_name_left,primary_category,alternate_category,id_right,primary_name_right,subtype,class,source_city,region,locality,zipcode,address,latitude,longitude,plc_source_dataset,plc_source_update_time,plc_source_confidence,bldg_dataset,bldg_update_time,bldg_confidence,is_office_by_pipeline
bc3bf035-fca6-4772-abeb-c3b47b506da3,Nucor Skyline,iron_and_steel_industry,"['metal_fabricator', 'iron_and_steel_store', 'wholesaler', 'metals', 'business_equipment_and_supply', 'business_to_business']",8abda38b-a200-4d09-879b-ac45b5b60597,,,,washington-dc,VA,Springfield,22150.0,7426 Alban Station Blvd Ste 202,38.733965,-77.199111,Microsoft,2022-09-06T13:53:25.950Z,0.77,OpenStreetMap,2013-10-18T04:56:15.000Z,,False
286e38ba-4c00-4ff7-b008-58da265c93ed,Nucor Steel Seattle,professional_services,"['commercial_industrial', 'metal_supplier']",d27289db-1579-4eba-afae-71ae96f8cb22,,,,seattle,WA,Seattle,98106.0,2424 SW Andover St,47.5692265,-122.3649927,meta,2025-06-02T07:00:00.000Z,0.9784508333782836,OpenStreetMap,2019-04-20T16:09:30.000Z,,False
185bf5dc-b63c-420b-a961-ecfbb4fe6665,Nucor Steel Seattle,commercial_industrial,"['professional_services', 'iron_and_steel_industry']",,,,,seattle,WA,Seattle,98106.0,4260 W Marginal Way SW,47.56494,-122.35048,meta,2025-06-02T07:00:00.000Z,0.3376623376623376,,,,False
befecd63-5079-40b6-b1d6-50f1cc364458,Nucor Steel Birmingham,metal_supplier,"['commercial_industrial', 'metal_fabricator']",0164ab91-9390-41db-93bb-952f92963cf2,,,,birmingham,AL,Birmingham,35234.0,2301 FL Shuttlesworth Dr,33.5458128,-86.8067059,meta,2025-06-02T07:00:00.000Z,0.9459263554653524,Microsoft ML Buildings,2021-03-08T00:00:00.000Z,,False
fe5ab74b-39af-4dd3-bcf7-d41fdea03dc4,Nucor Tubular Products,business,['business_manufacturing_and_supply'],b4e5d1fc-aa82-48ce-90f9-6237701af049,,,,birmingham,AL,Birmingham,35234.0,3525 Richard Arrington Jr Blvd N,33.5353037,-86.7888777,meta,2025-06-02T07:00:00.000Z,0.9300613496932516,Microsoft ML Buildings,2021-03-08T00:00:00.000Z,,False
8dd3892d-7578-4440-be2c-0644ce773b33,Nucor Rebar Fabrication,metal_fabricator,"['shopping', 'hardware_store']",,,,,detroit,ON,Tecumseh,10.0,4995 8th Concession Rd,42.2448694,-82.9487506,meta,2025-06-02T07:00:00.000Z,0.9459263554653524,,,,False
0dafb464-1415-4d75-bb65-d986811c77a2,Nucor Cold Finish Wisconsin,metal_supplier,"['commercial_industrial', 'industrial_company']",3281ae37-fcd4-4a53-b573-516fde3202dd,,,,milwaukee,WI,Oak Creek,53154.0,7200 S 6th St,42.9135275,-87.916577,meta,2025-06-02T07:00:00.000Z,0.9784508333782836,OpenStreetMap,2022-12-04T23:53:47.000Z,,False
22026607-26c0-4997-b9d4-b174b8e92301,Nucor Construction Corp,construction_services,['contractor'],c6c9f0bd-d8d0-4947-bc0a-b0810497db81,,,,new-york,NY,New York,10001.0,117 W 28th St,40.7465006,-73.9913319,meta,2025-06-02T07:00:00.000Z,0.9204819277108434,OpenStreetMap,2015-05-12T19:23:45.000Z,,False
22026607-26c0-4997-b9d4-b174b8e92301,Nucor Construction Corp,construction_services,['contractor'],318858ec-a428-47b9-ab88-1896f4ce33ae,,,,new-york,NY,New York,10001.0,117 W 28th St,40.7465006,-73.9913319,meta,2025-06-02T07:00:00.000Z,0.9204819277108434,OpenStreetMap,2014-07-15T12:19:52.000Z,,False
ec37e452-50a7-49cb-ac59-5972228bc94c,Nucor Skyline,iron_and_steel_industry,"['metal_fabricator', 'iron_and_steel_store', 'wholesaler', 'metals', 'business_equipment_and_supply', 'business_to_business']",5385c97e-2b8e-4e47-a088-d879ef1aaa1b,,,,new-york,NJ,Parsippany,7054.0,300 Kimball Dr Ste 401,40.860854,-74.40711,Microsoft,2022-09-06T13:06:03.470Z,0.77,OpenStreetMap,2022-03-24T03:06:14.000Z,,False
e08ae991-211e-444e-8782-57714c05fb73,Nucor Tubular Products,industrial_company,"['commercial_industrial', 'building_supply_store']",a455f1ed-ee83-482f-8040-b5576e59a6c0,,,,louisville,KY,Louisville,40258.0,7301 Logistics Dr,38.17195,-85.88777,meta,2025-06-02T07:00:00.000Z,0.9459263554653524,OpenStreetMap,2016-02-14T06:17:15.000Z,,False
789e28a2-151e-4104-8f2b-850245d81aa8,Nucor Grating Marketing and Sales Office,business_to_business,,9fc516df-a5ca-4cc8-ae73-940d2ce70052,,commercial,commercial,chicago,IL,Tinley Park,60477.0,18401 Maple Creek Dr Ste 100,41.55672086213719,-87.79355365094362,Microsoft,2018-03-19T12:52:49.150Z,0.77,OpenStreetMap,2022-04-05T19:22:35.000Z,,True
f7f7d32c-5ff4-4b57-b7cd-06c65da3ae23,Nucor Steel Texas,metal_fabricator,['professional_services'],ad8b8f0a-7177-4ff8-bd33-f87e3171359f,,,,chicago,IN,Hammond,46320.0,1745 165th St,41.59774,-87.488163,meta,2025-06-02T07:00:00.000Z,0.3376623376623376,OpenStreetMap,2021-10-04T07:00:03.000Z,,False
dce4d579-d65b-4182-aef9-95e56e6453e4,Nucor Steel,metal_supplier,"['gas_station', 'commercial_industrial']",,,,,miami,FL,Pompano Beach,33064.0,3900 NE 10th Way,26.2791273,-80.1106693,meta,2025-06-02T07:00:00.000Z,0.9459263554653524,,,,False
4cb6ea0e-cc65-4e4d-bdeb-04e458074988,nucor logistics center,professional_services,"['shopping_center', 'commercial_industrial']",b20cfa0f-2bad-45ab-ab4a-6597c70ca404,,,,memphis,TN,Memphis,38132.0,1980 Nonconnah Blvd,35.0733462,-89.9966533,meta,2025-06-02T07:00:00.000Z,0.9297091412742382,OpenStreetMap,2018-10-18T01:55:56.000Z,,False
af9f6548-3b07-4597-8437-ac66f7ebe6c0,Nucor Steel Connecticut,metal_supplier,"['contractor', 'iron_and_steel_industry']",37e7e4e8-4265-448d-ac23-a8a187519534,,industrial,industrial,new-haven,CT,Wallingford,6492.0,35 Toelles Rd,41.4294541,-72.8460174,meta,2025-06-02T07:00:00.000Z,0.9784508333782836,OpenStreetMap,2024-04-23T10:36:37.000Z,,False
82f8d38f-13a7-46cd-9497-162e5f378948,Nucor Corporation,metal_supplier,"['commercial_industrial', 'laboratory_testing']",,,,,charlotte,NC,Charlotte,28211.0,1915 Rexford Rd,35.1587651,-80.8345985,meta,2025-06-02T07:00:00.000Z,0.9784508333782836,,,,True
