id_left,primary_name_left,primary_category,alternate_category,region,locality,zipcode,address,latitude,longitude,plc_source_dataset,plc_source_update_time,plc_source_confidence,id_right,primary_name_right,subtype,class,bldg_dataset,bldg_update_time,bldg_confidence,source_city,is_office_by_pipeline
e31ded7a-bad2-4556-a6c7-eb3280909eb4,Paychex,payroll_services,,NY,Amherst,14068.0,220 Northpointe Pkwy Ste 500,43.0384014563114,-78.802776928836,Microsoft,2021-01-18T20:13:16.130Z,0.77,7150b571-202d-435a-b714-770efdcbfaea,,commercial,office,OpenStreetMap,2022-11-16T16:33:21.000Z,,buffalo,False
64c7cc78-7902-4f2f-af62-f342008eda68,"Paychex, Inc.",payroll_services,"['business_to_business_services', 'business_to_business']",NY,Getzville,14068.0,33 Dodge Rd Ste 110,43.0237695,-78.789218,Microsoft,2012-10-09T23:22:27.827Z,0.77,,,,,,,,buffalo,True
aea2e197-e3fb-4df2-bd5c-d2bd18d76942,Paychex,payroll_services,,CA,San Ramon,94583.0,12667 Alcosta Blvd 100 200,37.772988,-121.959357,Microsoft,2023-07-25T20:57:53.970Z,0.77,5cd65934-20b3-4c5f-a67a-546e8e4cb62b,,commercial,office,OpenStreetMap,2022-11-04T01:49:46.000Z,,concord,False
8f20c202-01fa-43d7-af51-24227a88df3b,Paychex,payroll_services,,CA,Oxnard,93036.0,2901 N Ventura Rd Ste 200,34.2452295,-119.1819394,Microsoft,2021-04-05T20:19:00.783Z,0.77,d8646d64-8f21-4a80-9fc8-699950f420ea,,,,OpenStreetMap,2010-08-09T18:56:31.000Z,,oxnard,False
bbca7e51-3694-4e3e-b16c-b4645b6fdf2f,Paychex,human_resource_services,"['payroll_services', 'business_to_business_services', 'business_to_business']",AZ,Tucson,85741.0,3275 W Ina Rd Ste 160,32.3368649,-111.0362417,Microsoft,2023-08-16T13:31:53.013Z,0.77,4fcfd373-b123-4323-9756-aa562d6ffb39,,,,OpenStreetMap,2022-08-05T20:13:17.000Z,,tucson,True
491bb258-d8e2-4410-8385-15149ab101d0,Paychex,payroll_services,,VA,Glen Allen,23060.0,3960 Stillman Pkwy Ste 100,37.6449332,-77.5638188,Microsoft,2021-01-11T20:02:53.950Z,0.77,44847d8f-9bad-4f66-898d-45fdb3341ef5,,,,OpenStreetMap,2019-08-01T07:40:05.000Z,,richmond,False
bd4c7fb7-8318-4661-9e0d-61d42761732f,"Paychex, Inc.",payroll_services,,VA,Glen Allen,23060.0,3960 Stillman Pkwy Ste 100,37.644521,-77.5632688,Microsoft,2012-10-09T23:22:18.170Z,0.77,,,,,,,,richmond,False
90f71fe3-973e-4088-9fac-efff2f13bf0f,Paychex,professional_services,"['insurance_agency', 'business']",FL,Sarasota,34232.0,2817 Cattlemen Rd,27.3073378,-82.451035,meta,2025-06-02T07:00:00.000Z,0.9459263554653524,1caaff72-7ea8-4f8c-8581-453def23cde1,,,,OpenStreetMap,2023-03-11T04:20:25.000Z,,sarasota-bradenton,False
ae36cea0-5380-4492-8b15-8b2c8b6e5a69,Paychex,payroll_services,,FL,Miramar,33027.0,3100 SW 145th Ave Ste 400,25.9804416,-80.3413975,Microsoft,2023-08-16T13:47:32.740Z,0.77,7bd1b60f-8bc0-4c4b-8116-3ff54976f7f2,,,,OpenStreetMap,2012-05-09T20:01:32.000Z,,miami,False
fe3e309f-c959-42a5-acc6-a4792ab49fca,Paychex,payroll_services,,FL,Deerfield Beach,33442.0,3155 SW 10th St Ste I,26.3055206,-80.14741,Microsoft,2021-01-18T20:12:59.127Z,0.77,b824f16a-ff6f-413e-86e2-fa7d1a14ced9,,,,OpenStreetMap,2016-07-26T23:16:38.000Z,,miami,False
0e4e1ba7-faa0-4c8a-a512-03dfd7f53ff7,Paychex,professional_services,['financial_service'],FL,West Palm Beach,33411.0,2054 Vista Pkwy,26.7122556,-80.1476201,meta,2025-06-02T07:00:00.000Z,0.9459263554653524,4275940d-f624-4c14-a149-0f38a2ae4aed,,,,OpenStreetMap,2017-05-12T03:47:10.000Z,,miami,False
93ab35db-1440-4ca6-b835-237038c86c38,Paychex,tax_services,['accountant'],FL,West Palm Beach,33401.0,1450 Centrepark Blvd Ste 150,26.6935523,-80.0739655,Microsoft,2020-12-28T21:46:02.967Z,0.77,76ff3c19-7c2a-434e-b8a2-fe7d0b728964,,,,OpenStreetMap,2021-04-24T15:55:06.000Z,,miami,False
859ed8dd-cfba-483a-bc4b-2c2b2e370849,"Paychex, Inc.",tax_services,['accountant'],FL,West Palm Beach,33401.0,1450 Centrepark Blvd Ste 150,26.6939831,-80.0734137,Microsoft,2012-10-09T23:22:19.767Z,0.77,,,,,,,,miami,False
aa4af070-99ed-46a9-940d-70a9aa20c3f5,Paychex,payroll_services,,MA,Auburn,1501.0,27B Midstate Dr Ste 104,42.18679,-71.85623,Microsoft,2024-07-31T16:44:10.870Z,0.77,,,,,,,,worcester,False
084cb4ca-c007-4b4c-aec7-bc96ea895c1f,"Paychex, Inc.",payroll_services,,MA,Auburn,1501.0,27A Midstate Dr Ste 200,42.1907424,-71.8572443,Microsoft,2012-10-09T23:22:13.453Z,0.77,,,,,,,,worcester,False
b3324dcd-f228-426d-b13c-fbc3274e834b,"Oasis, a Paychex Company",employment_agencies,,MA,Waltham,2451.0,400 5th Ave 105,42.3886268,-71.258373,Microsoft,2022-04-21T16:33:21.500Z,0.77,dae36eea-6780-416e-af2f-93c5e7964fa7,400 Fifth Avenue,,,OpenStreetMap,2019-05-31T11:58:40.000Z,,boston,True
64a022aa-1826-4ee6-8f8c-f96736ebb1bc,Paychex,payroll_services,,MA,North Reading,1864.0,100 Riverpark Dr Ste 100,42.5578965,-71.133907,Microsoft,2020-09-14T19:08:27.727Z,0.77,249514f1-55f7-4e5d-9589-19f362b81a8d,,commercial,commercial,OpenStreetMap,2018-03-13T06:32:38.000Z,,boston,False
d96c2b40-5a0c-458e-899a-678fbcf1e61b,Paychex,tax_services,['payroll_services'],MN,Eagan,55121.0,1020 Discovery Rd Ste 180,44.834333,-93.142554,Microsoft,2024-07-31T16:48:53.430Z,0.77,778c75c8-1ffd-4b42-baa3-c1c8c7a0a2d1,,,,OpenStreetMap,2015-06-03T05:16:33.000Z,,minneapolis,False
b120391b-2a18-450f-8a0f-949282db6e46,Paychex,tax_services,['payroll_services'],MN,Eagan,55121.0,1020 Discovery Rd Ste 180,44.8342752,-93.141815,Microsoft,2023-09-10T22:28:13.050Z,0.77,778c75c8-1ffd-4b42-baa3-c1c8c7a0a2d1,,,,OpenStreetMap,2015-06-03T05:16:33.000Z,,minneapolis,False
620cded0-218d-442e-9253-1be6798f1412,Paychex,tax_services,['payroll_services'],MN,Eagan,55121.0,1020 Discovery Rd Ste 180,44.8624214,-93.1536317,Microsoft,2023-09-10T22:28:09.190Z,0.77,50f2f6d1-88f0-4d9c-a288-8d351197b4ad,,commercial,commercial,OpenStreetMap,2020-12-08T21:40:10.000Z,,minneapolis,False
9fddf8f1-df8d-4843-8717-6144837c248a,Paychex,payroll_services,,MN,Maple Grove,55369.0,7767 Elm Creek Blvd N Ste 207,45.0960288,-93.4463489,Microsoft,2020-12-08T02:42:38.770Z,0.77,,,,,,,,minneapolis,False
9033e44f-e626-49ec-966f-33e30af71947,"Paychex, Inc.",payroll_services,,WA,Kent,98032.0,20829 72nd Ave S Ste 400,47.4161806,-122.2464717,Microsoft,2012-10-13T02:18:26.407Z,0.77,,,,,,,,seattle,False
f5dc213a-84f2-45d4-a9c5-7f9e414eaa8e,Paychex,payroll_services,,MO,Chesterfield,63017.0,16305 Swingley Ridge Rd Ste 500,38.6564587,-90.5629233,Microsoft,2023-09-22T05:19:35.070Z,0.77,1cb33849-3a31-495c-8563-2dc56de48e6a,,,,OpenStreetMap,2019-12-23T22:41:21.000Z,,st-louis,False
e1896e2f-96f4-43f4-bc6c-879a98e49d36,Paychex,professional_services,['financial_service'],NY,Rochester,14623.0,225 Kenneth Dr,43.0628628,-77.6434608,meta,2025-06-02T07:00:00.000Z,0.9784508333782836,c7e9efca-cfb0-4349-8518-0805ad183af0,Paychex,,,OpenStreetMap,2021-05-31T14:06:15.000Z,,rochester,False
532e0fd3-b3c5-49be-a908-bb32923cb98f,Paychex,professional_services,['financial_service'],NY,West Henrietta,14586.0,1175 John St,43.0676356,-77.6729544,meta,2025-06-02T07:00:00.000Z,0.9784508333782836,b21a1ac8-2d04-4143-ba1e-02071928bbd1,,commercial,commercial,OpenStreetMap,2024-06-19T23:46:54.000Z,,rochester,False
2f982cc7-adaf-4bdf-9819-8589d14cb7d4,Paychex,human_resource_services,"['payroll_services', 'business_to_business_services', 'business_to_business']",NY,Rochester,14623.0,175 Research Blvd,43.0760568,-77.6620381,Microsoft,2023-10-20T16:46:25.427Z,0.77,abd8089d-1021-4e47-9e66-37e318191981,,commercial,commercial,OpenStreetMap,2021-05-31T14:06:15.000Z,,rochester,True
381a7008-88a6-433e-ada6-cf18b28582ee,Paychex,professional_services,['employment_agencies'],NY,Henrietta,14623.0,133 Calkins Rd,43.0665192,-77.642033,meta,2025-06-02T07:00:00.000Z,0.9300613496932516,c34700a4-f408-4a3d-ab5b-10e979bb18f7,Paychex,,,OpenStreetMap,2021-02-02T15:50:51.000Z,,rochester,False
049ebc3a-a1e3-427c-a66d-165771569bcc,Paychex,professional_services,['financial_service'],NY,Rochester,14623.0,1565 Jefferson Rd,43.083162,-77.587344,meta,2025-06-02T07:00:00.000Z,0.3376623376623376,3182b3fc-a0c4-4583-895d-c8134daae993,,,,OpenStreetMap,2021-03-29T22:30:48.000Z,,rochester,False
adb89b34-1b32-4802-8386-29bcaf60d2ed,Paychex,payroll_services,,NY,Rochester,14620.0,150 Sawgrass Dr,43.113586,-77.603882,Microsoft,2023-08-16T14:22:34.760Z,0.77,b1799a1a-b70f-4ec5-94da-a25377075526,Paychex,commercial,commercial,OpenStreetMap,2017-12-21T08:18:42.000Z,,rochester,False
9fb1512f-e441-4ce1-af09-d1904a07bcd8,Paychex,professional_services,"['trusts', 'financial_advising']",NC,High Point,27265.0,4015 Meeting Way,36.0477702,-79.9595446,meta,2025-06-02T07:00:00.000Z,0.9784508333782836,3cd348a9-edb1-4850-b6b0-269f2b235506,,,,OpenStreetMap,2021-02-20T03:12:51.000Z,,greensboro,False
d70be2fa-4ea9-42a5-81dc-cd663bd3d7b9,"Paychex, Inc.",payroll_services,,FL,Saint Petersburg,33716.0,970 Lake Carillon Dr Ste 500,27.8894717,-82.6667968,Microsoft,2012-10-09T23:22:21.297Z,0.77,,,,,,,,st-petersburg,False
b28f57ca-3185-4c88-89d5-6b9697459bd2,Paychex,professional_services,"['trusts', 'financial_service']",FL,St Petersburg,33716.0,970 Lake Carillon Dr,27.8899394,-82.6660986,meta,2025-06-02T07:00:00.000Z,0.9784508333782836,87fada18-cf7c-47e4-b7fa-1b1fd65bc8e3,,,,OpenStreetMap,2023-05-18T07:13:18.000Z,,st-petersburg,False
8e224582-28e5-45e4-9f75-35e7095d1054,Paychex,professional_services,['business_management_services'],FL,Tampa,33614.0,4511 Woodland Corporate Blvd,28.0228224,-82.519918,meta,2025-06-02T07:00:00.000Z,0.9415384615384615,26daeb64-2697-4468-9588-d1727054944a,,,,OpenStreetMap,2017-09-12T07:38:50.000Z,,tampa,False
6782a63d-1e40-436c-a525-47777558025e,Paychex,insurance_agency,"['financial_service', 'professional_services']",FL,Tampa,33619.0,3829 Coconut Palm Dr,27.9783322,-82.3517693,meta,2025-06-02T07:00:00.000Z,0.242152466367713,f8306962-0b26-4996-8428-10369b31053f,,,,OpenStreetMap,2017-09-11T22:09:30.000Z,,tampa,False
b5800a8b-282d-46ee-a2f9-2eb608b7061b,"Paychex, Inc.",payroll_services,,CA,Riverside,92507.0,1420 Iowa Ave Ste 100,33.9988232,-117.3397809,Microsoft,2012-10-09T23:22:45.563Z,0.77,,,,,,,,riverside-san-bernardino,False
17520fb2-c3f4-41f3-9166-41a05838fa54,Paychex,payroll_services,,CA,Riverside,92507.0,1420 Iowa Ave Ste 100,33.9988266,-117.3388508,Microsoft,2023-07-25T20:57:41.833Z,0.77,6547adb4-5a3f-4087-b43b-8e601fcfcc35,,,,OpenStreetMap,2023-01-21T20:13:29.000Z,,riverside-san-bernardino,False
c1bd0284-9625-46b4-83c7-65f641b8ee44,Paychex,payroll_services,,WI,Brookfield,53005.0,375 Bishops Way Ste 190,43.0342617,-88.0815901,Microsoft,2023-09-22T05:19:35.070Z,0.77,45ddc922-b93e-4f7e-8a5d-611fc42b8b66,,,,OpenStreetMap,2024-01-31T09:30:07.000Z,,milwaukee,False
f8d76932-6744-4e17-ab81-76da85b0d276,Paychex,payroll_services,,CT,Rocky Hill,6067.0,714 Brook St #120,41.6397062,-72.6715869,Microsoft,2023-10-06T07:35:21.350Z,0.77,66106048-7e5e-40f4-a792-478a5d47c29f,,,,OpenStreetMap,2021-07-13T02:26:53.000Z,,hartford,False
7ec1ead3-840b-43a0-b2e1-6568b2034244,Paychex,payroll_services,,LA,Gretna,70056.0,401 Whitney Ave Ste 200,29.9193428,-90.0417297,Microsoft,2021-01-18T20:13:32.597Z,0.77,2fe79d38-2785-4d44-9a92-600aea3e36e7,,,,OpenStreetMap,2022-05-30T03:32:06.000Z,,new-orleans,False
119e7926-82e3-435c-ba22-6f80b004ba65,"Paychex, Inc.",doctor,['health_and_medical'],NJ,Marlton,8053.0,401 Rte 73 N,39.8988422,-74.9371186,Microsoft,2012-10-09T23:22:15.047Z,0.77,,,,,,,,philadelphia,False
4fba05e5-6fa7-4eb1-a88e-e8094cb1b161,Paychex,tax_services,"['payroll_services', 'business_to_business_services', 'business_to_business']",PA,Norristown,19403.0,1100 Adams Ave,40.1191168,-75.4234664,Microsoft,2021-01-11T20:03:12.963Z,0.77,21001821-9432-4408-909a-f968007b0110,,,,OpenStreetMap,2022-09-23T21:30:07.000Z,,philadelphia,True
b0ac1db5-8920-4847-8722-f48037667853,Paychex,payroll_services,,PA,Norristown,19403.0,2621 Van Buren Ave Ste 500,40.1230767,-75.4145122,Microsoft,2021-07-19T21:07:36.387Z,0.77,0cb0af95-6b98-43c6-a4c5-b243c44f6870,Valley Forge Corporate Center,,,OpenStreetMap,2017-03-30T19:51:50.000Z,,philadelphia,False
7ec880b4-851c-461e-a197-b5f6085ba74e,"Paychex, Inc.",payroll_services,,MI,Grand Rapids,49546.0,625 Kenmoor Ave SE Ste 100,42.9526648,-85.5664883,Microsoft,2012-10-09T23:22:28.907Z,0.77,,,,,,,,grand-rapids,False
169c84f4-285b-4037-81de-c50fdf6be757,"Paychex, Inc.",payroll_services,,KS,Overland Park,66213.0,13160 Foster St Ste 130,38.8916491,-94.6741264,Microsoft,2012-10-09T23:22:31.420Z,0.77,,,,,,,,kansas-city,False
24aaff8b-e799-4833-8772-b50b84fd91e7,Paychex,business_records_storage_and_management,"['tax_services', 'payroll_services', 'business_to_business_services', 'corporate_office', 'business_to_business', 'private_establishments_and_corporates']",CA,Costa Mesa,92626.0,1535 Scenic Ave Ste 100,33.6987647,-117.9220168,Microsoft,2021-02-01T19:51:56.023Z,0.77,28b76f66-c8eb-4b0b-bd84-f6a99ae0da51,,,,OpenStreetMap,2020-11-03T20:43:51.000Z,,los-angeles,True
044f8f61-2aa8-44df-9c5a-1229a4185b7c,Paychex,payroll_services,,CA,Culver City,90230.0,300 Corporate Pointe Ste 150 (100),33.9885235,-118.3829795,Microsoft,2021-02-01T19:52:12.423Z,0.77,3d8de6eb-f408-4acd-8a49-cea30f0b07e8,,commercial,commercial,OpenStreetMap,2016-05-31T07:12:05.000Z,,los-angeles,False
715634fe-fdfd-4430-b6b7-8613af85b1c0,Paychex,payroll_services,,CA,Woodland Hills,91367.0,21820 Burbank Blvd Ste 185,34.1713383,-118.6026163,Microsoft,2021-02-10T14:12:22.257Z,0.77,,,,,,,,los-angeles,False
4e7bda6e-b827-476b-baba-927581efaa03,Ernie Ramos Paychex Payroll,professional_services,['non_governmental_association'],CA,West Covina,91790.0,112 Plaza Dr,34.070047,-117.927618,meta,2025-06-02T07:00:00.000Z,0.242152466367713,a2c9cc9e-ed19-433b-9e92-4b57664bb721,,commercial,commercial,OpenStreetMap,2017-01-31T10:48:45.000Z,,los-angeles,False
a75daa90-7f06-4095-9942-59d49c86f5c9,Paychex,payroll_services,,KS,Wichita,67226.0,8441 E 32nd St N Ste 100,37.7424656,-97.2390026,Microsoft,2021-07-19T21:19:13.803Z,0.77,26bc33b0-7147-490b-abed-dbaa77b370a2,,,,OpenStreetMap,2018-04-07T06:27:28.000Z,,wichita,False
dfc4acb6-1c95-4763-b14c-8b339d89d7d1,Paychex,payroll_services,,OK,Tulsa,74133.0,8023 E 63rd Pl Ste 810,36.072577,-95.887859,Microsoft,2020-12-08T02:42:38.770Z,0.77,451f2a3f-efe1-4b54-a950-cfffa082a367,McJunkin Red Man Plaza,,,OpenStreetMap,2024-06-08T18:12:54.000Z,,tulsa,False
0e70ace1-7fb5-44ce-b3fe-fe501b203fed,Paychex,payroll_services,,NY,Liverpool,13088.0,215 Greenfield Pkwy Ste 100,43.0834368,-76.1757767,Microsoft,2021-01-18T20:13:46.827Z,0.77,901b019f-bd21-4054-9f6a-3b973701cfd7,,,,OpenStreetMap,2021-06-01T00:19:56.000Z,,syracuse,False
90885d40-f50a-43f8-967d-192e554c07d4,Paychex,payroll_services,,GA,Atlanta,30329.0,2970 Clairmont Rd NE Ste 800 (810 & 825),33.8442124,-84.3160515,Microsoft,2023-09-22T05:19:35.070Z,0.77,f1e46a75-eba5-4831-b864-2ea839eb864d,,transportation,parking,OpenStreetMap,2023-07-16T14:38:49.000Z,,atlanta,False
418fa5d4-259b-43a0-8a72-7df36a93cdc0,Paychex,employment_agencies,['payroll_services'],GA,Atlanta,30328.0,5901-B Peachtree Dunwoody Rd 350,33.9150662,-84.351395,Microsoft,2021-07-19T20:58:34.567Z,0.77,,,,,,,,atlanta,False
333d5d53-a899-4bb0-9389-12ad67d306b5,Paychex,employment_agencies,['payroll_services'],GA,Atlanta,30328.0,5901-B Peachtree Dunwoody Rd Ste 35 Ste 350,33.9167246772755,-84.34961887592,Microsoft,2023-09-22T05:19:35.070Z,0.77,,,,,,,,atlanta,False
2cca05fd-d1c4-4e83-886d-67fb5b8ae2c3,Paychex,payroll_services,,NV,Las Vegas,89123.0,8235 S Eastern Ave Ste 250,36.0394108,-115.1183015,Microsoft,2023-07-25T20:57:25.000Z,0.77,,,,,,,,las-vegas,False
4b0c3ab7-2b25-4ee5-a119-9d340fffea8d,Paychex,payroll_services,,AR,Little Rock,72223.0,12921 Cantrell Rd Ste 208,34.7983776,-92.41785,Microsoft,2023-09-22T05:19:35.070Z,0.77,7465c548-ea6d-436a-a353-254902c28bbc,,,,Microsoft ML Buildings,2022-05-29T00:00:00.000Z,,little-rock,False
f8a02a94-1cb7-43c1-b183-bcf4460333b0,Paychex,professional_services,"['trusts', 'financial_service']",NM,Albuquerque,87107.0,4500 Alexander Blvd NE,35.1327261,-106.6175853,meta,2025-06-02T07:00:00.000Z,0.9459263554653524,1b5fb7e8-c1aa-4919-8d95-0a323a34d891,,,,OpenStreetMap,2019-10-30T03:18:35.000Z,,albuquerque,False
8849aad8-0135-486b-844a-44617cf8c33d,Paychex,professional_services,['trusts'],TX,Irving,75063.0,8605 Freeport Pkwy N,32.9263001,-97.0171131,meta,2025-06-02T07:00:00.000Z,0.9415384615384615,b7f7d3c3-43de-4875-bef7-c8ddef9c55ef,,,,OpenStreetMap,2019-01-28T21:03:59.000Z,,dallas,False
2ecfe0c1-b64c-4314-979c-bf3c657a4609,"Oasis, a Paychex Company",employment_agencies,,TX,Dallas,75251.0,12750 Merit Dr Ste 910,32.9225371,-96.7710444,Microsoft,2021-02-15T19:37:43.253Z,0.77,,,,,,,,dallas,True
0680f5ba-392c-4c0e-8e79-afdf24a6f875,Paychex Inc.,payroll_services,,CA,Palm Desert,92260.0,39830 Portola Ave Ste 1,33.759929,-116.373229,Microsoft,2018-07-24T01:59:12.080Z,0.77,3fc30d8b-79fe-4289-a947-81c7b4537e78,,,,Esri Community Maps,2024-10-15T00:00:00.000Z,,indio,False
279be3b6-83fe-4b57-9491-8ee1c593ab30,Paychex,professional_services,"['trusts', 'financial_advising']",IN,Indianapolis,46240.0,8335 Keystone Xing,39.9063478,-86.1168287,meta,2025-06-02T07:00:00.000Z,0.9415384615384615,13554540-9d11-4330-8e42-276855e70249,,commercial,commercial,OpenStreetMap,2017-10-08T15:36:01.000Z,,indianapolis,False
5c1f2087-1480-4166-9ce9-ee615bf421cf,Paychex,software_development,"['business', 'professional_services']",NV,Reno,89502.0,401 Ryland St,39.5240257,-119.806015,meta,2025-06-02T07:00:00.000Z,0.909823677581864,9303f925-a6d7-4bb2-bd1e-f272c7456078,,commercial,office,OpenStreetMap,2024-11-13T19:07:17.000Z,,reno,True
362a97ee-c889-47ad-9380-61e4f559458e,"Oasis, a Paychex Company",employment_agencies,['professional_services'],FL,Jacksonville,32256.0,4887 Belfort Rd,30.249178,-81.58325,meta,2025-06-02T07:00:00.000Z,0.3961437335670464,f1d4c8ad-fa27-471a-a703-930b6d9832a0,,,,OpenStreetMap,2019-04-19T19:47:42.000Z,,jacksonville-florida,True
6e51d494-42a2-4472-8e41-94313708d24b,Paychex,human_resource_services,"['payroll_services', 'business_to_business_services', 'business_to_business']",FL,Jacksonville,32256.0,4887 Belfort Rd 107,30.2488979,-81.5830314,Microsoft,2023-07-25T20:57:18.397Z,0.77,f1d4c8ad-fa27-471a-a703-930b6d9832a0,,,,OpenStreetMap,2019-04-19T19:47:42.000Z,,jacksonville-florida,True
5c7e9e18-03fd-452f-a90f-7aaeca34512f,Paychex,employment_agencies,['payroll_services'],FL,Jacksonville,32258.0,12740 Gran Bay Pkwy W Ste 2100,30.138721,-81.531514,Microsoft,2020-12-28T21:45:01.077Z,0.77,07b96955-1f19-44e0-9a53-6423983625c3,,,,OpenStreetMap,2025-04-15T15:57:43.000Z,,jacksonville-florida,False
a6a92c57-3775-46e9-a1f1-6c9cfdce94b5,Paychex,payroll_services,,NC,Cary,27513.0,"15401 Weston Parkway, ParkWest Two, Suite 180",35.8133334,-78.8176574,Microsoft,2023-09-22T05:19:35.070Z,0.77,39eef7d9-5922-4613-9126-32cacbc8e55b,,,,OpenStreetMap,2020-05-01T22:41:01.000Z,,raleigh,False
cf438b57-c09b-4cc0-8846-3c139a5da636,"Paychex, Inc.",payroll_services,,NC,Cary,27513.0,15501 Weston Pkwy Ste 100,35.8140427,-78.8177621,Microsoft,2012-10-09T23:22:28.907Z,0.77,,,,,,,,raleigh,False
77b8ffd0-cb61-4e00-a070-645faed20c74,Paychex,payroll_services,,OH,Holland,43528.0,7010 Spring Meadows West Dr Ste 102,41.611296,-83.708948,Microsoft,2020-12-28T21:44:43.147Z,0.77,d2b26fc6-e407-4a57-8870-aa7aaec88c24,,,,OpenStreetMap,2019-12-12T01:33:45.000Z,,toledo,False
e0d7126b-f37e-4065-9a18-73ed304a70a6,Paychex,human_resource_services,"['payroll_services', 'business_to_business_services', 'business_to_business']",CO,Denver,80237.0,4600 S Ulster St Ste 1400,39.6318465,-104.895953,Microsoft,2023-08-16T14:15:12.647Z,0.77,9a1e8eaa-c06f-438c-872c-add76a40f53f,Metropoint I (4600),commercial,office,OpenStreetMap,2022-05-09T00:13:09.000Z,,denver,True
d46dfc16-1c37-4889-833d-7fce4cd081ac,Paychex,professional_services,"['business', 'trusts']",CO,Denver,80239.0,4300 N Kittredge St,39.7746922,-104.8006995,meta,2025-06-02T07:00:00.000Z,0.9784508333782836,a58cdbe6-347f-404f-ad55-072a38a4cccc,,,,OpenStreetMap,2024-01-08T00:07:28.000Z,,denver,False
cce08545-ccff-4cce-bcaa-9f53b78e168f,Paychex,payroll_services,,CO,Denver,80239.0,4300 Kittredge St Ste 100,39.7747896,-104.800184,Microsoft,2024-06-11T23:52:33.370Z,0.77,a58cdbe6-347f-404f-ad55-072a38a4cccc,,,,OpenStreetMap,2024-01-08T00:07:28.000Z,,denver,False
31b48e76-9d87-46d7-a982-a56438cbf876,Paychex,payroll_services,,TX,Austin,78731.0,3420 Executive Center Dr Ste 310,30.359368,-97.7467952,Microsoft,2023-09-22T05:19:35.070Z,0.77,95c77449-879f-4f75-8bc4-3117c523e0c6,,,,OpenStreetMap,2015-11-21T17:49:10.000Z,,austin,False
ed4736fe-681e-4cf9-95d6-65d2a1335e75,Paychex,payroll_services,,OR,Beaverton,97008.0,"9000 SW GEMINI DRIVE, NIMBUS BUILDING 8",45.4540602,-122.7920883,Microsoft,2023-09-22T05:19:35.070Z,0.77,,,,,,,,portland,False
8ff9c36d-0c6e-4b52-a67f-f3fb07188650,"Paychex, Inc.",payroll_services,,KY,Louisville,40223.0,13400 Eastpoint Centre Dr Ste 145,38.2793133,-85.5103232,Microsoft,2012-10-09T23:22:19.733Z,0.77,,,,,,,,louisville,False
b962a910-be51-41f7-bdb8-1f914101f97f,Paychex,payroll_services,,CA,San Jose,95110.0,224 Airport Pkwy Ste 620,37.3676813,-121.9181258,Microsoft,2021-04-05T20:19:06.737Z,0.77,00bbe761-151d-4563-9ac1-0551e50e1177,,commercial,commercial,OpenStreetMap,2025-04-03T10:23:42.000Z,,san-jose,False
8849aad8-0135-486b-844a-44617cf8c33d,Paychex,professional_services,['trusts'],TX,Irving,75063.0,8605 Freeport Pkwy N,32.9263001,-97.0171131,meta,2025-06-02T07:00:00.000Z,0.9415384615384615,b7f7d3c3-43de-4875-bef7-c8ddef9c55ef,,,,OpenStreetMap,2019-01-28T21:03:59.000Z,,denton-lewisville,False
d7b50b3a-34ed-471f-b81f-4dcca1c793d5,Paychex,payroll_services,,TN,Nashville,37214.0,15 Century Blvd #307,36.1463017,-86.6854594,Microsoft,2021-07-19T20:51:29.913Z,0.77,1cd78022-cce4-4e10-af4e-ecc0be3c5867,,,,OpenStreetMap,2016-11-04T01:05:30.000Z,,nashville-davidson,False
c5d15076-4d35-4242-af27-888eefe4ff61,Paychex,professional_services,"['financial_service', 'trusts']",TN,Nashville,37214.0,22 Century Blvd,36.1474331,-86.6863337,meta,2025-06-02T07:00:00.000Z,0.9459263554653524,a4f88a78-2760-4523-8236-80c805adbec7,,,,OpenStreetMap,2018-12-12T17:25:11.000Z,,nashville-davidson,False
24aaff8b-e799-4833-8772-b50b84fd91e7,Paychex,business_records_storage_and_management,"['tax_services', 'payroll_services', 'business_to_business_services', 'corporate_office', 'business_to_business', 'private_establishments_and_corporates']",CA,Costa Mesa,92626.0,1535 Scenic Ave Ste 100,33.6987647,-117.9220168,Microsoft,2021-02-01T19:51:56.023Z,0.77,28b76f66-c8eb-4b0b-bd84-f6a99ae0da51,,,,OpenStreetMap,2020-11-03T20:43:51.000Z,,mission-viejo,True
94c0a6cd-b6e2-4cfe-9f4e-c1c752f600e1,Paychex,payroll_services,,VA,Fairfax,22031.0,3060 Williams Dr Ste 200,38.8665436,-77.2341359,Microsoft,2023-09-22T05:19:35.070Z,0.77,e467c840-9723-404e-8d84-5ee79eb37269,,,,OpenStreetMap,2021-01-05T21:24:21.000Z,,washington-dc,False
f2f5ea6b-c864-4334-8efe-415d39b6d26f,"Paychex, Inc.",payroll_services,,VA,Fairfax,22031.0,3060 Williams Dr Ste 200,38.8663204,-77.2335825,Microsoft,2012-10-09T23:22:18.157Z,0.77,,,,,,,,washington-dc,False
4904855e-ca09-4b96-a0ce-84ddc059efb5,Paychex,human_resource_services,"['payroll_services', 'business_to_business_services', 'business_to_business']",DC,Washington,20001.0,20 F St NW Fl 7,38.896906,-77.00997,Microsoft,2023-10-20T16:43:18.060Z,0.77,026b6d4b-7f4f-472f-8308-0241510521ce,,,,OpenStreetMap,2017-10-26T20:20:18.000Z,,washington-dc,True
30b7d4da-7414-42ef-8c0e-232fd9f947e1,Paychex,payroll_services,,MD,Beltsville,20705.0,11720 Beltsville Dr Ste 350,39.0509775,-76.9410878,Microsoft,2020-09-14T19:08:27.727Z,0.77,03def829-9a72-4962-971c-b1d3870567cd,,,,OpenStreetMap,2015-07-29T18:12:08.000Z,,washington-dc,False
3c2fe2d9-5fbb-43f1-bc2a-69087c45edad,Paychex,payroll_services,,MI,Novi,48377.0,29065 Cabot Dr Ste 100,42.5073768,-83.444598,Microsoft,2023-09-22T05:19:35.070Z,0.77,65bfdb1a-ec8f-4fca-a169-ecd9e5bc1842,,,,OpenStreetMap,2019-01-01T14:43:09.000Z,,detroit,False
79dd5c82-e47b-483f-943c-cf3e2288d34f,Paychex,payroll_services,,NC,Charlotte,28273.0,8215 Forest Point Blvd Ste 150,35.1318927,-80.9085941,Microsoft,2023-08-16T14:10:54.387Z,0.77,,,,,,,,charlotte,False
62bb4e2d-4534-4f1a-a444-9a8ecd82fcc5,Paychex,human_resource_services,"['payroll_services', 'business_to_business_services', 'business_to_business']",NC,Charlotte,28277.0,13840 Ballantyne Corporate Pl #150,35.0628528,-80.8549901,Microsoft,2023-08-16T14:16:48.580Z,0.77,db865db9-0d74-4c75-a6a3-2809274f92bd,Simmons Building,commercial,commercial,OpenStreetMap,2021-03-21T14:12:06.000Z,,charlotte,True
d88ad6f8-d9fd-46bc-9f8d-047a0b35ca30,Paychex,payroll_services,,PA,Pittsburgh,15276.0,5 Penn Ctr W Ste 101,40.430649,-80.123985,Microsoft,2022-09-14T19:35:28.800Z,0.77,0b2de0fb-9f0b-4992-994d-042f6a13834f,,,,OpenStreetMap,2016-01-03T21:53:32.000Z,,pittsburgh,False
7cbfa269-7249-4345-b23e-5e4371329ca7,Paychex,payroll_services,,PA,Pittsburgh,15276.0,5 Penn Ctr W Ste 101,40.43041,-80.123185,Microsoft,2022-09-14T19:36:29.750Z,0.77,,,,,,,,pittsburgh,False
948d2179-e19f-4550-95a8-5296e92c58e5,Paychex,tax_services,['payroll_services'],CA,San Diego,92108.0,2385 Northside Dr Ste 100,32.7835762,-117.1255976,Microsoft,2022-10-13T16:58:00.717Z,0.77,,,,,,,,san-diego,False
25df818f-2282-4e57-8666-9abd8f1fc12f,"Paychex, Inc.",tax_services,,CA,San Diego,92131.0,10150 Meanley Dr Ste 200,32.9090094,-117.1072792,Microsoft,2012-10-09T23:22:56.077Z,0.77,,,,,,,,san-diego,False
5f350d2c-454f-4b48-96c2-6450f1783b35,Paychex,payroll_services,,SC,Charleston,29405.0,4400 Leeds Ave Ste 175,32.8443058,-80.0228546,Microsoft,2022-05-10T14:20:06.290Z,0.77,,,,,,,,charleston,False
a55fe367-a99c-45d6-bc47-9d2cfc8c95f9,Paychex,tax_services,"['payroll_services', 'tax_office']",UT,South Jordan,84095.0,10961 S River Front Pkwy,40.55328,-111.916582,Microsoft,2020-12-28T21:45:23.847Z,0.77,,,,,,,,salt-lake-city,False
1aa9f816-6767-4d7c-93f0-3764007dc220,Paychex,payroll_services,,SC,Columbia,29204.0,3710 Landmark Dr Ste 304,34.0182663,-80.9868583,Microsoft,2019-04-09T18:46:26.193Z,0.77,b2c5f469-5266-4fb7-9ddb-c0bbc8440e37,,,,OpenStreetMap,2017-12-22T01:05:36.000Z,,columbia-south-carolina,False
782dcc79-2a8c-4679-823f-941dc3ceff07,Paychex,professional_services,"['financial_service', 'trusts']",PA,Allentown,18104.0,1550 Pond Rd,40.6129277,-75.5394648,meta,2025-06-02T07:00:00.000Z,0.9784508333782836,c979d3f6-1369-493d-bce2-74719f300bdb,,commercial,office,OpenStreetMap,2025-05-23T23:26:59.000Z,,allentown-bethlehem,False
0b92d336-f89b-4831-a0f8-40624ab36a84,Paychex,professional_services,['financial_service'],AZ,Tempe,85281.0,1600 N Desert Dr,33.4454963,-111.9593779,meta,2025-06-02T07:00:00.000Z,0.9459263554653524,418b45c6-1543-44b2-808f-48d6f1502a01,,commercial,office,OpenStreetMap,2023-06-04T23:21:16.000Z,,phoenix,False
d44b9ae7-73c9-495e-b85c-743a1465bdc7,Paychex,professional_services,"['financial_service', 'trusts']",AZ,Phoenix,85053.0,16404 N Black Canyon Hwy,33.6353521,-112.117113,meta,2025-06-02T07:00:00.000Z,0.9784508333782836,ebf7f79c-4267-4183-9b1c-ec28060d2764,Cooperate Parkway North,commercial,commercial,OpenStreetMap,2021-07-25T00:17:20.000Z,,phoenix,False
d2263c5e-6188-445d-85e8-719032b8e8ce,Paychex,payroll_services,,MD,Owings Mills,21117.0,700 Red Brook Blvd Ste 300,39.4129239,-76.808109,Microsoft,2023-07-25T20:57:37.227Z,0.77,5f0f29d3-697a-4dd9-bc71-2aa2aa6f693f,,,,OpenStreetMap,2011-10-06T16:20:54.000Z,,baltimore,False
68a47d20-611d-4165-af2f-754f26736767,"Paychex, Inc.",payroll_services,,TX,Houston,77079.0,11777 Katy Fwy Ste 200,29.7830453,-95.5948409,Microsoft,2012-10-09T23:22:37.953Z,0.77,9994ec6b-5b22-4ea9-abfe-4c0fbebf2b4b,,,,Microsoft ML Buildings,2023-09-01T00:00:00.000Z,0.805400013923645,houston,False
68a47d20-611d-4165-af2f-754f26736767,"Paychex, Inc.",payroll_services,,TX,Houston,77079.0,11777 Katy Fwy Ste 200,29.7830453,-95.5948409,Microsoft,2012-10-09T23:22:37.953Z,0.77,ecd113b4-664b-4c08-a03b-84f5d32e5759,,,,OpenStreetMap,2018-07-17T04:56:51.000Z,,houston,False
0ef4fc68-dd88-49b2-9a05-31c63a6ebf43,Paychex,employment_agencies,['payroll_services'],IL,Warrenville,60555.0,27545 Diehl Rd Unit 400,41.800246,-88.158091,Microsoft,2021-02-15T21:08:16.887Z,0.77,,,,,,,,chicago,False
ed3325de-5a51-499b-b240-480534baecc2,Paychex,payroll_services,,IL,Naperville,60563.0,1000 E Warrenville Rd Ste 150,41.8079,-88.1321437,Microsoft,2018-12-13T20:46:41.537Z,0.77,9412b3b4-b223-447a-aaa1-9245a19523bb,,commercial,commercial,OpenStreetMap,2022-05-17T03:47:46.000Z,,chicago,False
fdcffcbf-1872-43a1-b33b-8b59722d8649,"Paychex, Inc.",payroll_services,,IL,Naperville,60563.0,1000 E Warrenville Rd Ste 200,41.808802,-88.1323029,Microsoft,2012-10-09T23:22:28.890Z,0.77,,,,,,,,chicago,False
5280e0a1-a9db-4265-972e-74524d2b72ff,Paychex,tax_services,['payroll_services'],IL,Chicago,60606.0,230 W Monroe St Ste 1020,41.8810006,-87.6348979,Microsoft,2023-09-22T05:19:35.070Z,0.77,06025ec1-0529-469c-917a-18757c2ee5b7,230 West Monroe,commercial,office,OpenStreetMap,2023-06-02T06:09:40.000Z,,chicago,False
cc38e77d-2a64-4e04-ae8a-921a586d0a05,Paychex,payroll_services,,IL,Northfield,60093.0,191 Waukegan Rd Ste 330,42.0969089,-87.7975376,Microsoft,2020-09-14T19:08:27.727Z,0.77,2de1e9c6-7c50-4bd0-a696-4bcfb9193874,,,,OpenStreetMap,2024-09-12T01:57:55.000Z,,chicago,False
cc8e7da6-830a-4825-b792-ea46e175b33e,SurePayroll By Paychex,professional_services,['home_health_care'],IL,Glenview,60026.0,2700 Patriot Blvd,42.1045693,-87.824772,meta,2025-06-02T07:00:00.000Z,0.909823677581864,c0c66948-61a4-4480-82c3-8734e61142ec,,commercial,office,OpenStreetMap,2022-12-30T07:14:13.000Z,,chicago,False
557fc768-8aed-4645-92f0-35a2853fa654,Paychex West Springfield MA,professional_services,['business'],MA,West Springfield,1089.0,69 William Franks Dr,42.156485,-72.65338,meta,2025-06-02T07:00:00.000Z,0.2456896551724137,abd08724-0557-4a87-affa-aa7e938de88e,,,,OpenStreetMap,2019-05-26T15:09:16.000Z,,springfield-massachusett-connecticut,False
46b6a625-14c0-47f8-b488-da2adb76fb1a,Paychex,employment_agencies,['payroll_services'],FL,Orlando,32812.0,6870 Shadowridge Dr Ste 101,28.4632604,-81.3165935,Microsoft,2023-09-22T05:19:35.070Z,0.77,b8784c8a-da7b-4592-9df1-f4f650f912c7,,,,OpenStreetMap,2020-08-15T23:44:56.000Z,,orlando,False
0a71f03f-6d8d-404f-8d09-53055bd3fa39,Paychex,payroll_services,,FL,Lake Mary,32746.0,1025 Greenwood Blvd Ste 301,28.749639,-81.361824,Microsoft,2024-07-31T16:51:55.880Z,0.77,,,,,,,,orlando,False
645f2584-3651-48d8-b41c-d1f5f13b895e,Paychex,payroll_services,,FL,Lake Mary,32746.0,1025 Greenwood Blvd Ste 301,28.7802159,-81.3560144,Microsoft,2023-08-16T13:46:01.803Z,0.77,b3ae6a9a-eddd-4f63-a124-906f9feae5ee,,,,OpenStreetMap,2021-09-08T06:27:44.000Z,,orlando,False
660327bb-e867-450b-85e5-940146577d59,Paychex,payroll_services,,RI,Riverside,2915.0,501 Wampanoag Trl,41.7931734,-71.3482048,Microsoft,2020-09-14T19:08:27.727Z,0.77,f09d69b7-8ff6-4e66-aa52-7ae6b8e4fbcb,,,,Microsoft ML Buildings,2020-10-08T00:00:00.000Z,,providence,False
b9757982-abb3-4309-afe8-2027797e59a8,Paychex,payroll_services,,OH,Dublin,43016.0,5080 Tuttle Crossing Blvd Ste 220,40.0773646,-83.1274965,Microsoft,2023-08-16T14:12:10.230Z,0.77,ed354ada-13bb-45ad-9b4e-008a06f2dfbb,,commercial,office,OpenStreetMap,2019-10-10T02:28:42.000Z,,columbus-ohio,False
1e8e3edb-2f97-4942-9a56-daa2ed9fa05d,Paychex,payroll_services,,OH,Worthington,43085.0,600 Lakeview Plaza Blvd Ste G,40.1143209,-83.0009929,Microsoft,2023-07-25T20:58:11.340Z,0.77,d7f9f517-7c24-4e7b-883a-89ff159d4cec,,,,OpenStreetMap,2018-01-07T07:43:28.000Z,,columbus-ohio,False
f5809968-e113-4269-94d8-55f1564ce129,Paychex,payroll_services,,NE,Omaha,68154.0,14301 Fnb Pkwy Ste 100,41.2347168,-96.1624078,Microsoft,2023-07-25T20:57:30.110Z,0.77,636197ef-3369-42b9-a3a5-fa29e2d76323,,commercial,office,OpenStreetMap,2020-06-06T00:37:58.000Z,,omaha,False
714233bb-5357-44b0-9bba-6388aedcfb90,Paychex,payroll_services,,NE,Omaha,68154.0,14301 Fnb Pkwy Ste 100,41.264727,-96.137419,Microsoft,2024-07-31T16:55:24.963Z,0.77,,,,,,,,omaha,False
db9ea551-f9a9-4bee-89a1-5cb8cdc80156,Paychex,payroll_services,,LA,Baton Rouge,70816.0,4324 S Sherwood Forest Blvd Ste 125,30.40431505,-91.05195375,Microsoft,2025-04-22T19:43:01.697Z,0.77,,,,,,,,baton-rouge,False
5dfd896d-122e-47c7-92f8-27a3c641a74d,Paychex,professional_services,"['trusts', 'financial_advising']",LA,Baton Rouge,70816.0,4324 S Sherwood Forest Blvd,30.414041,-91.0518883,meta,2025-06-02T07:00:00.000Z,0.9784508333782836,4fce98d6-3aa3-4816-af19-eef629a25dab,,commercial,commercial,OpenStreetMap,2023-09-24T05:29:24.000Z,,baton-rouge,False
a717c18f-2ea9-4e9b-9625-84256f474a5c,"Paychex, Inc.",payroll_services,,NJ,Piscataway,8854.0,30 Knightsbridge Rd,40.5458767,-74.4825033,Microsoft,2012-10-09T23:23:12.467Z,0.77,,,,,,,,new-york,False
b7b0d373-98c1-41f3-9447-0e5f1dadadf8,Paychex,payroll_services,,NJ,Piscataway,8854.0,30 Knightsbridge Rd #5,40.545162,-74.4805974,Microsoft,2023-09-22T05:19:35.070Z,0.77,,,,,,,,new-york,False
b761e2d1-7b66-41a1-842d-1920f545c544,Paychex,payroll_services,,NY,Brooklyn,11201.0,45 Main St Unit 542,40.7028816,-73.9904334,Microsoft,2021-02-15T21:06:22.213Z,0.77,c675a7cf-6585-45ea-b727-43a56e7ec01b,,,,OpenStreetMap,2013-12-06T19:03:19.000Z,,new-york,False
b761e2d1-7b66-41a1-842d-1920f545c544,Paychex,payroll_services,,NY,Brooklyn,11201.0,45 Main St Unit 542,40.7028816,-73.9904334,Microsoft,2021-02-15T21:06:22.213Z,0.77,2cca5c21-681d-42a5-b1b8-9df7a427c708,,,,OpenStreetMap,2014-08-06T16:05:00.000Z,,new-york,False
82bd57eb-44f5-47fb-9937-bc393e71f24b,"Paychex, Inc.",tax_services,,NY,New York,10001.0,1250 Broadway Ste 2900,40.7477694,-73.9882809,Microsoft,2012-10-09T23:23:56.860Z,0.77,,,,,,,,new-york,False
d50b6659-79a6-44bd-a77c-c2560cf118c7,Paychex,payroll_services,,NY,New Hyde Park,11042.0,5 Dakota Dr Ste K301,40.7620101,-73.6907154,Microsoft,2021-02-15T21:07:11.283Z,0.77,5e975155-5561-4676-bd1d-51cf4b385ff6,5 Dakota Drive,commercial,commercial,OpenStreetMap,2024-09-08T15:16:34.000Z,,new-york,False
219d44db-f8da-4dbc-8f1d-cf05782826c5,Paychex,payroll_services,,NJ,Mount Arlington,7856.0,400 Valley Rd Ste 202,40.8988807,-74.6392715,Microsoft,2023-09-22T05:19:35.070Z,0.77,b2e29601-901e-4592-95fc-7f95f2aa8069,400 Valley Road,commercial,commercial,OpenStreetMap,2017-02-24T04:20:59.000Z,,new-york,False
d73a5e7a-3ef7-44ce-a909-9c9a67b23397,Paychex,payroll_services,,NJ,Fair Lawn,7410.0,"17-17 NJ-208, Ste 350",40.9445489,-74.1301725,Microsoft,2021-02-15T21:06:46.990Z,0.77,4c6bfc89-973e-42cc-9e41-ebdca53f941b,,,,OpenStreetMap,2020-07-06T20:29:27.000Z,,new-york,False
