id_left,primary_name_left,primary_category,alternate_category,region,locality,zipcode,address,latitude,longitude,plc_source_dataset,plc_source_update_time,plc_source_confidence,id_right,primary_name_right,subtype,class,bldg_dataset,bldg_update_time,bldg_confidence,source_city,is_office_by_pipeline
ce8021a2-a1d9-4db3-8692-a9e674e3458c,Progressive Missionary Baptist Church,baptist_church,"['church_cathedral', 'religious_organization']",IL,Rockford,61102.0,109 Lincoln Park Blvd,42.2767607,-89.1481728,meta,2025-06-02T07:00:00.000Z,0.9784508333782836,03f4c7f5-8385-445f-8f5f-aaf4b256ca04,,,,OpenStreetMap,2024-06-28T15:24:01.000Z,,rockford,False
d883b2ec-d759-4915-9831-8803798e85e8,Spectrum Progressive School of Rockford,elementary_school,"['education', 'middle_school']",IL,Rockford,61107.0,4848 Turner St,42.2682729,-89.0250219,meta,2025-06-02T07:00:00.000Z,0.9879256218304756,7221683c-e126-4c78-9309-97d723ef7ddf,,,,OpenStreetMap,2024-06-27T19:54:41.000Z,,rockford,False
e9d1fdd8-aebe-425c-8650-f849d7f2f59b,Progressive Steel Treating,commercial_industrial,"['professional_services', 'metal_fabricator']",IL,Loves Park,61111.0,922 Lawn Dr,42.3095428,-89.0488062,meta,2025-06-02T07:00:00.000Z,0.9459263554653524,34ed5ffb-f598-45fb-a48f-046d0f402343,,,,OpenStreetMap,2024-06-27T19:22:50.000Z,,rockford,False
e05914d0-c14f-4475-b0d7-eb89ac3f215b,Progressive Chiropractic Wellness & Rehab Center,chiropractor,"['doctor', 'professional_services']",IL,Loves Park,61111.0,6377 Sebring Way,42.3197107,-88.9920727,meta,2025-06-02T07:00:00.000Z,0.3376623376623376,,,,,,,,rockford,False
8129840e-f96c-430a-876f-c1bfd3c88d54,Progressive Motion Physiotherapy,physical_therapy,"['hospital', 'chiropractor']",CA,Palo Alto,94306.0,310 S California Ave,37.42739,-122.14439,meta,2025-06-02T07:00:00.000Z,0.7548172757475083,cdd67e2d-43b2-4ece-8ed7-7192f6a87bf2,,,,OpenStreetMap,2016-02-08T18:47:34.000Z,,san-jose,False
5e409f81-e435-483f-92aa-706f109276f2,Bee Progressive,agricultural_cooperatives,"['farm', 'insurance_agency']",CA,San Carlos,94070.0,90 Glenn Way,37.514876,-122.265422,meta,2025-06-02T07:00:00.000Z,0.296943231441048,5db8f687-6b83-452d-8a0d-70adf7d3a003,,,,OpenStreetMap,2016-02-03T14:04:49.000Z,,san-jose,False
72c21fbe-2b2c-4555-aa3b-4f82284eabfb,Progressive Motion Physiotherapy,physical_therapy,['hospital'],CA,Menlo Park,94025.0,3475 Edison Way,37.47687,-122.1975,meta,2025-06-02T07:00:00.000Z,0.242152466367713,4341dacf-a0b5-474f-965d-bbe9afee5340,,,,OpenStreetMap,2015-11-25T20:56:44.000Z,,san-jose,False
3784659a-3916-44f3-8c3e-9c9fc83a84d1,Progressive Athletics,active_life,"['gym', 'health_and_medical']",CA,Fremont,94555.0,34767 Ardenwood Blvd,37.5516524,-122.0549618,meta,2025-06-02T07:00:00.000Z,0.9784508333782836,b3da8a93-aa68-4b47-b3a6-5b98cc05718c,,,,OpenStreetMap,2023-09-04T02:45:27.000Z,,san-jose,False
e2b56f9c-cedf-4bf2-897b-ad3e45b86725,Progressive Kids,computer_coaching,"['childrens_clothing_store', 'home_service']",CA,Fremont,94555.0,3090 Darwin Dr,37.5804255,-122.0311304,meta,2025-06-02T07:00:00.000Z,0.909823677581864,4442573b-9d4f-4dc3-ac1d-d67d2a9195d8,,,,OpenStreetMap,2020-12-17T05:35:55.000Z,,san-jose,False
f588e778-f539-4889-b3a5-4581c553e4be,Progressive Insurance,insurance_agency,,CA,Santa Clara,95050.0,1234 Lafayette St,37.352254,-121.944806,meta,2025-06-02T07:00:00.000Z,0.3961437335670464,a05f0cbf-5bdc-48cf-8bf7-b2d51b53bebc,,,,OpenStreetMap,2017-04-04T11:41:02.000Z,,san-jose,False
3ad18ec8-053b-43cf-9945-ca31d3320419,Progressive Collision Repair - Body Shop,auto_body_shop,"['automotive', 'travel']",CA,San Jose,95110.0,790 Chestnut St,37.343144,-121.913942,Microsoft,2013-01-28T00:27:41.390Z,0.77,,,,,,,,san-jose,False
f60a8d03-44c6-4bfb-95ac-da9c426d7fa6,Progressive Uni Auto Body,automotive_repair,['auto_body_shop'],CA,San Jose,95125.0,1712 Stone Ave,37.306355,-121.874796,meta,2025-06-02T07:00:00.000Z,0.296943231441048,eda65e8f-a491-46ef-a0d8-0a7cd61ed75c,,,,OpenStreetMap,2022-03-15T00:04:28.000Z,,san-jose,False
709cf1cc-d3eb-4158-acb8-c3319cf26dd7,Progressive Solutions,printing_services,"['professional_services', 'software_development']",CA,Santa Clara,95050.0,2170 Martin Ave,37.365508,-121.962904,meta,2025-06-02T07:00:00.000Z,0.3376623376623376,b4165eea-c019-4361-bc27-8611a0c3882c,,,,OpenStreetMap,2025-06-05T02:51:12.000Z,,san-jose,False
f1ab19bd-951d-4a3d-b075-bb93dc534fd6,Progressive Technology Solutions,information_technology_company,"['it_service_and_computer_repair', 'professional_services']",CA,Milpitas,95035.0,1851 McCarthy Blvd,37.4002155,-121.9150787,meta,2025-06-02T07:00:00.000Z,0.9300613496932516,76ad93ca-55ae-4b04-88d2-1b86bbee1a2a,Miltechs Center,,,OpenStreetMap,2020-09-30T22:32:42.000Z,,san-jose,False
9c5fc6f3-1e73-4ded-932b-e6940dbd7ace,Progressive Health Orthopedic Medical Group,orthopedist,"['doctor', 'physical_therapy']",CA,Indio,92201.0,81880 Doctor Carreon Blvd,33.7076936,-116.2355458,meta,2025-06-02T07:00:00.000Z,0.5662921348314607,55ff6c78-1567-4ee2-9e98-a7187ecacf7f,,,,OpenStreetMap,2024-12-07T02:54:12.000Z,,indio,False
498fe0d4-b807-4cea-804c-8b90b5fe5b97,Kings and Queens Progressive Restaurant,american_restaurant,"['restaurant', 'bar']",CA,Palm Springs,92262.0,266 S Palm Canyon Dr,33.820006,-116.546389,meta,2025-06-02T07:00:00.000Z,0.4929396662387676,fdafcef9-702b-4da1-a8d3-9279542b0b11,Village Pub,commercial,,OpenStreetMap,2017-03-16T00:48:15.000Z,,indio,False
649fd4f5-6740-4474-b1df-b88411fd3288,Progressive Christian Fellowship,religious_organization,['church_cathedral'],VA,Portsmouth,23707.0,613 Virginia Ave,36.84456,-76.33103,meta,2025-06-02T07:00:00.000Z,0.3961437335670464,9299bfb4-abe0-4700-af2c-610a1324ed05,,religious,church,OpenStreetMap,2025-01-06T00:10:56.000Z,,virginia-beach,False
058174e7-78e8-4ee0-a45f-8d54ad6bed85,Progressive WOWI-Fm 1970-75,radio_station,,VA,Norfolk,23507.0,713 Colonial Ave,36.8602,-76.29612,meta,2025-06-02T07:00:00.000Z,0.2456896551724137,d4471d6d-3570-4cfd-85ba-dfe6f1446f25,,residential,residential,OpenStreetMap,2016-04-16T16:39:55.000Z,,virginia-beach,False
058174e7-78e8-4ee0-a45f-8d54ad6bed85,Progressive WOWI-Fm 1970-75,radio_station,,VA,Norfolk,23507.0,713 Colonial Ave,36.8602,-76.29612,meta,2025-06-02T07:00:00.000Z,0.2456896551724137,df311c71-ed4c-4260-9353-17ce0bb2e799,,residential,residential,OpenStreetMap,2016-04-06T02:28:40.000Z,,virginia-beach,False
a9f7a020-5778-458d-a8fa-1141137cb5a7,Progressive Neurology and Sleep Center,neurologist,['health_and_medical'],VA,Chesapeake,23320.0,501 Baylor Ct,36.7505903,-76.2234487,meta,2025-06-02T07:00:00.000Z,0.9784508333782836,b6a2c1c1-6cc1-40bf-acf4-6e82aa44ceeb,,commercial,commercial,OpenStreetMap,2016-01-31T01:34:16.000Z,,virginia-beach,False
1cdedba7-7ddf-49ea-8ab8-71e092e10c30,Progressive Prosthetic and Ortho,doctor,"['orthotics', 'prosthetics', 'health_and_medical']",VA,Virginia Beach,23462.0,380 Cleveland Pl,36.844352,-76.162177,Microsoft,2014-01-27T14:58:52.897Z,0.77,,,,,,,,virginia-beach,False
7ccb8f8a-a333-42ee-a64c-e4eeca91cce6,Progressive Chiropractic,chiropractor,['health_and_medical'],VA,Virginia Beach,23462.0,4740 Baxter Rd,36.829637,-76.1404695,meta,2025-06-02T07:00:00.000Z,0.4929396662387676,,,,,,,,virginia-beach,False
9c8c16d4-220b-4b6c-9cac-1b97699a9d56,Progressive Chiropractic,chiropractor,"['naturopathic_holistic', 'spas']",VA,Virginia Beach,23452.0,4664 South Blvd,36.8316454,-76.1369571,meta,2025-06-02T07:00:00.000Z,0.9784508333782836,6c7c7860-4db5-4cd4-8b99-cdfc5b570e93,,commercial,commercial,OpenStreetMap,2016-03-08T16:53:17.000Z,,virginia-beach,False
2c0df745-571b-4455-a99b-68b162d6cbcf,Progressive Graphics,printing_services,"['business_advertising', 'graphic_designer']",VA,Virginia Beach,23453.0,2860 Crusader Cir,36.799983,-76.066196,meta,2025-06-02T07:00:00.000Z,0.3961437335670464,3f099b6d-bec2-4b89-aa74-68077483c884,,industrial,industrial,OpenStreetMap,2016-03-08T21:02:32.000Z,,virginia-beach,False
b717e788-0fd9-46b6-8400-dcbde6c83f3b,Progressive Crane,business_to_business,,OH,Cleveland,44142.0,21000 Aerospace Pkwy,41.3960384,-81.8632352,Microsoft,2025-05-06T13:24:35.380Z,0.77,,,,,,,,cleveland,False
6001debe-e7e9-4b73-8ac4-125139c6a17e,Progressive Land Title Agency,real_estate,"['real_estate_agent', 'professional_services']",OH,Parma Heights,44130.0,6363 York Rd,41.3879986,-81.76179,meta,2025-06-02T07:00:00.000Z,0.9784508333782836,4e3714c7-52f3-40c4-9924-34f5b200e92c,,,,OpenStreetMap,2019-04-09T17:37:30.000Z,,cleveland,False
03f5bb8a-1d03-4566-bb2c-ec4c05153e78,Progressive Cleveland West,insurance_agency,['business'],OH,North Olmsted,44070.0,24950 Country Club Blvd,41.416318,-81.898936,meta,2025-06-02T07:00:00.000Z,0.4929396662387676,bb8b1ee4-158e-49a4-a5e1-a0e47b54b690,,,,OpenStreetMap,2021-07-26T19:11:02.000Z,,cleveland,False
f3b216f0-071f-4a86-879c-39ed42e1f9f9,Progressive Cleveland Boat Show,boat_dealer,"['tours', 'sports_and_recreation_venue']",OH,Cleveland,0.0,,41.3988278,-81.8535294,meta,2025-06-02T07:00:00.000Z,0.1666666666666666,caf1e71c-4411-4443-96eb-8c7989d8df8a,I-X Center,entertainment,,OpenStreetMap,2024-08-16T11:17:08.000Z,,cleveland,False
23b5b222-8c1c-4bb7-96ef-7e231d4317f8,Progressive Insurance - Parma Service Center,insurance_agency,['automotive'],OH,Cleveland,44130.0,12710 Corporate Dr,41.408922,-81.77701,meta,2025-06-02T07:00:00.000Z,0.4929396662387676,8b814ae9-697a-41b7-b73d-75c3d3330b2c,,,,OpenStreetMap,2022-03-14T23:28:08.000Z,,cleveland,False
80aa5e5a-6752-4fec-b08e-96f1ba625302,Progressive Plastics Inc,plastic_manufacturer,"['professional_services', 'commercial_industrial']",OH,Cleveland,44135.0,14801 Emery Ave,41.44364,-81.799225,meta,2025-06-02T07:00:00.000Z,0.9459263554653524,298951f4-d527-45bf-bd3a-efa3d665f00f,,,,OpenStreetMap,2012-03-27T08:24:46.000Z,,cleveland,False
98beafb7-c363-49fe-8730-a80619e676e5,Cuyahoga County Progressive Caucus,political_organization,"['political_party_office', 'social_service_organizations']",OH,Lakewood,44107.0,11910 Detroit Ave,41.4840413,-81.7724433,meta,2025-06-02T07:00:00.000Z,0.9459263554653524,e71be3cd-2246-46de-9eb4-6bf96f8219eb,,,,OpenStreetMap,2018-01-16T22:00:22.000Z,,cleveland,False
9e8ff84f-45b7-4b37-a031-0685e70d32c3,"Progressive Land Title Agency, LTD",real_estate,"['automotive', 'home_improvement_store']",OH,Independence,44131.0,5000 Rockside Rd,41.396274,-81.655539,meta,2025-06-02T07:00:00.000Z,0.296943231441048,cc551d78-d2a2-4b07-b2a6-a44e3a04eeb9,Liberty Plaza,commercial,commercial,OpenStreetMap,2025-05-11T03:44:16.000Z,,cleveland,False
f4f6de26-fd35-456a-8c30-3c0fd4572fa6,Progressive Baptist Church,baptist_church,"['church_cathedral', 'religious_organization']",OH,Cleveland,44128.0,4582 Lee Rd,41.4338723,-81.5649673,meta,2025-06-02T07:00:00.000Z,0.9784508333782836,,,,,,,,cleveland,False
a3763e98-5b39-4e83-9e2f-c31df95b2191,Progressive Taekwondo & Family Fitness Center,martial_arts_club,"['gym', 'fitness_trainer']",OH,Cleveland,44128.0,16400 Miles Ave,41.4399434,-81.5660748,meta,2025-06-02T07:00:00.000Z,0.9784508333782836,53c830bb-06ad-49c5-8238-29bee54d7881,,,,Microsoft ML Buildings,2020-09-19T00:00:00.000Z,,cleveland,False
b2f95a2c-f98d-42c1-a551-50ae86f50028,Progressive Baptist Church of Tomorrow,church_cathedral,"['baptist_church', 'religious_organization']",OH,Cleveland,44104.0,11307 Kinsman Rd,41.4687111,-81.6047753,meta,2025-06-02T07:00:00.000Z,0.9415384615384615,dda727d7-cf01-47d5-a415-f38dbf3eca7f,,,,OpenStreetMap,2023-12-26T18:47:48.000Z,,cleveland,False
3b658c78-1a2d-4784-abb3-2f4b71d9fe36,Progressive Evangelistic Temple,religious_organization,['church_cathedral'],OH,Cleveland,44104.0,11307 Kinsman Rd,41.4687292,-81.6047807,meta,2025-06-02T07:00:00.000Z,0.9784508333782836,dda727d7-cf01-47d5-a415-f38dbf3eca7f,,,,OpenStreetMap,2023-12-26T18:47:48.000Z,,cleveland,False
70f87f02-65c0-4cc5-bf66-ccb973b34302,Progressive Urban Real Estate,real_estate_agent,['real_estate'],OH,Cleveland,44113.0,4001 Detroit Ave,41.4878079,-81.7156465,meta,2025-06-02T07:00:00.000Z,0.9784508333782836,d78a9dba-562b-4059-94fa-0525d3faae3d,Progressive Urban Real Estate,commercial,office,OpenStreetMap,2021-04-20T20:05:15.000Z,,cleveland,True
a633d536-e1d2-4739-80ff-2a4ebdecaf65,"Sara Olson, Progressive Urban Real Estate",real_estate_agent,"['sex_therapist', 'lawyer']",,,44113.0,4001 Detroit Ave,41.4877839,-81.7155818,meta,2025-06-02T07:00:00.000Z,0.8831168831168831,d78a9dba-562b-4059-94fa-0525d3faae3d,Progressive Urban Real Estate,commercial,office,OpenStreetMap,2021-04-20T20:05:15.000Z,,cleveland,False
be76b33f-0ec3-48d2-b3f3-da85edc94bc3,Progressive Field,baseball_stadium,"['stadium_arena', 'topic_concert_venue']",OH,Cleveland,44115.0,2401 Ontario St,41.4960328,-81.6852994,meta,2025-06-02T07:00:00.000Z,0.9784508333782836,,,,,,,,cleveland,False
f343160b-ac50-42f0-931e-16e6c4cc5deb,Progressive Baptist Church,baptist_church,"['church_cathedral', 'religious_organization']",OH,Cleveland,44104.0,2366 E 63rd St,41.4942086,-81.6466289,meta,2025-06-02T07:00:00.000Z,0.9784508333782836,45bac9d7-a494-4b9b-be11-490597160edc,,,,OpenStreetMap,2021-09-05T15:10:21.000Z,,cleveland,False
fdd89bee-0dcc-44d9-8036-c05111ad89e1,Progressive Benefits,insurance_agency,,OH,Solon,44139.0,31300 Solon Rd,41.3860265,-81.4574803,meta,2025-06-02T07:00:00.000Z,0.296943231441048,f863b380-f7a1-4ec5-a828-a424f92f1fcf,,,,OpenStreetMap,2025-03-04T16:13:12.000Z,,cleveland,False
37e8c1d0-8330-4b98-af9e-0a90deb91e13,Progressive Mold,damage_restoration,"['environmental_conservation_and_ecological_organizations', 'environmental_and_ecological_services_for_businesses']",OH,Pepper Pike,44124.0,31100 Pinetree Rd,41.4619149,-81.4584107,meta,2025-06-02T07:00:00.000Z,0.9204819277108434,84a21cdf-8e99-4929-a3b4-be3420510c96,,,,Microsoft ML Buildings,2020-09-19T00:00:00.000Z,,cleveland,False
816c8acc-c790-4e3f-9da5-c2ac7c9031c5,Progressive Insurance,commercial_real_estate,"['corporate_office', 'private_establishments_and_corporates']",OH,Mayfield Heights,44124.0,5920 Landerbrook Dr,41.5037698911,-81.4661464304,Microsoft,2014-05-12T15:19:39.133Z,0.77,,,,,,,,cleveland,True
a3f29b2d-d4ad-449b-8cb3-bcde0e03194e,Progressive Insurance,health_insurance_office,"['commercial_real_estate', 'health_and_medical']",OH,Mayfield Heights,44124.0,6055 Parkland Blvd,41.5097957791,-81.4584238125,Microsoft,2014-05-12T15:19:39.133Z,0.77,49769497-eaa1-4dd3-8bc5-eb9f7f4160bb,Progressive Insurance Eastmark Building,commercial,commercial,OpenStreetMap,2019-11-16T03:55:56.000Z,,cleveland,False
cfbbd5d0-4b84-4d04-8b86-c3b74ec2ff89,Progressive,insurance_agency,,OH,Cleveland,44143.0,6300 Wilson Mills Rd,41.534532,-81.450831,meta,2025-06-02T07:00:00.000Z,0.9879256218304756,60fd4f93-2eb1-4d0a-b389-1d97eda2b89f,,,,OpenStreetMap,2014-02-16T21:20:16.000Z,,cleveland,False
1e49c546-9ea2-4daa-875e-be81e1d24487,Progressive Insurance,auto_insurance,"['life_insurance', 'commercial_real_estate']",OH,Mayfield Village,44143.0,6300 Wilson Mills Rd,41.5355606079,-81.4509124756,Microsoft,2014-05-12T15:19:39.133Z,0.77,60fd4f93-2eb1-4d0a-b389-1d97eda2b89f,,,,OpenStreetMap,2014-02-16T21:20:16.000Z,,cleveland,False
7bec4505-87f8-496a-8ab9-eee5e1f4cccb,Progressive Small Business Insurance,insurance_agency,,OH,Highland Heights,44143.0,747 Alpha Dr,41.5430098,-81.4520994,meta,2025-06-02T07:00:00.000Z,0.9688311688311688,7825763f-72df-4dd1-8177-c92f7519c238,,commercial,commercial,OpenStreetMap,2014-03-08T06:56:03.000Z,,cleveland,False
fbfed947-cb1e-4011-bc98-8983e213e937,Progressive Omega East,real_estate,['event_planning'],OH,Highland Heights,44143.0,625 Alpha Dr,41.548096,-81.451583,meta,2025-06-02T07:00:00.000Z,0.3961437335670464,6a123215-7cef-4b4f-9ff8-05109239f4ec,,,,OpenStreetMap,2014-03-03T15:21:46.000Z,,cleveland,True
8d917577-bf7a-49dc-93ce-fe851ea4fd21,Progressive Insurance,insurance_agency,,OH,Cleveland,44143.0,651 Beta Dr,41.5456273,-81.4439754,meta,2025-06-02T07:00:00.000Z,0.9204819277108434,ed0a94d9-bd48-41c9-a87f-5b8acbc06511,,,,OpenStreetMap,2022-01-24T18:35:59.000Z,,cleveland,False
7c491a82-e76d-4119-8a71-d02a64388135,Progressive Office,event_planning,"['insurance_agency', 'education']",OH,Cleveland,44143.0,6671 Beta Dr,41.5484733,-81.4428658,meta,2025-06-02T07:00:00.000Z,0.7548172757475083,16e35d0f-0235-485b-8ce3-0c1ba77656f2,,commercial,office,OpenStreetMap,2015-03-27T00:22:38.000Z,,cleveland,False
d221ebb8-c8b4-4752-a501-272acab9aeb2,Progressive US,insurance_agency,,OH,Cleveland,44143.0,300 N Commons Blvd,41.5642466,-81.4438696,meta,2025-06-02T07:00:00.000Z,0.7548172757475083,cffd9904-a520-4924-a8be-2ef5f1dff27a,Greens,commercial,office,OpenStreetMap,2015-12-07T00:41:49.000Z,,cleveland,False
f5d16c0d-b0fe-4a33-95e5-40485ff8ecf3,AVI Fresh for Progressive,grocery_store,"['cafe', 'restaurant']",OH,Cleveland,44143.0,300 N Commons Blvd,41.564478,-81.444342,meta,2025-06-02T07:00:00.000Z,0.3961437335670464,cffd9904-a520-4924-a8be-2ef5f1dff27a,Greens,commercial,office,OpenStreetMap,2015-12-07T00:41:49.000Z,,cleveland,False
c6996a7a-32e9-4f96-a27a-b28412f4c0d1,Progressive Insurance,commercial_real_estate,"['corporate_office', 'private_establishments_and_corporates']",OH,Mayfield Village,44143.0,300 N Commons Blvd,41.5659242369,-81.4436467469,Microsoft,2014-05-12T15:19:39.133Z,0.77,5bc40bf7-d6bd-4f1f-98fb-87367bf4ce06,Woods,commercial,office,OpenStreetMap,2014-03-15T21:54:16.000Z,,cleveland,True
57f8e812-6a18-46e9-9b3e-5baad7e7c26f,Progressive,insurance_agency,['bar'],OH,Euclid,44117.0,22291 Euclid Ave,41.57309,-81.525645,meta,2025-06-02T07:00:00.000Z,0.3376623376623376,611a8668-1f5f-49d0-9725-dfdb326cbb31,McDonald's,commercial,,OpenStreetMap,2024-05-09T11:58:31.000Z,,cleveland,False
eacb7d77-0c85-40fa-8c19-b43240a9ded5,"Progressive Training Center, Voyager Building",insurance_agency,"['financial_service', 'active_life']",OH,Wickliffe,0.0,,41.6222774,-81.4596974,meta,2025-06-02T07:00:00.000Z,0.4929396662387676,822a634c-80a2-44c1-8c93-3ead97bef2ed,Progressive Claims Training Center,commercial,commercial,OpenStreetMap,2017-05-28T21:54:32.000Z,,cleveland,False
6a28d737-823a-4503-b286-45771c42b217,TeeDee's Bluegrass Progressive Club,dance_club,"['jazz_and_blues', 'music_venue']",KY,Lexington,40507.0,266 E 2nd St,38.0456297,-84.4906459,meta,2025-06-02T07:00:00.000Z,0.7548172757475083,4ba9651e-0221-4f84-861e-4ccefee5bb92,,commercial,commercial,OpenStreetMap,2014-11-22T19:29:24.000Z,,lexington-fayette,False
72871418-2935-4700-88f5-6fb311c51cc5,Progressive,insurance_agency,,KY,Lexington,40509.0,3008 Atkinson Ave,38.014047,-84.420813,meta,2025-06-02T07:00:00.000Z,0.3961437335670464,2fe34789-8913-4d1d-8715-138ded4e8ac9,,,,OpenStreetMap,2016-03-08T08:00:46.000Z,,lexington-fayette,False
ee506b1b-3e92-4b78-934c-a2d952aac909,Progressive Growers Inc,nursery_and_gardening,,FL,Mt Dora,32757.0,4206 Laughlin Rd,28.7460949,-81.609924,meta,2025-06-02T07:00:00.000Z,0.9300613496932516,80675fb6-b59a-4796-acac-c98fc69db8ef,,,,Microsoft ML Buildings,2022-03-21T00:00:00.000Z,,orlando,False
bcb5d554-cd42-4331-a261-54342747f504,Progressive Insurance - Orlando Service Center,auto_insurance,['home_and_rental_insurance'],FL,Orlando,32837.0,2256 Taft Vineland Rd,28.4187711,-81.4081707,Microsoft,2018-06-07T12:25:39.310Z,0.77,639f1e79-aa4e-4cbd-a1b2-fe91ba2324db,,,,OpenStreetMap,2014-11-20T08:04:23.000Z,,orlando,False
b1a7dc14-9de2-438a-9bda-58d8e22a5240,Progressive Insurance Claims Office,insurance_agency,,FL,Maitland,32751.0,901 N Lake Destiny Rd,28.6377051,-81.3890614,meta,2025-06-02T07:00:00.000Z,0.9784508333782836,8192292f-b3e7-42e4-8617-8dffdfc620a4,,,,OpenStreetMap,2020-07-16T00:43:56.000Z,,orlando,True
479480a1-c7eb-4623-b209-9612246c31fc,Progressive Wellness Medical Center,hospital,"['family_practice', 'health_and_medical']",FL,Orlando,32806.0,22 Lake Beauty Dr,28.522469,-81.377374,meta,2025-06-02T07:00:00.000Z,0.3961437335670464,,,,,,,,orlando,False
19c624d8-8d6d-46d9-b14c-c6b3f935d4dc,Progressive Synergy Solutions,business_management_services,"['consultant_and_general_service', 'business_consulting', 'business_to_business_services', 'business_to_business']",FL,Orlando,32801.0,618 E South St Ste 500,28.5384837,-81.3688297,Microsoft,2023-12-15T00:15:16.963Z,0.77,,,,,,,,orlando,True
de7c447e-68b8-42ca-bbe2-8fdda9248564,The Progressive Beat,counseling_and_mental_health,"['life_coach', 'hospital']",FL,Winter Park,32789.0,315 N Wymore Rd,28.6001517,-81.3857655,meta,2025-06-02T07:00:00.000Z,0.909823677581864,5a373a51-1169-4bd4-bc01-54fddeb7a1cf,,,,OpenStreetMap,2018-07-22T20:53:06.000Z,,orlando,False
f7d9a6bb-7af3-4b25-a307-a2043480592a,Progressive Pediatrics,pediatrician,"['hospital', 'doctor']",FL,Longwood,32750.0,521 W State Road 434,28.6992578,-81.3518224,meta,2025-06-02T07:00:00.000Z,0.9415384615384615,ba00d52e-782e-4b9a-aa6a-6d7de4764604,,medical,hospital,OpenStreetMap,2023-03-08T21:45:33.000Z,,orlando,False
bd027661-ba77-4c71-a026-208a6fdb9402,Progressive Communications,printing_services,"['business_advertising', 'graphic_designer']",FL,Lake Mary,32746.0,1001 Sand Pond Rd,28.741224,-81.361448,meta,2025-06-02T07:00:00.000Z,0.242152466367713,3a65c774-77d3-46c3-b642-ced3c4c2f065,,,,OpenStreetMap,2019-12-24T00:40:35.000Z,,orlando,False
00854ec7-0982-4a2f-8809-db46c2c6967e,iFocus Progressive Learning Center,non_governmental_association,"['school', 'education']",FL,Lake Mary,32746.0,165 Middle St,28.7536345,-81.3367681,meta,2025-06-02T07:00:00.000Z,0.9784508333782836,26aa21f4-aad6-4291-ba17-808ea9ce296b,,,,OpenStreetMap,2020-07-13T19:35:59.000Z,,orlando,False
179cc825-3133-4fa3-8412-37c72bb82c04,Hawaii Progressive Flooring,building_supply_store,"['flooring_store', 'retail']",HI,Honolulu,96819.0,2688 Kilihau St Ste H,21.33584884472509,-157.89580683068849,Microsoft,2016-11-22T19:27:51.897Z,0.77,,,,,,,,honolulu,False
55f8a646-df21-411a-ae3b-1df85ce5f403,Progressive Plastics,plastic_manufacturer,"['plastic_fabrication_company', 'construction_services']",HI,Honolulu,96817.0,819 Moowaa St,21.324959,-157.8718371,meta,2025-06-02T07:00:00.000Z,0.9459263554653524,52987ca1-e32f-4d8c-93de-4830ed90f935,,,,OpenStreetMap,2021-10-25T18:55:18.000Z,,honolulu,False
d24bcf53-6592-45c6-9d23-681e088e6ab9,Progressive Plastics,building_supply_store,"['plastic_fabrication_company', 'business_to_business', 'retail']",HI,Honolulu,96817.0,819 Moowaa St Ste 206,21.3255718,-157.8719755,Microsoft,2025-04-21T06:29:02.350Z,0.77,,,,,,,,honolulu,False
553daecb-5a26-4443-981a-f3f0a66ce390,Progressive Auto Sounds,automotive_parts_and_accessories,,HI,Honolulu,96701.0,98-025 Hekaha St,21.3840817,-157.9507669,meta,2025-06-02T07:00:00.000Z,0.9784508333782836,b62179aa-a630-4f8b-bd74-8145df774f7a,,commercial,commercial,OpenStreetMap,2024-01-17T02:46:56.000Z,,honolulu,False
8f160273-52ed-4df7-a7c1-68b646e156a3,Progressive Island Records,music_production,"['music_and_dvd_store', 'broadcasting_media_production']",HI,Honolulu,96701.0,99-1285 Halawa Valley St,21.3740411,-157.9036201,meta,2025-06-02T07:00:00.000Z,0.9300613496932516,30d9c507-ad6d-44ac-a86c-4acb27d8ef82,,industrial,industrial,OpenStreetMap,2024-06-15T06:29:29.000Z,,honolulu,False
08bb2f3c-2607-4a01-b5ee-1e0e1d9ee7c8,Progressive Dental Management,business_management_services,"['event_planning', 'business']",MA,Needham Heights,2494.0,220 Reservoir St,42.3099108,-71.2278209,meta,2025-06-02T07:00:00.000Z,0.9300613496932516,70ca2f32-4c6d-49f0-b0da-dc5b1175c3fd,,,,OpenStreetMap,2022-12-29T21:57:48.000Z,,boston,True
aa71a46f-6f10-4c77-9a24-c4058849a4d6,Progressive Insurance,auto_insurance,['home_and_rental_insurance'],MA,Westwood,2090.0,62 Everett St,42.2136878,-71.1869039,Microsoft,2018-07-13T16:23:27.933Z,0.77,365c35c1-bd4c-46e4-a2d7-7a55e948a0df,,,,OpenStreetMap,2020-09-15T02:53:33.000Z,,boston,False
06309db1-7d7d-4ac7-bc4c-81e8cd8c361c,Brookline Progressive Dental Team,cosmetic_dentist,"['general_dentistry', 'pediatric_dentist', 'dentist', 'health_and_medical']",MA,Brookline,2445.0,1842 Beacon St Ste 301,42.3371915,-71.1454156,Microsoft,2024-12-04T18:32:17.350Z,0.77,,,,,,,,boston,False
a03d09a9-c8b4-4c19-8a0e-c2c5226c9ace,Chinese Progressive Association - CPA Boston,community_services_non_profits,['social_service_organizations'],MA,Boston,2111.0,28 Ash St,42.3486765,-71.0634375,meta,2025-06-02T07:00:00.000Z,0.9415384615384615,f32ec088-35a3-408e-94ba-31aa6f0fcb5e,The Metropolitan Boston,,,OpenStreetMap,2025-04-19T07:13:38.000Z,,boston,False
4ccf161e-28fe-467f-8d12-62b0be3b1254,Progressive Recruitment,employment_agencies,,MA,Boston,2110.0,33 Arch St Ste 17,42.356138,-71.0577626,Microsoft,2024-03-29T00:24:03.493Z,0.77,1525a4ba-5991-4b18-9cb6-9dca009cdb7b,Compton Building,commercial,office,OpenStreetMap,2024-05-09T18:46:32.000Z,,boston,False
e8e85bfa-d3c1-4b37-82a5-1fa7820ae514,Cambridge Progressive Insurance,insurance_agency,['professional_services'],MA,Cambridge,2138.0,66 Church St,42.3736946,-71.123524,meta,2025-06-02T07:00:00.000Z,0.242152466367713,bb669b75-01ee-43f5-9e6d-df0969325628,,residential,apartments,OpenStreetMap,2021-09-25T20:46:02.000Z,,boston,False
f6e25a22-703b-436a-95f5-66a9919fd28d,Progressive Accounting LLC,trusts,"['accountant', 'professional_services']",MA,Salem,1970.0,120 Washington St,42.5210259,-70.8958395,meta,2025-06-02T07:00:00.000Z,0.9459263554653524,06099d15-7f20-4ebc-8cfc-a8b998cd5665,,commercial,retail,OpenStreetMap,2023-11-22T19:18:49.000Z,,boston,False
398cdc80-99f6-420f-9832-1d2b9d58e891,Progressive Physical Therapy Charleston West,physical_therapy,['health_and_medical'],SC,Charleston,29414.0,3424 Shelby Ray Ct,32.8194885253906,-80.0658950805664,Microsoft,2012-03-08T13:50:40.280Z,0.77,f3c73bb7-4cfa-41eb-9e9a-10c7fd24a9ae,,,,OpenStreetMap,2018-12-20T16:24:41.000Z,,charleston,False
2fb19ef5-5024-4d47-9470-bbec4effdd10,Progressive Physical Therapy,physical_therapy,"['health_and_medical', 'counseling_and_mental_health']",SC,Charleston,29414.0,3424 Shelby Ray Ct,32.8196412,-80.0659539,meta,2025-06-02T07:00:00.000Z,0.9784508333782836,,,,,,,,charleston,False
96bf1a5e-fdc8-49b5-8a9e-baef5f57f2f5,Progressive Insurance - Claims Office,corporate_office,['private_establishments_and_corporates'],SC,North Charleston,29405.0,4130 Faber Place Dr Ste 202,32.844389,-80.021091,Microsoft,2023-11-14T20:22:34.670Z,0.77,4d8d97a9-868e-4380-830e-89ca19652e04,,commercial,commercial,OpenStreetMap,2019-02-08T16:20:07.000Z,,charleston,True
94c436a8-f729-4150-a83f-35e967b6dbc6,Progressive Insurance,event_planning,,SC,North Charleston,29405.0,4000 Faber Pl Dr,32.8452822,-80.019888,meta,2025-06-02T07:00:00.000Z,0.3376623376623376,aaabb5c9-1e77-4e8b-b05d-ea90ea5254d0,,commercial,commercial,OpenStreetMap,2025-02-11T12:12:52.000Z,,charleston,True
1f1f6427-ce49-4f4c-a306-b052184c4a2c,Progressive,insurance_agency,,SC,North Charleston,29405.0,3955 Rivers Ave,32.863896,-79.988218,meta,2025-06-02T07:00:00.000Z,0.4929396662387676,fec16d1b-d349-4fe1-b6d1-55209d5b1387,Progressive,,,OpenStreetMap,2024-08-14T15:11:40.000Z,,charleston,False
3c8975bb-1049-473e-87ad-164d69192136,Charleston Progressive Academy,elementary_school,"['middle_school', 'public_school']",SC,Charleston,29403.0,382 Meeting St,32.7910494,-79.9365412,meta,2025-06-02T07:00:00.000Z,0.9784508333782836,,,,,,,,charleston,False
3811f9da-5eed-4767-a4ba-3fabfd2bed4d,Progressive Club,bar,"['dance_club', 'arts_and_entertainment']",SC,Charleston,29406.0,1947 Stokes Ave,32.925427,-80.027277,meta,2025-06-02T07:00:00.000Z,0.7548172757475083,201de2d5-3fa5-4090-9367-675240982b84,,,,Microsoft ML Buildings,2022-04-15T00:00:00.000Z,,charleston,False
f5a0cc2c-3843-4ee8-a75d-e7817fcb4836,Progressive Physical Therapy,physical_therapy,"['health_and_medical', 'hospital']",SC,North Charleston,29406.0,8091 Rivers Ave,32.9545353,-80.0431068,meta,2025-06-02T07:00:00.000Z,0.9784508333782836,,,,,,,,charleston,False
979450d4-3bfe-46bc-aa80-dfb3347f0cf1,Progressive Insurance,insurance_agency,['financial_service'],TX,Austin,78704.0,3908 Menchaca Rd,30.234083,-97.785893,meta,2025-06-02T07:00:00.000Z,0.3961437335670464,d47dbe67-f8fe-4e9f-8ee6-8c61fd03580c,,,,OpenStreetMap,2015-12-01T22:44:47.000Z,,austin,False
a04cc09b-ecaa-45e0-96de-73637488de04,Progressive Claims Office,business,['insurance_agency'],TX,Austin,78744.0,7301 Metro Center Dr,30.2090523,-97.6971714,meta,2025-06-02T07:00:00.000Z,0.7548172757475083,f7f330bf-40cd-4bf0-86eb-c03aec9a3979,Progressive Insurance,,,OpenStreetMap,2023-09-21T18:21:01.000Z,,austin,True
94215435-d6d9-4a43-8f45-2090bd43c63d,Labyrinth Progressive Student Ministry,religious_organization,"['church_cathedral', 'community_services_non_profits']",TX,Austin,78705.0,2007 University Ave,30.28334,-97.73927,meta,2025-06-02T07:00:00.000Z,0.4929396662387676,5d85b423-9d29-416b-98f6-fa5b991736ca,University Christian Church,religious,church,OpenStreetMap,2024-09-22T14:41:55.000Z,,austin,False
8d094a0b-23fc-440e-b408-0cba40cf4413,Progressive Endocrinology,endocrinologist,"['weight_loss_center', 'doctor']",TX,Cedar Park,78613.0,3009 Glacier Pass,30.5193999,-97.7756084,meta,2025-06-02T07:00:00.000Z,0.3961437335670464,3213278e-1a58-4dca-ae96-61556657a32c,,,,OpenStreetMap,2015-12-04T16:55:36.000Z,,austin,False
77a07f1c-2139-4836-833b-c30d0befddbb,Progressive Neuro Therapy,occupational_therapy,"['physical_therapy', 'speech_therapist']",TX,Austin,78751.0,5555 N Lamar Blvd,30.3227055,-97.7255395,meta,2025-06-02T07:00:00.000Z,0.9459263554653524,175b2ca3-e90a-4342-9e1e-79c398efb3dd,,,,OpenStreetMap,2015-11-08T18:57:44.000Z,,austin,False
9b8448b6-b064-4a53-9fe7-08e7bbe289dc,Progressive Insurance,auto_insurance,,TX,Austin,78758.0,2521 Rutland Dr #150,30.382424,-97.723433,Microsoft,2019-08-02T14:25:20.220Z,0.77,ab27e880-3147-4179-a3c1-fcd3b2bfba70,,commercial,commercial,OpenStreetMap,2016-06-25T18:41:45.000Z,,austin,False
59c2e3ec-e03a-40e3-91a8-73edc7f5335f,Progressive Insurance,auto_insurance,['home_and_rental_insurance'],TX,Austin,78753.0,10700 N Lamar Blvd,30.3766065,-97.6905883,Microsoft,2018-07-13T16:23:27.933Z,0.77,e1380a23-e6f1-459e-9c0d-0dc387786c8c,,,,OpenStreetMap,2015-11-28T21:21:29.000Z,,austin,False
b1a99e64-24dc-4bda-aa80-486106bb2753,Progressive Manufacturing Technology,business_manufacturing_and_supply,"['industrial_company', 'commercial_industrial']",TX,Pflugerville,78660.0,828 New Meister Ln,30.4821702,-97.6266914,meta,2025-06-02T07:00:00.000Z,0.9459263554653524,35d1fcfd-7782-45b9-b942-fc24142784a0,,,,OpenStreetMap,2024-02-13T21:11:26.000Z,,austin,False
4f1a8411-3ca5-451b-b889-d0d666b6f102,Progressive Dental Arts,dentist,"['cosmetic_dentist', 'medical_service_organizations']",DE,Newark,19713.0,685 E Chestnut Hill Rd,39.6741604,-75.7036975,meta,2025-06-02T07:00:00.000Z,0.9784508333782836,20ede310-165e-41b7-9514-3f68ac3719f0,,,,Microsoft ML Buildings,2020-09-05T00:00:00.000Z,,philadelphia,False
98546d17-0d14-4572-8137-eebca4a26b74,Progressive Life Center,community_services_non_profits,"['social_service_organizations', 'charity_organization']",DE,Newark,19702.0,262 Chapman Rd,39.6681595,-75.6747028,meta,2025-06-02T07:00:00.000Z,0.9297091412742382,,,,,,,,philadelphia,False
b304765e-d2ef-45ca-9d99-e1dab5454e23,Authorized Progressive Insurance Agent - Russell G. Lewis,insurance_agency,,DE,Newark,19711.0,40 E Main St,39.68348,-75.75194,meta,2025-06-02T07:00:00.000Z,0.4929396662387676,,,,,,,,philadelphia,False
a2a715ef-aa3b-4b26-bb94-b0788872e606,Progressive Dental Arts Christiana,dentist,"['professional_services', 'endodontist']",DE,Newark,19713.0,44 Omega Dr,39.690842,-75.6758176,meta,2025-06-02T07:00:00.000Z,0.9459263554653524,02e9a485-267e-4799-9f81-ccc86d60a8e7,,,,Microsoft ML Buildings,2020-09-05T00:00:00.000Z,,philadelphia,False
eb11a539-6926-4aba-ac59-357e760a8388,Progressive,insurance_agency,,DE,Newark,19713.0,121 Continental Dr,39.688068,-75.6612647,meta,2025-06-02T07:00:00.000Z,0.7548172757475083,17109c46-cc6c-4ead-ab3c-13e5ec75fd78,,,,OpenStreetMap,2017-03-02T12:52:08.000Z,,philadelphia,False
723a11cb-c999-4f84-9964-68c45ab590eb,Progressive Dental Arts Pike Creek,dentist,"['medical_service_organizations', 'health_and_medical']",DE,Wilmington,19808.0,5301 Limestone Rd,39.7441433,-75.6948459,meta,2025-06-02T07:00:00.000Z,0.9784508333782836,afb320bc-9097-408f-9f39-a3ac68ecaedb,Stone Batter Office Building,commercial,commercial,OpenStreetMap,2016-09-07T22:26:34.000Z,,philadelphia,False
41be746b-19b8-49cd-866e-bcc0a6dc7f4e,Progressive Staffing,professional_services,['information_technology_company'],DE,Wilmington,19808.0,3422 Old Capitol Trl,39.7309685,-75.6278721,meta,2025-06-02T07:00:00.000Z,0.909823677581864,c8a842ef-23c4-4f9b-8404-8df49eda8e35,,,,Microsoft ML Buildings,2020-09-05T00:00:00.000Z,,philadelphia,False
d6093a00-1f2d-4054-beda-89db96632cfa,Progressive Telecom LLC,telecommunications_company,"['professional_services', 'b2b_science_and_technology']",DE,Wilmington,19808.0,3422 Old Capitol Trl,39.7311777,-75.6278962,meta,2025-06-02T07:00:00.000Z,0.9204819277108434,,,,,,,,philadelphia,False
6661d775-1b77-4b7e-8503-2a5fcbcaf859,Progressive Health Institute,doctor,['naturopathic_holistic'],DE,Wilmington,19810.0,3411 Silverside Rd,39.8093235,-75.5427341,meta,2025-06-02T07:00:00.000Z,0.909823677581864,538e7f44-9344-4433-aa1e-1524004cc7bc,,,,Microsoft ML Buildings,2020-10-14T00:00:00.000Z,,philadelphia,False
44946683-97a4-40c5-b398-2eb2fb0bdade,Progressive Health of Delaware,family_practice,"['hospital', 'internal_medicine']",DE,Wilmington,19810.0,3411 Silverside Rd,39.8106413,-75.5408637,meta,2025-06-02T07:00:00.000Z,0.9784508333782836,38f71d48-c48b-43a4-a3a3-f4341a6e6bf2,,,,Microsoft ML Buildings,2020-10-14T00:00:00.000Z,,philadelphia,False
e0cbb8e4-dd92-49da-8194-7cb31580b8c2,Progressive Health Institute,medical_center,['health_and_medical'],DE,Wilmington,19810.0,"3411 Silverside Rd, Springer Building Ste 103",39.81156,-75.541344,Microsoft,2024-07-02T16:59:22.153Z,0.77,,,,,,,,philadelphia,False
49099641-33f4-430f-b424-9344b7ec8230,Progressive Pool Management,pool_cleaning,"['swimming_pool', 'travel_company']",DE,Claymont,19703.0,1900 Philadelphia Pike,39.787691,-75.474533,meta,2025-06-02T07:00:00.000Z,0.4929396662387676,72acd894-ca3f-4cdd-9495-bdd77b290267,,,,Microsoft ML Buildings,2020-10-14T00:00:00.000Z,,philadelphia,False
b37347fb-0775-4713-bdd8-3dee2b7577d4,"Progressive Airway, Sleep & Wellness",health_and_medical,['pharmacy'],PA,Glen Mills,19342.0,23 Regency Plz,39.88604,-75.53022,meta,2025-06-02T07:00:00.000Z,0.5662921348314607,b4ea6f7b-4f0f-424d-b985-f1cd35dc28f8,,commercial,commercial,OpenStreetMap,2014-05-29T06:29:16.000Z,,philadelphia,False
e21a413e-ec0e-4c00-ba8d-e5a4300c16dd,"Progressive Dentistry, Sleep & Wellness",cosmetic_dentist,"['general_dentistry', 'dentist', 'health_and_medical']",PA,Glen Mills,19342.0,23 Regency Plz,39.886162,-75.529911,Microsoft,2022-04-07T21:51:33.040Z,0.77,,,,,,,,philadelphia,False
3c068c8c-ec82-4101-9e53-317e82b6c565,"Progressive Dentistry, Sleep & Wellness",cosmetic_dentist,"['general_dentistry', 'dentist', 'health_and_medical']",PA,Glen Mills,19342.0,23 Regency Plz,39.88948,-75.51761,Microsoft,2019-06-15T12:36:15.917Z,0.77,,,,,,,,philadelphia,False
7b1fdfc0-a15d-4d6a-9332-ebe55048ffa9,Progressive Business Publications,topic_publisher,"['professional_services', 'shopping']",PA,Malvern,19355.0,370 Technology Dr,40.059775,-75.5384032,meta,2025-06-02T07:00:00.000Z,0.9415384615384615,,,,,,,,philadelphia,False
554df1de-e626-4dcf-93cc-689f20dd881d,Progressive Gifts and Incentives,flowers_and_gifts_shop,"['advertising_agency', 'shopping']",PA,Malvern,19355.0,370 Technology Dr,40.0597788,-75.5384007,meta,2025-06-02T07:00:00.000Z,0.8831168831168831,,,,,,,,philadelphia,False
598b66e8-4eb6-43b8-88d6-1fb593c902cc,Progressive Chiropractic,chiropractor,"['naturopathic_holistic', 'health_and_medical']",PA,Tredyffrin Twp,19301.0,36 Chestnut Rd,40.040671,-75.480174,meta,2025-06-02T07:00:00.000Z,0.9784508333782836,8c7dc7a2-8938-405d-87b4-71f7037c0c81,,,,Esri Community Maps,2024-10-15T00:00:00.000Z,,philadelphia,False
59c4b626-2be6-4ba2-bc78-20b64b4ef54e,Progressive Conflict Solutions,professional_services,['legal_services'],,,19063.0,Veterans Sq.,39.9188494,-75.3920285,meta,2025-06-02T07:00:00.000Z,0.8540983606557377,1890ee4f-0b36-4ce5-9535-7b0504130ee6,,,,Microsoft ML Buildings,2020-09-21T00:00:00.000Z,,philadelphia,False
30f993c1-2721-4cdf-9229-d873619bc7c3,Progressive Health Inc.,occupational_therapy,"['medical_service_organizations', 'counseling_and_mental_health']",PA,Haverford Twp,19083.0,525 West Chester Pike,39.9709134,-75.305753,meta,2025-06-02T07:00:00.000Z,0.9415384615384615,,,,,,,,philadelphia,False
94d76d24-4b85-43fe-839d-5f4200d50615,Progressive New Homes,home_developer,,PA,Wayne,19087.0,125 Strafford Ave,40.04591,-75.39762,meta,2025-06-02T07:00:00.000Z,0.242152466367713,,,,,,,,philadelphia,False
a3c8e546-ee60-481c-b958-090b7032c296,Progressive Pipeline Management,contractor,"['environmental_conservation_and_ecological_organizations', 'public_utility_company']",NJ,Wenonah,8090.0,101 E Linden St,39.802504,-75.14622,meta,2025-06-02T07:00:00.000Z,0.7548172757475083,7661422c-b750-4724-9fc1-4827c8bd1ce9,,commercial,commercial,OpenStreetMap,2014-03-28T12:08:34.000Z,,philadelphia,False
12c5112a-1959-47bf-9f06-020283534e49,Progressive Pipeline Management,commercial_industrial,['insurance_agency'],NJ,West Deptford Twp,8066.0,1490 Imperial Way,39.8313203,-75.2014659,meta,2025-06-02T07:00:00.000Z,0.296943231441048,,,,,,,,philadelphia,False
8d79d94b-a6e9-415a-950b-d900f9cd745c,Progressive Worship Center,religious_organization,['church_cathedral'],PA,Philadelphia,19146.0,1146 S 26th St,39.9388912,-75.1870223,meta,2025-06-02T07:00:00.000Z,0.9784508333782836,4d3dba5a-8634-4c8d-91ba-f24a02bbc4cd,Autism Rec,religious,,OpenStreetMap,2024-06-01T18:42:29.000Z,,philadelphia,False
684a34d8-2fd2-433c-acd5-6da45c3b6b71,Progressive Democrat Club,lounge,"['bar', 'bar_and_grill_restaurant']",NJ,Camden,8104.0,1009 Ferry Ave,39.9196145,-75.1082688,meta,2025-06-02T07:00:00.000Z,0.9784508333782836,4f60aa28-8825-4dc2-8a2d-a2fd0452ed1c,Progressive Democrat Club,commercial,retail,OpenStreetMap,2015-08-11T04:53:38.000Z,,philadelphia,False
cbcdd497-b8ca-44fc-952e-37de6d4d86e6,First Refuge Progressive Baptist Church,baptist_church,['religious_organization'],NJ,Camden,8103.0,1479 Kaighn Ave,39.9326137,-75.0971464,meta,2025-06-02T07:00:00.000Z,0.9784508333782836,,,,,,,,philadelphia,False
6695ae67-65ce-4513-8a75-1ae65cb4bff3,PLC - Progressive Life Center,community_services_non_profits,"['social_service_organizations', 'charity_organization']",PA,Philadelphia,19125.0,1341 N Delaware Ave,39.967629,-75.127901,meta,2025-06-02T07:00:00.000Z,0.5662921348314607,9ada027d-9950-47d5-8823-83c92802cac7,Penn Treaty Park Place,,,OpenStreetMap,2022-01-16T17:12:42.000Z,,philadelphia,False
68e67c69-44e9-4c33-a222-e6152c070191,New Birth Progressive Prmtv,church_cathedral,"['religious_organization', 'baptist_church']",PA,Philadelphia,19132.0,2118 W Clearfield St,40.0014355,-75.1653381,meta,2025-06-02T07:00:00.000Z,0.9300613496932516,75f7bcdd-586c-47b7-804c-c430af54b531,,,,OpenStreetMap,2024-11-02T17:14:58.000Z,,philadelphia,False
b4e8b297-cd2b-4d35-a942-e438e1f4afca,Progressive Supermarket Inc,supermarket,"['grocery_store', 'gas_station']",PA,Philadelphia,19144.0,5348 Wayne Ave,40.0290614,-75.1746866,meta,2025-06-02T07:00:00.000Z,0.9297091412742382,1ef47fa2-632f-4b54-aa70-e6afab6a900d,,,,OpenStreetMap,2024-02-18T15:18:15.000Z,,philadelphia,False
92814523-94d8-492a-ba5b-8aedcdb38676,Progressive Insurance - Claims Office,insurance_agency,,NJ,Mt Laurel,8054.0,1200 Rogers Walk,39.9262922,-74.9512408,meta,2025-06-02T07:00:00.000Z,0.9415384615384615,26cb94f3-6760-4d6f-aacb-989090dd754a,,,,OpenStreetMap,2017-03-03T18:25:33.000Z,,philadelphia,True
2c6f5375-8005-4d43-8c02-b5f63995a0aa,Progressive Vision Institute: Barbe Maria E MD,optometrist,"['doctor', 'hospital']",PA,Philadelphia,19152.0,8401 Bustleton Ave,40.0695138,-75.0501468,meta,2025-06-02T07:00:00.000Z,0.9784508333782836,9eebff45-e447-4013-ac5a-c546af87f7ef,,,,OpenStreetMap,2022-06-15T00:03:30.000Z,,philadelphia,False
a00e9994-af90-4fff-a145-5a6340e6c879,Progressive Machining Co,machine_shop,"['professional_services', 'automotive_repair']",PA,Spring City,19475.0,473 Pughtown Rd,40.1573826,-75.634737,meta,2025-06-02T07:00:00.000Z,0.9415384615384615,8ea44429-ddc5-4246-a65a-d7ff3089f963,,,,OpenStreetMap,2025-05-06T04:51:09.000Z,,philadelphia,False
a244cc30-2fbb-4adb-9355-600a358103b7,Progressive RehabÂ®,chiropractor,"['rehabilitation_center', 'surgical_center', 'health_and_medical']",PA,Royersford,19468.0,368 N Lewis Rd,40.1992147,-75.5368126,Microsoft,2019-12-13T15:50:48.253Z,0.77,,,,,,,,philadelphia,False
042f0dbe-f145-466c-bb5a-6a9d4ac15796,Progressive Eyecare Optique,eyewear_and_optician,['optometrist'],PA,Collegeville,19426.0,555 2nd Ave,40.1769899,-75.4606033,meta,2025-06-02T07:00:00.000Z,0.9784508333782836,,,,,,,,philadelphia,False
18195a2f-47a3-49ed-8934-0e3ee32cdf48,Progressive Insurance,insurance_agency,,PA,Plymouth Meeting,19462.0,5165 Campus Dr,40.115592,-75.261021,meta,2025-06-02T07:00:00.000Z,0.4929396662387676,d6475205-2fe2-43eb-af5d-c74b4699ade8,,commercial,commercial,OpenStreetMap,2022-12-13T21:59:00.000Z,,philadelphia,False
57544657-35b9-47ad-ab6b-84704acbca2a,Progressive Gynecology,obstetrician_and_gynecologist,"['doctor', 'hospital']",PA,Norristown,19401.0,2603 De Kalb Pike,40.1374666,-75.3169684,meta,2025-06-02T07:00:00.000Z,0.9784508333782836,,,,,,,,philadelphia,False
9984b09c-82cd-4969-8c4c-02e8f5b277f7,Progressive Graphics Inc.,screen_printing_t_shirt_printing,"['printing_services', 'shopping']",PA,Lansdale,19446.0,312 Walnut St,40.2443346,-75.283692,meta,2025-06-02T07:00:00.000Z,0.9784508333782836,05969fe7-287a-4d0f-8844-c46d3f9d4695,,,,OpenStreetMap,2017-02-01T11:41:22.000Z,,philadelphia,False
830a01f1-b8ba-463d-9134-cfedd46b3278,Progressive Insurance - Willow Grove Service Center,auto_insurance,['home_and_rental_insurance'],PA,Willow Grove,19090.0,2380 Maryland Rd,40.1605388,-75.1344281,Microsoft,2018-06-07T12:26:04.450Z,0.77,e18dafba-3a86-4d85-8ef2-81cff6ce51ec,,,,OpenStreetMap,2020-01-03T06:58:41.000Z,,philadelphia,False
221518a4-54d4-4edf-93f7-964e3c993086,Progressive Discount Tree Service,tree_services,['professional_services'],PA,Philadelphia,19115.0,1809 Lott Ave,40.0894612,-75.0328666,meta,2025-06-02T07:00:00.000Z,0.8540983606557377,e27de053-89de-4f4b-90ae-e7764b790303,,,,OpenStreetMap,2022-12-15T17:42:17.000Z,,philadelphia,False
75295b6c-68f7-42c0-be20-7614ab2ca07b,Progressive Dentistry,dentist,"['health_and_medical', 'pediatric_dentist']",PA,Lower Moreland Twp,19006.0,2600 Philmont Ave,40.1212438,-75.056813,meta,2025-06-02T07:00:00.000Z,0.9784508333782836,bacf41d1-eecb-4170-9355-f7a45fe03917,,,,OpenStreetMap,2018-03-14T23:05:29.000Z,,philadelphia,False
285bf071-5eee-45d8-b93e-430a6812b126,Progressive Living Recovery,addiction_rehabilitation_center,"['halfway_house', 'rehabilitation_center', 'health_and_medical']",PA,Bristol,19007.0,2100 Bath Rd,40.120502,-74.865411,Microsoft,2023-08-18T21:18:13.740Z,0.77,dfc768c9-7084-4026-ab2f-5d1977a5198e,,,,Esri Community Maps,2024-10-15T00:00:00.000Z,,philadelphia,False
cd857ed6-6285-4e81-ace7-85fc53d479f4,Progressive Living,abuse_and_addiction_treatment,"['halfway_house', 'alcohol_and_drug_treatment_centers']",PA,Middletown Twp,19056.0,310 Frosty Hollow Rd,40.1481425,-74.8820891,meta,2025-06-02T07:00:00.000Z,0.3376623376623376,,,,,,,,philadelphia,False
417d24d6-245f-45a2-97d7-68b6da981ebc,Progressive Men's Health,urologist,"['doctor', 'mens_clothing_store']",PA,Langhorne,19047.0,940 Town Center Dr,40.188404,-74.8776771,meta,2025-06-02T07:00:00.000Z,0.9784508333782836,991cd77d-a9f9-4a9e-9923-6e313dd4f1ae,,,,OpenStreetMap,2022-10-21T17:02:11.000Z,,philadelphia,False
d36bda4e-57a0-4f88-9efa-5b3f65b7217f,Saints Francis And Clare Progressive Catholic Community,catholic_church,"['church_cathedral', 'community_services_non_profits']",PA,Moosic,18507.0,3343 Greenwood Ave,41.3724276,-75.6975856,meta,2025-06-02T07:00:00.000Z,0.9784508333782836,b3ef3e8a-a9de-4135-84b8-333db4101669,,,,Microsoft ML Buildings,2000-01-01T00:00:00.000Z,,scranton,False
fe5e8e5e-9533-40f5-9a0a-2e07f3731a32,Progressive Insurance - Claims Office,insurance_agency,,PA,Scranton,18505.0,2200 Stafford Ave,41.3773602,-75.6745837,meta,2025-06-02T07:00:00.000Z,0.9204819277108434,7cf6cbe2-d006-4274-a4bb-d7b44ab2afaf,,,,OpenStreetMap,2017-12-06T17:06:54.000Z,,scranton,True
ea162128-6698-4dc5-a74a-9f270ee9ea92,Progressive Youth Center,social_service_organizations,"['youth_organizations', 'community_services_non_profits']",PA,Scranton,18509.0,414 Olive St,41.413055,-75.659217,meta,2025-06-02T07:00:00.000Z,0.5662921348314607,e84552d4-2572-442f-b97d-2863c227093d,UNC Progressive Childcare Center,,,OpenStreetMap,2017-04-24T08:55:17.000Z,,scranton,False
9b49d801-931a-4c87-9826-919565f563a4,Saints Francis and Clare Progressive Catholic Church,church_cathedral,['religious_organization'],PA,Scranton,18509.0,98 Larch St,41.42375,-75.65457,meta,2025-06-02T07:00:00.000Z,0.5662921348314607,3775495b-1388-4d61-8b30-874789da9a5a,,commercial,commercial,OpenStreetMap,2017-04-22T12:37:27.000Z,,scranton,False
e075ea71-dc99-4f2d-9ad5-b33ef63b643e,Progressive Insurance,insurance_agency,,MI,Flint,48507.0,5512 Fenton Rd,42.945318,-83.693487,meta,2025-06-02T07:00:00.000Z,0.7548172757475083,2edfad8b-869f-446a-aec5-8e06793afe04,,,,OpenStreetMap,2020-02-02T00:37:29.000Z,,flint,False
91a41fa6-6800-4d0b-8931-9da5f7321211,Progressive Roofing,roofing,"['contractor', 'home_improvement_store']",UT,Lehi,84043.0,851 E 675 S,40.3802835,-111.8352168,meta,2025-06-02T07:00:00.000Z,0.9415384615384615,9f056d99-63d4-406a-aecb-8143688aa709,,,,OpenStreetMap,2023-01-03T00:22:47.000Z,,provo,False
12926590-99a3-4b85-ae26-4ff0df0245fb,Progressive Eyecare & Sixty Minute Eyewear,optometrist,"['eye_care_clinic', 'health_and_medical', 'retail']",UT,Provo,84604.0,2255 N University Pkwy Ste 1,40.2627217758639,-111.668759286404,Microsoft,2011-08-21T02:23:57.030Z,0.77,bb2bfcdb-991a-4c82-9c88-043646aac72a,,,,OpenStreetMap,2010-12-09T00:18:56.000Z,,provo,False
50329399-8dde-4b9d-b2eb-aafffa32e624,Progressive Mortgage Corporation,mortgage_broker,['professional_services'],FL,Englewood,34223.0,1460 S McCall Rd,26.9389343,-82.3439029,meta,2025-06-02T07:00:00.000Z,0.9415384615384615,796accc7-3c7b-4ee5-bbc6-0e4aeeafa0ac,,,,OpenStreetMap,2022-09-28T13:50:53.000Z,,sarasota-bradenton,False
283e7300-741b-417c-8981-e73f66a8be84,Progressive Community Management,property_management,"['real_estate_agent', 'landmark_and_historical_building']",FL,Sarasota,34239.0,3701 S Osprey Ave,27.3006396,-82.5330171,meta,2025-06-02T07:00:00.000Z,0.9415384615384615,,,,,,,,sarasota-bradenton,False
b893f5c8-8f7b-4793-ae35-4104fe25d6f2,Progressive Airport Transportation Services,taxi_service,,FL,Sarasota,34239.0,3451 Brookline Dr,27.310929,-82.499601,meta,2025-06-02T07:00:00.000Z,0.242152466367713,a5fcf6e3-0e45-4ddd-b3fd-ec493d299ab9,,,,OpenStreetMap,2024-01-14T03:03:57.000Z,,sarasota-bradenton,False
3bec7ca4-8cdb-4fa6-8243-f624e4244347,Progressive,financial_service,['insurance_agency'],FL,Sarasota,34236.0,601 Washington Blvd N,27.34166,-82.53146,meta,2025-06-02T07:00:00.000Z,0.3376623376623376,0691f1b9-4ac4-442e-9f49-d105a5ca7900,,commercial,commercial,OpenStreetMap,2021-05-12T19:52:35.000Z,,sarasota-bradenton,False
3bec7ca4-8cdb-4fa6-8243-f624e4244347,Progressive,financial_service,['insurance_agency'],FL,Sarasota,34236.0,601 Washington Blvd N,27.34166,-82.53146,meta,2025-06-02T07:00:00.000Z,0.3376623376623376,17e1f460-d9f6-45f8-9675-664911db6a5b,,commercial,commercial,OpenStreetMap,2021-05-12T19:52:35.000Z,,sarasota-bradenton,False
b927f89d-7fa1-4b34-a4b9-76f4369088df,Progressive Paint,contractor,['painting'],FL,Sarasota,34237.0,1352 Manhattan Ave,27.3502356,-82.5268088,meta,2025-06-02T07:00:00.000Z,0.8860580325548478,74012a45-da7e-4ad9-bdfc-55ecbcb72628,,,,Microsoft ML Buildings,2020-02-24T00:00:00.000Z,,sarasota-bradenton,False
7f915d28-aac2-4bf6-b1e5-25f6517e1e87,Progressive Insurance,event_planning,['insurance_agency'],FL,Sarasota,34232.0,501 N Cattlemen Rd,27.3422695,-82.449328,meta,2025-06-02T07:00:00.000Z,0.9297091412742382,cdb907e6-7a87-4141-85ec-14279812feed,,,,OpenStreetMap,2020-12-07T20:27:22.000Z,,sarasota-bradenton,True
0b6f005c-06a0-40e4-a4a7-44778c67d3e9,Progressive Cabinetry,contractor,"['countertop_installation', 'interior_design']",FL,Bradenton,34209.0,6404 Manatee Ave W,27.4963519,-82.6258378,meta,2025-06-02T07:00:00.000Z,0.9784508333782836,47a58c9a-18d2-4497-bccc-cb31d0d37c3f,,commercial,commercial,OpenStreetMap,2018-09-07T22:11:07.000Z,,sarasota-bradenton,False
ea234541-225b-4dbf-a8e0-f42c4a84aa94,Progressive Airport Transportation Services,taxi_service,['airport'],FL,Sarasota,34243.0,6509 Magellan Ct,27.424,-82.54711,meta,2025-06-02T07:00:00.000Z,0.242152466367713,7442ec07-2de3-458e-8dd5-f8276303be6a,,,,OpenStreetMap,2022-01-01T23:50:33.000Z,,sarasota-bradenton,False
51ea7c4c-ac98-49d6-94bf-13781ade88bc,Progressive Pool Repair and Leak Specialists,pool_cleaning,"['beauty_and_spa', 'contractor']",FL,Sarasota,34243.0,6642 26th Ct E,27.4220637,-82.5313523,meta,2025-06-02T07:00:00.000Z,0.9300613496932516,6cd0692c-5fff-49a5-a191-4335e309695c,,,,OpenStreetMap,2020-07-31T23:46:46.000Z,,sarasota-bradenton,False
4edd801f-ad65-4d9c-8d7b-0928e6b096b8,Progressive Screens,home_security,"['business', 'home_improvement_store']",FL,Sarasota,34233.0,5350 Pinkney Ave,27.43561,-82.5352,meta,2025-06-02T07:00:00.000Z,0.5662921348314607,3cabba59-6bdd-4507-acc0-b03325aabaab,,,,OpenStreetMap,2020-07-30T00:10:12.000Z,,sarasota-bradenton,False
006a627b-a148-4548-8187-c6479c1e9c94,Progressive Tax Service,trusts,"['professional_services', 'financial_service']",MO,Fenton,63026.0,1803 Smizer Station Rd,38.5293555,-90.4908086,meta,2025-06-02T07:00:00.000Z,0.9297091412742382,,,,,,,,st-louis,False
4d10293c-80ff-4917-b351-d30b3e622127,Progressive Medical,surgical_appliances_and_supplies,"['pharmacy', 'health_and_medical']",MO,Fenton,63026.0,997 Horan Dr,38.5389254,-90.4635917,meta,2025-06-02T07:00:00.000Z,0.9300613496932516,,,,,,,,st-louis,False
f66e2a40-ee59-4b68-8711-3d110e32fa41,Progressive Solutions,it_service_and_computer_repair,['professional_services'],MO,Fenton,63026.0,1075 Headquarters Park,38.5408289,-90.4665242,meta,2025-06-02T07:00:00.000Z,0.8860580325548478,44295ea1-b986-41c2-91f6-785d9df71e26,,,,OpenStreetMap,2019-03-17T21:24:16.000Z,,st-louis,False
db52909b-b483-4733-ba29-8ed2dddb86d8,Progressive Lawn Managers Inc.,landscaping,['pest_control_service'],MO,Manchester,63021.0,120 Old Meramec Station Rd,38.5918303,-90.5117372,Microsoft,2016-05-13T11:45:39.683Z,0.77,,,,,,,,st-louis,False
d8b02601-c66e-4c8e-b6c2-b8aefd553f90,Progressive Recovery Inc,business_manufacturing_and_supply,"['industrial_company', 'professional_services']",IL,Dupo,62239.0,700 Industrial Dr,38.5303087,-90.1937689,meta,2025-06-02T07:00:00.000Z,0.9300613496932516,cfa8f8d6-75aa-436a-95dd-deaa07ee8b0f,Progressive Recovery Inc,industrial,industrial,OpenStreetMap,2017-12-19T01:16:06.000Z,,st-louis,False
ff6c36cc-9c33-4381-bdac-07379eb08a2f,Progressive AME Zion Church,church_cathedral,['religious_organization'],MO,St Louis,63112.0,5631 Wells Ave,38.669445,-90.2768319,meta,2025-06-02T07:00:00.000Z,0.7548172757475083,,,,,,,,st-louis,False
862a0c53-b4ce-4f89-9615-210b88ff810d,Progressive Emporium & Education Center,bookstore,"['social_service_organizations', 'naturopathic_holistic']",MO,St Louis,63113.0,1108 N Sarah St,38.6490522,-90.2397074,meta,2025-06-02T07:00:00.000Z,0.9784508333782836,c820a8a1-b825-4f53-95a3-598375267f82,,residential,residential,OpenStreetMap,2018-09-16T18:50:26.000Z,,st-louis,False
55c7a0c5-1c6e-4467-bfea-e90a1c5a4c83,Progressive Baptist Church,church_cathedral,['baptist_church'],MO,St Louis,63106.0,3021 Franklin Ave,38.6398744,-90.2214213,meta,2025-06-02T07:00:00.000Z,0.9784508333782836,edd643a8-ee50-4aa3-afeb-f3ae9e6d6b5e,Progressive Missionary Baptist Church,religious,church,OpenStreetMap,2024-08-21T12:06:28.000Z,,st-louis,False
7e63e7c8-9fed-4388-b43b-98c908b89b02,St. Louis Progressive Missionary Baptist District Association ,church_cathedral,,MO,St Louis,63106.0,913 N Garrison Ave,38.64017,-90.22067,meta,2025-06-02T07:00:00.000Z,0.242152466367713,789c06d4-57ee-45e7-8605-11e59e8d1850,Saint John Missionary Baptist Church,religious,,OpenStreetMap,2018-08-11T05:58:47.000Z,,st-louis,False
336ab465-9420-47ee-bb13-4f3831c75e87,Progressive Balloon,shopping,"['fashion', 'flowers_and_gifts_shop']",MO,St Peters,63376.0,3100 Industrial Park Pl W,38.799546,-90.668211,meta,2025-06-02T07:00:00.000Z,0.5662921348314607,37074a1c-b342-4af4-93de-bba87890921b,,industrial,industrial,OpenStreetMap,2020-08-12T13:15:45.000Z,,st-louis,False
785c1d80-7ee2-4e00-a5b7-be2784af4c63,Progressive Insurance,auto_insurance,['home_and_rental_insurance'],MO,Bridgeton,63044.0,13284 Corporate Exchange Dr,38.7572472,-90.4492035,Microsoft,2018-07-13T16:23:27.933Z,0.77,c1e27f2b-5bd9-4248-b697-409f039a758e,,,,OpenStreetMap,2017-01-12T15:19:40.000Z,,st-louis,False
aa9be7f8-d859-4d70-bb3c-639cff65c2e3,Greater Progressive MB Church,church_cathedral,['religious_organization'],MO,St Louis,63115.0,3917 N Taylor Ave,38.6726825,-90.2384047,meta,2025-06-02T07:00:00.000Z,0.9784508333782836,28393128-7cdb-45cc-a84b-036155d3ef53,,,,Microsoft ML Buildings,2022-08-25T00:00:00.000Z,,st-louis,False
9565e21a-728c-4422-9fdf-e3fad111baad,Progressive Family Eyecare,optometrist,['eyewear_and_optician'],WI,Fitchburg,53719.0,6321 McKee Rd,43.0135137,-89.4824857,meta,2025-06-02T07:00:00.000Z,0.9784508333782836,3e002c1b-167a-4291-a7d7-ecb489b48d24,Target,commercial,retail,OpenStreetMap,2024-08-19T17:50:26.000Z,,madison,False
59a9b417-18c0-4620-b5fa-ffddd60ec625,Progressive Family Eyecare,optometrist,['health_and_medical'],WI,Madison,53717.0,201 Junction Rd 201,43.06231,-89.52789,Microsoft,2018-05-14T08:24:11.337Z,0.77,,,,,,,,madison,False
de5dfcd9-7e3b-4c2f-97a3-0a584a622c67,The Progressive Magazine,community_services_non_profits,['topic_publisher'],WI,Madison,53703.0,30 W Mifflin St,43.0750457,-89.3873815,meta,2025-06-02T07:00:00.000Z,0.9784508333782836,00709579-0971-42b0-af52-e394f04060dc,,residential,apartments,OpenStreetMap,2024-08-31T15:03:50.000Z,,madison,False
de5dfcd9-7e3b-4c2f-97a3-0a584a622c67,The Progressive Magazine,community_services_non_profits,['topic_publisher'],WI,Madison,53703.0,30 W Mifflin St,43.0750457,-89.3873815,meta,2025-06-02T07:00:00.000Z,0.9784508333782836,e28f78a6-6ac6-48fd-ad36-869028f7d364,,residential,apartments,OpenStreetMap,2024-08-31T15:03:50.000Z,,madison,False
0e0e1a50-1eab-412e-8aa6-823880d64a14,Progressive Dane,political_party_office,"['political_organization', 'college_university']",WI,Madison,53703.0,1202 Williamson St,43.0834313,-89.3641699,meta,2025-06-02T07:00:00.000Z,0.8831168831168831,0120d656-f178-43f4-9166-9b57dc126e34,,commercial,office,OpenStreetMap,2024-10-03T19:34:10.000Z,,madison,False
fe6b8d84-0768-4795-afe0-0e4610bd4d25,Progressive Fitness and Performance,gym,"['fitness_trainer', 'active_life']",NE,Omaha,68138.0,9855 S 140th St,41.1621459,-96.1298833,meta,2025-06-02T07:00:00.000Z,0.9784508333782836,5531aed0-356e-440c-8ad2-b81db9d7edf5,,,,OpenStreetMap,2019-05-14T01:37:33.000Z,,omaha,False
2d82b370-724f-4c23-b562-4d0581395bfe,Progressive Insurance - Claims Office,insurance_agency,,NE,La Vista,68128.0,11820 Harrison St,41.1894779,-96.0995146,meta,2025-06-02T07:00:00.000Z,0.9784508333782836,f0240246-bcf2-4b5c-b4c3-897c1bbe2c57,Progressive Insurance,,,OpenStreetMap,2021-05-13T11:37:54.000Z,,omaha,True
f03e6377-ada8-40cf-aa1d-4f7533b2b68b,Progressive Business Technologies,office_equipment,"['appliance_repair_service', 'commercial_printer', 'retail']",NE,Omaha,68164.0,3321 N 109th Plz,41.289537,-96.083907,Microsoft,2025-05-15T18:01:10.283Z,0.77,5307b232-1f28-47a5-b254-331b844f465c,,commercial,retail,OpenStreetMap,2016-04-18T02:07:38.000Z,,omaha,False
2fa65c16-13a1-4e53-903b-94d3eb4bf53c,Cornerstone Progressive Health,family_practice,"['hospital', 'naturopathic_holistic']",NE,Omaha,68124.0,8031 W Center Rd,41.2334813,-96.0379425,meta,2025-06-02T07:00:00.000Z,0.9784508333782836,12778291-f28c-45e1-a04d-ffd5beacfc90,,,,OpenStreetMap,2024-08-17T09:57:08.000Z,,omaha,False
a9c6a749-6683-43b7-9407-464289b6fcd3,Progressive Insurance,insurance_agency,,NE,Omaha,68134.0,2214 N 90th Plz,41.278387,-96.053184,meta,2025-06-02T07:00:00.000Z,0.3376623376623376,,,,,,,,omaha,False
71cbe2ca-1f81-464a-8ab6-cc31dd24cc94,Progressive Protein,eat_and_drink,"['food_beverage_service_distribution', 'grocery_store']",NE,Omaha,68107.0,5102 S 26th St,41.207292,-95.950287,meta,2025-06-02T07:00:00.000Z,0.3961437335670464,f5e251dd-fe13-4237-a78f-3dc657002623,,,,Esri Community Maps,2024-10-15T00:00:00.000Z,,omaha,False
33f37990-2f2b-4dcc-9d14-0af9195c9e20,Progressive Motion Hair Studio,beauty_salon,"['barber', 'beauty_and_spa']",MD,Odenton,21113.0,1636 Annapolis Rd,39.106972,-76.722774,meta,2025-06-02T07:00:00.000Z,0.242152466367713,58474da0-b65b-4cee-836b-ce133718e2a4,,,,Microsoft ML Buildings,2022-08-13T00:00:00.000Z,,baltimore,False
003d545c-c14d-4dba-a0a0-406c08f97856,Progressive Athletics,gym,"['active_life', 'fitness_trainer']",MD,Columbia,21045.0,8835 Columbia 100 Pkwy,39.230399,-76.8153804,meta,2025-06-02T07:00:00.000Z,0.9784508333782836,b57e683e-399f-423b-a397-b38250d70c50,,commercial,commercial,OpenStreetMap,2021-11-09T01:13:50.000Z,,baltimore,False
828bb2bb-591f-4225-ba31-8465cd1f9a28,Progressive Steps,social_service_organizations,['community_services_non_profits'],MD,Windsor Mill,21244.0,3100 Lord Baltimore Dr,39.3372313,-76.7518638,meta,2025-06-02T07:00:00.000Z,0.909823677581864,,,,,,,,baltimore,False
087d6981-5f80-4faf-8c1e-b7541e983c74,Progressive First Baptist Church,religious_organization,['baptist_church'],MD,Baltimore,21216.0,3220 Garrison Blvd,39.3254945,-76.6829718,meta,2025-06-02T07:00:00.000Z,0.9415384615384615,9464f805-fb48-490a-9ba5-1fa68f31cfc6,Word of God Church & Ministries,religious,church,OpenStreetMap,2024-08-13T13:26:54.000Z,,baltimore,False
85c88500-1f9e-4cae-b411-e4ba30eac692,Toak's Progressive Bail Bonds,bail_bonds_service,['professional_services'],MD,Baltimore,21217.0,1612 W North Ave,39.310147,-76.6437883,meta,2025-06-02T07:00:00.000Z,0.909823677581864,f7d5a0ea-6fa5-4aab-877d-9bbbfdcc4284,,residential,house,OpenStreetMap,2022-05-19T06:58:26.000Z,,baltimore,False
85c88500-1f9e-4cae-b411-e4ba30eac692,Toak's Progressive Bail Bonds,bail_bonds_service,['professional_services'],MD,Baltimore,21217.0,1612 W North Ave,39.310147,-76.6437883,meta,2025-06-02T07:00:00.000Z,0.909823677581864,f89a9223-a2ca-43ee-b6cc-411ff427dd8d,,residential,house,OpenStreetMap,2022-05-19T06:58:26.000Z,,baltimore,False
85c88500-1f9e-4cae-b411-e4ba30eac692,Toak's Progressive Bail Bonds,bail_bonds_service,['professional_services'],MD,Baltimore,21217.0,1612 W North Ave,39.310147,-76.6437883,meta,2025-06-02T07:00:00.000Z,0.909823677581864,964e45d2-9b76-4596-a20a-2f89db0a50e3,Secret Society Beauty & Barber,commercial,retail,OpenStreetMap,2022-05-19T06:58:26.000Z,,baltimore,False
8642a3bb-46bb-4583-96bb-0e773e84996d,Progressive Insurance - Claims Office,insurance_agency,['automotive'],MD,Glen Burnie,21061.0,841 Cromwell Park Dr,39.1736862,-76.6398927,meta,2025-06-02T07:00:00.000Z,0.9784508333782836,f80175c9-d8fe-4eee-804a-fb20b0e52371,Progressive Insurance,,,OpenStreetMap,2023-08-20T01:05:56.000Z,,baltimore,True
5e1b5d1a-ffca-4c6d-b5c1-a5f032c422fa,Brooklyn Progressive,wholesale_store,"['automotive_parts_and_accessories', 'automotive_repair']",MD,Baltimore,21226.0,1631 Filbert St,39.2252436,-76.5870934,meta,2025-06-02T07:00:00.000Z,0.9300613496932516,143dd7e1-23aa-4c34-b6c5-b361dcee23d2,,,,OpenStreetMap,2015-04-03T08:42:01.000Z,,baltimore,False
5e1b5d1a-ffca-4c6d-b5c1-a5f032c422fa,Brooklyn Progressive,wholesale_store,"['automotive_parts_and_accessories', 'automotive_repair']",MD,Baltimore,21226.0,1631 Filbert St,39.2252436,-76.5870934,meta,2025-06-02T07:00:00.000Z,0.9300613496932516,fbce428c-4842-48c6-adf9-e332df43e937,,,,OpenStreetMap,2022-09-28T10:48:47.000Z,,baltimore,False
c080cae1-5473-4ac9-b0e1-3c2a11ac8f27,Progressive Service Group,security_services,,MD,Baltimore,21202.0,8 Market Pl Ste 100,39.2893928,-76.6071732,Microsoft,2019-02-17T20:09:40.533Z,0.77,fe95a07f-f71a-47fd-a5b7-f57242181436,,outbuilding,roof,OpenStreetMap,2021-12-31T21:52:11.000Z,,baltimore,False
c080cae1-5473-4ac9-b0e1-3c2a11ac8f27,Progressive Service Group,security_services,,MD,Baltimore,21202.0,8 Market Pl Ste 100,39.2893928,-76.6071732,Microsoft,2019-02-17T20:09:40.533Z,0.77,80b26ef3-e2ac-4ced-98a5-c66c69fd0b58,,,,OpenStreetMap,2021-12-31T21:52:11.000Z,,baltimore,False
e119e250-24c3-4a9a-9470-f9aa22ce09c1,Progressive Life Center,social_service_organizations,"['community_services_non_profits', 'charity_organization']",MD,Baltimore,21218.0,2641 Maryland Ave,39.3200776,-76.6184031,meta,2025-06-02T07:00:00.000Z,0.9459263554653524,5211b927-add2-443d-8233-a3e6eb4ad76c,,commercial,office,OpenStreetMap,2022-01-23T20:23:43.000Z,,baltimore,False
52cb6c33-aaf2-46a1-8a95-b690931bb2eb,Maryland Progressive Institute,specialty_school,"['school', 'elementary_school']",MD,Baltimore,21231.0,1801 E Fayette St,39.293857,-76.591528,meta,2025-06-02T07:00:00.000Z,0.3376623376623376,1a6cc7fe-b3bb-412c-bb92-96d27187a84f,Verizon,,,OpenStreetMap,2024-12-14T05:38:12.000Z,,baltimore,False
43389871-f903-4995-bc05-8546a8e941cf,Progressive Baptist Convention of Md. Inc.,church_cathedral,"['baptist_church', 'religious_organization']",MD,Baltimore,21213.0,1401 N Milton Ave,39.307292,-76.582598,meta,2025-06-02T07:00:00.000Z,0.3376623376623376,41debb94-097a-49d9-b7ab-be0b34411c05,,,,OpenStreetMap,2022-05-20T06:10:26.000Z,,baltimore,False
43389871-f903-4995-bc05-8546a8e941cf,Progressive Baptist Convention of Md. Inc.,church_cathedral,"['baptist_church', 'religious_organization']",MD,Baltimore,21213.0,1401 N Milton Ave,39.307292,-76.582598,meta,2025-06-02T07:00:00.000Z,0.3376623376623376,124f2f1f-f50c-4697-b1b1-cda07499b59b,,,,OpenStreetMap,2022-05-20T06:10:26.000Z,,baltimore,False
25070113-e080-4ab7-9a00-6569bc619f36,Maryland Progressive Institute,school,['education'],MD,Baltimore,21205.0,4509 E Monument St,39.2996918,-76.559284,meta,2025-06-02T07:00:00.000Z,0.242152466367713,74ec56fc-bb05-428f-89e4-8573d6e83fc6,,,,OpenStreetMap,2015-04-26T04:03:00.000Z,,baltimore,False
7ad25f10-c36b-4c5e-8f87-d86bbe64efd4,Progressive Faith Ministries,religious_organization,['church_cathedral'],MD,Baltimore,21212.0,5828 York Rd,39.3621895,-76.6106504,meta,2025-06-02T07:00:00.000Z,0.3961437335670464,3bc6acd9-5453-4581-8f5f-557b07cf4313,,,,OpenStreetMap,2022-12-11T13:51:36.000Z,,baltimore,False
ad1d7936-da72-4e1d-b329-1fb5549ea7a9,Progressive Driving Academy,driving_school,['education'],MD,Rosedale,21237.0,8330 Pulaski Hwy,39.3250003,-76.4997504,meta,2025-06-02T07:00:00.000Z,0.9415384615384615,d2efc74f-7cbd-4b99-8634-4c3a59209bfc,,commercial,commercial,OpenStreetMap,2014-08-19T02:50:32.000Z,,baltimore,False
5547558e-bd03-49b0-a029-f58fc4ddea03,Progressive Tag and Title LLC,automobile_registration_service,['automotive'],MD,Rosedale,21237.0,8330 Pulaski Hwy Ste G,39.3249593,-76.4993733,Microsoft,2025-05-15T18:57:07.107Z,0.77,,,,,,,,baltimore,False
0ddfdf00-2ad1-43ea-aef4-626fa24c5094,Progressive Insurance - Claims Office,insurance_agency,,,,21031.0,"Executive Plaza, 11350 McCormick Rd Ste 500, #2",39.493939,-76.6605726,meta,2025-06-02T07:00:00.000Z,0.9415384615384615,03406802-c1e1-4e29-8b02-6c253e0bf289,Executive Plaza,commercial,commercial,OpenStreetMap,2024-04-24T01:47:37.000Z,,baltimore,True
a77bbedb-b76f-4a4f-84ba-d84f4e3c5f8b,Progressive Church of God in Christ,church_cathedral,,NY,Lackawanna,14218.0,54 Glenwood Ave,42.8243664,-78.8440032,meta,2025-06-02T07:00:00.000Z,0.9784508333782836,5b0f4522-9081-428f-a17b-e5454a82432f,,,,Microsoft ML Buildings,2022-08-15T00:00:00.000Z,1.0,buffalo,False
c283c46f-88d7-45a3-b82e-e846061e4b2f,Orchard Park Progressive Physical Therapy,physical_therapy,"['hospital', 'health_and_medical']",NY,West Seneca,14224.0,1086 Union Rd,42.8297561,-78.7550137,meta,2025-06-02T07:00:00.000Z,0.9879256218304756,65d1d693-b965-4b76-bafd-898c5d42d818,,,,OpenStreetMap,2024-02-03T19:29:36.000Z,,buffalo,False
50bc2ed7-18f8-4404-89ef-3dc9ac4fbb8e,Progressive Roofing Inc,roofing,"['hvac_services', 'professional_services']",NY,Buffalo,14207.0,325 Grote St,42.9422033,-78.879392,meta,2025-06-02T07:00:00.000Z,0.9204819277108434,28a58793-1e06-42fb-9679-e69f3ee08a3f,,,,OpenStreetMap,2024-12-01T23:51:12.000Z,,buffalo,False
51c23ff9-cf58-427f-8822-50c685f4d90f,Progressive Medical Care,hospital,"['doctor', 'health_and_medical']",NY,Amherst,14221.0,777 Maple Rd,42.9905319,-78.7592347,meta,2025-06-02T07:00:00.000Z,0.9784508333782836,d56a0925-9ac3-43fe-8087-de4e376ac745,,,,OpenStreetMap,2024-02-03T13:28:37.000Z,,buffalo,False
36c37669-f8da-42a2-9b7d-cf8d8a29bc35,"Orchard Park Progressive Physical Therapy, PLLC",physical_therapy,['health_and_medical'],NY,Orchard Park,14127.0,3065 Southwestern Blvd Ste 108,42.8011951,-78.7429007,Microsoft,2019-09-04T07:39:29.797Z,0.77,,,,,,,,buffalo,False
2ad68a1c-5490-4161-856b-e39441163055,Progressive Direct Marketing,advertising_agency,"['printing_services', 'insurance_agency']",NY,Depew,14043.0,5800 Transit Rd,42.913587,-78.6969989,meta,2025-06-02T07:00:00.000Z,0.9459263554653524,,,,,,,,buffalo,False
5bdb46bc-0bdf-4439-9298-8dce2422891b,Progressive Insurance - Claims Office,insurance_agency,,NY,Lancaster,14221.0,6699 Transit Rd,42.9532723,-78.6939099,meta,2025-06-02T07:00:00.000Z,0.9415384615384615,f368f149-ae27-48b3-87eb-b6c2f9915b2f,,,,OpenStreetMap,2021-03-10T03:12:09.000Z,,buffalo,True
44df7e38-9616-4525-92f0-9a476948f745,Progressive Insurance - Claims Office,health_insurance_office,['health_and_medical'],NY,Williamsville,14221.0,6699 Transit Rd Ste 150,42.953246,-78.69385,Microsoft,2023-11-14T20:22:11.590Z,0.77,f368f149-ae27-48b3-87eb-b6c2f9915b2f,,,,OpenStreetMap,2021-03-10T03:12:09.000Z,,buffalo,True
d7b463a8-61fd-4c59-bba9-8f916c443d49,Progressive Insurance,insurance_agency,,CA,Fresno,93701.0,2004 E Divisadero St,36.7431829,-119.786665,meta,2025-06-02T07:00:00.000Z,0.3961437335670464,,,,,,,,fresno,False
1d66a911-f28b-4bfa-98dc-a3fa7e1dd9d7,Progressive Hair,hair_salon,"['beauty_salon', 'beauty_and_spa']",CA,Clovis,93612.0,601 W Shaw Ave,36.8090742,-119.7228064,meta,2025-06-02T07:00:00.000Z,0.9784508333782836,f1659917-b3a2-4df2-9e3b-9dd889544574,,,,OpenStreetMap,2025-02-24T07:13:24.000Z,,fresno,False
636ca724-8cd4-444f-944d-44a5908f10f8,New Progressive Cathedral Church Of God In Christ,church_cathedral,['pentecostal_church'],NY,Rochester,14611.0,384 Chili Ave,43.146841,-77.6471486,meta,2025-06-02T07:00:00.000Z,0.9784508333782836,0a7ef14e-eb38-4ccc-9ef4-a0657e3ed31a,,,,Microsoft ML Buildings,2023-05-28T00:00:00.000Z,0.9894999861717224,rochester,False
abf21c6d-c27c-4b9b-a3cc-aa0a12be3810,Mount Zion Progressive Missionary,baptist_church,"['church_cathedral', 'religious_organization']",NY,Rochester,14608.0,131 Dr Samuel McCree Way,43.1465368,-77.6263446,meta,2025-06-02T07:00:00.000Z,0.9784508333782836,0d10b2e1-0c52-4c5d-96cd-87c059bd7dd4,,,,OpenStreetMap,2025-03-17T02:37:06.000Z,,rochester,False
b09e6a27-4e92-4377-9c6b-d254656e9b37,Progressive Endodontics,dentist,"['endodontist', 'health_and_medical']",NY,Brighton,14618.0,980 Westfall Rd,43.1157787,-77.5953351,meta,2025-06-02T07:00:00.000Z,0.9459263554653524,2b4ec7d2-edab-464e-a272-7874a8aeee49,,commercial,commercial,OpenStreetMap,2021-03-09T18:12:10.000Z,,rochester,False
f1bd92f1-8f7c-4321-a9d7-0c902050c8dc,Progressive Barbershop,barber,"['beauty_salon', 'beauty_and_spa']",NY,Rochester,14620.0,1002 S Clinton Ave,43.1387492,-77.5951814,meta,2025-06-02T07:00:00.000Z,0.9784508333782836,,,,,,,,rochester,False
3be89ad0-35c4-451b-be60-7f0aa3489a19,Progressive Endodontics,dentist,"['hospital', 'doctor']",NY,Greece,14626.0,105 Canal Landing Blvd,43.1812714,-77.6948269,meta,2025-06-02T07:00:00.000Z,0.9784508333782836,a1ee873a-5c79-426e-9080-24dd7bc46e22,,,,OpenStreetMap,2011-07-01T02:20:29.000Z,,rochester,False
c6cf279c-dc78-4b67-9a2c-85648fcd703f,Progressive Implantology & Periodontics,periodontist,"['dentist', 'oral_surgeon']",NY,Greece,14626.0,105 Canal Landing Blvd,43.1813922,-77.6946243,meta,2025-06-02T07:00:00.000Z,0.9784508333782836,a1ee873a-5c79-426e-9080-24dd7bc46e22,,,,OpenStreetMap,2011-07-01T02:20:29.000Z,,rochester,False
a6aa1a1f-1c66-4e83-b3ba-2461dc1408cc,Progressive Implantology & Periodontics,general_dentistry,"['oral_surgeon', 'periodontist', 'dentist', 'health_and_medical']",NY,Rochester,14626.0,105 Canal Landng Blvd,43.18143,-77.69444,Microsoft,2025-05-24T05:29:50.267Z,0.77,a1ee873a-5c79-426e-9080-24dd7bc46e22,,,,OpenStreetMap,2011-07-01T02:20:29.000Z,,rochester,False
4cb40bbf-2d67-47ee-a026-8b679a1cbf5a,Progressive Physical Therapy - West Columbia,gym,"['physical_therapy', 'active_life', 'health_and_medical']",SC,West Columbia,29169.0,3300 Sunset Blvd Ste 100,34.008383,-81.130358,Microsoft,2020-03-25T14:33:09.620Z,0.77,ae62a62c-b5be-49ac-893e-1b70eacdc12b,,,,OpenStreetMap,2017-09-26T16:19:20.000Z,,columbia-south-carolina,False
86f89669-4c86-4725-adfc-f48a471526e3,Progressive Insurance,insurance_agency,,SC,Columbia,29210.0,3604 Fernandina Rd,34.051296,-81.124225,meta,2025-06-02T07:00:00.000Z,0.5662921348314607,c2a78ca8-7e6c-428e-9943-c637636edd79,,,,OpenStreetMap,2017-12-10T17:33:07.000Z,,columbia-south-carolina,False
68033589-fb67-4ac0-b8cb-eafe94b3f7ae,South Carolina Progressive Network,community_services_non_profits,['political_organization'],SC,Columbia,29201.0,1340 Elmwood Ave,34.0139509,-81.0359454,meta,2025-06-02T07:00:00.000Z,0.9300613496932516,aa44205f-6c75-4582-ac4a-1147688829c5,,commercial,commercial,OpenStreetMap,2024-12-22T17:18:07.000Z,,columbia-south-carolina,False
44d19578-9762-4a93-8841-bbf38b221dce,Haskell Heights Progressive,baptist_church,"['church_cathedral', 'religious_organization']",SC,Columbia,29203.0,1323 Townsend St,34.0838347,-81.0452222,meta,2025-06-02T07:00:00.000Z,0.9784508333782836,303e0dec-b8e4-4e2c-a4d9-1b0c5cec1631,,,,Microsoft ML Buildings,2022-05-10T00:00:00.000Z,,columbia-south-carolina,False
351c1812-9824-41ba-8438-4b62d4b14df3,Damascus Progressive Church,church_cathedral,['religious_organization'],SC,Columbia,29209.0,1516 Blaine St,33.949087,-80.9516122,meta,2025-06-02T07:00:00.000Z,0.9459263554653524,42c3261a-c82b-4eb3-90e0-ae1ffa18fe74,,,,Microsoft ML Buildings,2022-04-15T00:00:00.000Z,,columbia-south-carolina,False
c0046db1-c789-4be9-83c6-16eea075940c,Progressive Physical Therapy,physical_therapy,"['occupational_therapy', 'hospital']",SC,Columbia,29209.0,7653 Garners Ferry Rd,33.9573216,-80.9365497,meta,2025-06-02T07:00:00.000Z,0.9784508333782836,810c8b18-eb47-4a09-bb7d-69bed737e1e8,Doctors Care,medical,,OpenStreetMap,2023-03-17T05:14:30.000Z,,columbia-south-carolina,False
0ce4e579-9e65-4b95-8322-d09f22a324dd,Progressive Physical Therapy Columbia East,physical_therapy,['health_and_medical'],SC,Columbia,29209.0,7653 Garners Ferry Rd,33.9575225114822,-80.935782417655,Microsoft,2012-03-08T13:48:54.907Z,0.77,,,,,,,,columbia-south-carolina,False
3a2bdb03-0a6b-4a13-8ad7-748a62442fb5,Progressive Believers Baptist Church,baptist_church,['religious_organization'],SC,Columbia,29209.0,1526 Elm Tree Rd,33.9746634,-80.9345745,meta,2025-06-02T07:00:00.000Z,0.9784508333782836,57cc2dae-7f62-424a-b198-679e151e9eac,,,,Microsoft ML Buildings,2022-04-15T00:00:00.000Z,,columbia-south-carolina,False
99f4b5b5-08cd-4a90-9203-8adda896c465,Progressive Church of Our Lord Jesus Christ,church_cathedral,['religious_organization'],SC,Columbia,29204.0,2222 Barhamville Rd,34.0236299,-81.0172925,meta,2025-06-02T07:00:00.000Z,0.9784508333782836,15d28a17-83a1-4a3c-83cf-b1ca4ad62716,,,,Microsoft ML Buildings,2022-05-10T00:00:00.000Z,,columbia-south-carolina,False
35cc4c9b-7742-4c7f-8709-dc97821f10be,Progressive Physical Therapy - Forest Acres,physical_therapy,['health_and_medical'],SC,Columbia,29204.0,2005 N Beltline Blvd Ste 4,34.0142377,-80.9853662,Microsoft,2020-03-23T15:44:01.603Z,0.77,,,,,,,,columbia-south-carolina,False
bc723ed5-a922-4981-9dc6-7aa2f5afa7d1,Progressive Physical Therapy,physical_therapy,"['health_and_medical', 'orthopedist']",SC,Columbia,29206.0,4500 Forest Dr,34.0206487,-80.9736275,meta,2025-06-02T07:00:00.000Z,0.9784508333782836,5f663a98-ef3d-4820-9386-7eeec3e2df10,,,,OpenStreetMap,2017-12-15T02:49:20.000Z,,columbia-south-carolina,False
0bf2aec5-a04d-48a6-88d5-e22e5a462ce4,Progressive Health Center,abuse_and_addiction_treatment,"['hospital', 'health_and_medical']",SC,Arcadia Lakes,29206.0,6941 N Trenholm Rd,34.0621924,-80.9578232,meta,2025-06-02T07:00:00.000Z,0.5662921348314607,,,,,,,,columbia-south-carolina,False
9a6e7179-755b-4e25-9eaf-de83cd71bb87,Progressive Physical Therapy Northeast,physical_therapy,['health_and_medical'],SC,Columbia,29223.0,10040 Two Notch Rd,34.1108894348145,-80.8892135620117,Microsoft,2013-11-15T19:38:27.990Z,0.77,,,,,,,,columbia-south-carolina,False
fc71d159-23c9-4a93-872c-8fb2153173bd,Progressive Physical Therapy,physical_therapy,"['health_and_medical', 'hospital']",SC,Columbia,29223.0,10040 Two Notch Rd,34.1135369,-80.8904386,meta,2025-06-02T07:00:00.000Z,0.9784508333782836,298af9aa-0559-4b9e-b47b-bebc269ee345,Doctors Care,medical,,OpenStreetMap,2023-06-12T01:15:46.000Z,,columbia-south-carolina,False
20f6ccbc-5bc1-41e5-a2d9-56ea3b4cf4fe,Progressive Home Medical,medical_supply,"['pharmacy', 'surgical_appliances_and_supplies']",AZ,Chandler,85248.0,10450 E Riggs Rd,33.2195896,-111.8568413,meta,2025-06-02T07:00:00.000Z,0.9879256218304756,91be81a3-9781-4280-b62a-80c086dd5fea,Good Sound Audiology,,,OpenStreetMap,2023-06-26T04:11:04.000Z,,phoenix,False
2c35e7cb-6a56-4241-943a-ab9326858c59,Progressive Living Communities,retirement_home,['hospital'],AZ,Phoenix,85042.0,1314 E Glass Ln,33.3846233,-112.0536384,meta,2025-06-02T07:00:00.000Z,0.9415384615384615,d637a0d4-b462-4a83-bd77-117326ba1c09,,,,OpenStreetMap,2023-10-30T04:52:56.000Z,,phoenix,False
2c35e7cb-6a56-4241-943a-ab9326858c59,Progressive Living Communities,retirement_home,['hospital'],AZ,Phoenix,85042.0,1314 E Glass Ln,33.3846233,-112.0536384,meta,2025-06-02T07:00:00.000Z,0.9415384615384615,d0151158-8981-4389-845e-56865eed893a,,,,OpenStreetMap,2023-10-30T04:52:56.000Z,,phoenix,False
b20f2dc1-82a2-4745-b6a7-21fd196fbdbc,Progressive Dentistry and Orthodontics,dentist,"['teeth_whitening', 'health_and_medical']",AZ,Chandler,85224.0,2995 W Elliot Rd,33.3483978,-111.892696,meta,2025-06-02T07:00:00.000Z,0.9784508333782836,531f5af0-dede-4b73-aa7f-3d1f7ab46cb8,,commercial,commercial,OpenStreetMap,2024-06-23T20:45:57.000Z,,phoenix,False
72f0cac2-5ce7-485e-add0-6ebcb94f8273,Progressive Media,event_photography,['professional_services'],AZ,Avondale,85392.0,12137 W Indian School Rd,33.492275,-112.320115,meta,2025-06-02T07:00:00.000Z,0.2456896551724137,,,,,,,,phoenix,False
0e213d06-fd19-4e53-9068-6ec327afb732,Progressive Junior School Mukono,school,"['education', 'middle_school']",,Mukono,256.0,Nabuti - Mukono,33.4953452,-112.2202713,meta,2025-06-02T07:00:00.000Z,0.4929396662387676,b73fc40c-8a81-49d3-a6c0-eaa4f12567ea,,,,Microsoft ML Buildings,2023-09-01T00:00:00.000Z,0.8458999991416931,phoenix,False
0e213d06-fd19-4e53-9068-6ec327afb732,Progressive Junior School Mukono,school,"['education', 'middle_school']",,Mukono,256.0,Nabuti - Mukono,33.4953452,-112.2202713,meta,2025-06-02T07:00:00.000Z,0.4929396662387676,1f22c666-8ab6-431a-ba4b-9f63de066670,Las Pasadita Hot Dogs,,,OpenStreetMap,2022-03-13T20:56:30.000Z,,phoenix,False
fa1aacbd-875c-4f65-9493-38302bd38bb9,Progressive Auto Collision,automotive_repair,"['auto_body_shop', 'wholesale_store']",AZ,Glendale,85301.0,5511 N 51st Ave,33.5170188,-112.168288,meta,2025-06-02T07:00:00.000Z,0.9415384615384615,9a04dbc2-e299-44a9-9adf-593085a8636a,,,,OpenStreetMap,2021-10-20T18:07:35.000Z,,phoenix,False
d0ddd451-9055-4ed7-b966-aa0570ba8ae6,Progressive Fence Co. Corporation,fence_and_gate_sales_service,['masonry_concrete'],AZ,Glendale,85302.0,5626 W North Ln,33.5692338645458,-112.177262529731,Microsoft,2010-06-27T06:00:18.117Z,0.77,e92604d3-e739-4fde-a3fd-b2ad464feaa0,,residential,house,OpenStreetMap,2023-04-07T00:25:00.000Z,,phoenix,True
0dbbc3a5-3bbc-4b47-aafd-a46fd7494b61,Progressive Therapy LLC,physical_therapy,"['health_and_medical', 'doctor']",AZ,Waddell,85355.0,17958 W Brown St,33.5758146,-112.4462819,meta,2025-06-02T07:00:00.000Z,0.9204819277108434,417eeb04-d853-4874-aa99-466b10f13219,,residential,house,OpenStreetMap,2024-04-28T13:53:11.000Z,,phoenix,False
1019ea06-0899-4a9c-8bd4-9fca3af0688d,Progressive Solutions Realty,installment_loans,"['real_estate_agent', 'financial_service']",AZ,Surprise,85378.0,12211 W Bell Rd,33.638279,-112.323105,meta,2025-06-02T07:00:00.000Z,0.2456896551724137,dad6a301-beb1-43d7-bdae-ed99046d2364,,,,OpenStreetMap,2019-11-03T07:51:53.000Z,,phoenix,False
ab4fb3e6-7012-4ff0-a077-e72fd98c6a91,Progressive Leasing,event_planning,['business'],AZ,Glendale,85306.0,5651 W Talavi Blvd,33.6359994,-112.1801668,meta,2025-06-02T07:00:00.000Z,0.9784508333782836,9601694a-68db-4122-b55f-0b0b69c89006,,,,OpenStreetMap,2023-04-06T21:11:59.000Z,,phoenix,True
9e38e368-545b-447f-839d-65b56e49db99,Progressive Roofing,roofing,"['contractor', 'construction_services']",AZ,Phoenix,85009.0,23 N 35th Ave,33.4491735,-112.1337651,meta,2025-06-02T07:00:00.000Z,0.9459263554653524,67b70d62-8793-4c44-93c6-fb59cecd0a02,,,,OpenStreetMap,2023-12-04T21:00:24.000Z,,phoenix,False
cc137c6b-14d2-4552-8638-b554e46eb25b,Greater Progressive Christian Church,church_cathedral,['religious_organization'],AZ,Phoenix,85007.0,1529 W McDowell Rd,33.4657225,-112.0929395,meta,2025-06-02T07:00:00.000Z,0.9784508333782836,66e88b11-5dbe-4edc-be07-14f9be807e54,Purpose Christian Church,religious,,OpenStreetMap,2024-04-13T23:46:30.000Z,,phoenix,False
352306a6-f00b-447c-825a-393318ed071c,Progressive Hardscapes,contractor,['construction_services'],AZ,Phoenix,85004.0,99 E Virginia Ave,33.4764114,-112.0713826,meta,2025-06-02T07:00:00.000Z,0.9204819277108434,37f79dbe-d0f7-4a62-a085-af1323b5e741,,,,OpenStreetMap,2024-03-26T19:10:00.000Z,,phoenix,False
9214946d-c469-4d5e-8f93-59ed2b6f7419,Progressive Church of God in Christ,church_cathedral,['religious_organization'],AZ,Phoenix,85040.0,2108 E Broadway Rd,33.4071922,-112.0369608,meta,2025-06-02T07:00:00.000Z,0.9784508333782836,,,,,,,,phoenix,False
57af4706-ec5c-4664-99af-ee0119b05692,Progressive Painting,contractor,,AZ,Phoenix,85040.0,3832 E Illini St,33.4120053,-111.998199,meta,2025-06-02T07:00:00.000Z,0.8540983606557377,e97a58f9-d595-4a3e-acc6-b97a2ab9f8b2,Option One Plumbing,,,OpenStreetMap,2024-08-11T23:55:44.000Z,,phoenix,False
57af4706-ec5c-4664-99af-ee0119b05692,Progressive Painting,contractor,,AZ,Phoenix,85040.0,3832 E Illini St,33.4120053,-111.998199,meta,2025-06-02T07:00:00.000Z,0.8540983606557377,8f53cc87-0113-419e-bd35-d3308bfe23df,Progressive Painting,,,OpenStreetMap,2024-08-11T23:55:44.000Z,,phoenix,False
2c7d6e08-dbb4-487c-9a1e-8e48906738c6,Progressive Insurance,commercial_real_estate,,AZ,Phoenix,85040.0,4550 S 44th Pl,33.4060114,-111.986716,Microsoft,2018-07-13T16:23:27.933Z,0.77,2b32deef-0219-4776-bda1-6da5b816d125,,,,OpenStreetMap,2021-09-19T01:27:45.000Z,,phoenix,False
40eba807-2b6b-4ccb-a51e-b6a8ba4159df,Progressive Insurance,insurance_agency,['financial_service'],AZ,Phoenix,85016.0,2322 E Thomas Rd,33.480676,-112.031492,meta,2025-06-02T07:00:00.000Z,0.3376623376623376,27e36e4e-d286-41ab-8613-8913f7151ce8,Dunkin',commercial,retail,OpenStreetMap,2024-06-29T18:31:31.000Z,,phoenix,False
4fe0bc7f-cc23-4ddd-a0d8-275c4b5093b7,Progressive,insurance_agency,['financial_service'],AZ,Phoenix,85051.0,3503 W Dunlap Ave,33.567143,-112.13468,meta,2025-06-02T07:00:00.000Z,0.4929396662387676,5968eb10-5f22-438e-a76a-6aa560957a48,,,,OpenStreetMap,2024-04-06T20:28:08.000Z,,phoenix,False
ac8b839f-8791-4329-aaf2-e429214cc318,Progressive Baptist Church,religious_organization,"['church_cathedral', 'baptist_church']",AZ,Mesa,85204.0,761 S Horne,33.4009365,-111.8139887,meta,2025-06-02T07:00:00.000Z,0.9784508333782836,7e2f294e-10e2-48aa-a67e-9919168b1032,Progressive Baptist Church,religious,church,OpenStreetMap,2023-10-28T16:52:57.000Z,,phoenix,False
0f901051-f32a-412c-bee8-e9a9a8827518,Progressive Financial Concepts,financial_advising,"['financial_service', 'accountant']",AZ,Scottsdale,85258.0,8687 E Via de Ventura,33.5530349,-111.8946358,meta,2025-06-02T07:00:00.000Z,0.9204819277108434,d67d6952-cad5-4a41-ad8c-d2fdda5dcdfe,,,,OpenStreetMap,2021-09-14T22:42:26.000Z,,phoenix,False
b6656f62-70d5-4336-b69b-6f8964876689,"Laverdi, James Agent - PROGRESSIVE INSURANCE AGENTS",insurance_agency,['real_estate_agent'],AZ,Phoenix,85029.0,11240 N 19th Ave,33.588743,-112.100026,meta,2025-06-02T07:00:00.000Z,0.3961437335670464,efcd6a0c-eca2-47a1-9222-297f542110c4,,commercial,commercial,OpenStreetMap,2021-09-02T00:25:05.000Z,,phoenix,False
9be4aeb7-0ef5-463f-9406-e8b2b1391e7c,The Centre for Progressive Dentistry,cosmetic_dentist,"['general_dentistry', 'pediatric_dentist', 'teeth_whitening', 'dentist', 'beauty_and_spa', 'health_and_medical']",AZ,Scottsdale,85260.0,9002 E Desert Cove Ave Ste 101,33.58567,-111.88586,Microsoft,2019-01-07T19:37:24.787Z,0.77,bff67b16-ce93-4679-a343-cfbe36642d93,The Centre For Progressive Dentistry,commercial,commercial,OpenStreetMap,2023-08-27T23:36:08.000Z,,phoenix,False
d9e029b1-d79f-46b1-add9-00bfce79f077,Center For Progressive Dentistry,dentist,"['teeth_whitening', 'health_and_medical']",AZ,Scottsdale,85260.0,9002 E Desert Cove Ave,33.5858207,-111.8859164,meta,2025-06-02T07:00:00.000Z,0.9784508333782836,bff67b16-ce93-4679-a343-cfbe36642d93,The Centre For Progressive Dentistry,commercial,commercial,OpenStreetMap,2023-08-27T23:36:08.000Z,,phoenix,False
8314456a-f4dd-4ec4-ba5e-28d77d42ebf0,Kaizen Progressive Health,chiropractor,"['naturopathic_holistic', 'hospital']",AZ,Scottsdale,85260.0,15300 N 90th St,33.624978,-111.8881925,meta,2025-06-02T07:00:00.000Z,0.9784508333782836,1e149363-9211-4d37-b8c1-2a3b4cce62f9,,,,OpenStreetMap,2024-02-26T03:44:38.000Z,,phoenix,False
efe70044-ae1e-4978-9230-60896e7de835,"Dr Scott Moller, Progressive Chiropractic, Gilbert AZ",chiropractor,['health_and_medical'],AZ,Gilbert,85234.0,2373 E Baseline Rd,33.37867,-111.780327,Microsoft,2011-01-24T18:49:15.977Z,0.77,0ae6b36b-e7e0-4416-abe2-a55e5648bf4e,,,,OpenStreetMap,2023-01-17T00:35:30.000Z,,phoenix,False
9d3dc677-a044-4f7a-ac41-47edf995a9e3,Progressive Sleep & Wellness,doctor,"['hospital', 'health_and_medical']",AZ,Gilbert,85234.0,3303 E Baseline Rd,33.3789123,-111.7607927,meta,2025-06-02T07:00:00.000Z,0.9415384615384615,62b8cb71-2ddd-4758-b66f-5eb647d55464,,,,OpenStreetMap,2021-09-22T20:36:53.000Z,,phoenix,False
18b46f8b-a49b-4c8c-8e25-c4440ee20276,Progressive Floor Coverings,interior_design,['furniture_store'],AZ,Fountain Hills,85268.0,12605 N Saguaro Blvd,33.6005719,-111.7162904,meta,2025-06-02T07:00:00.000Z,0.9459263554653524,06978942-e2cb-45b2-8033-bfe09bf2e9e0,,,,Microsoft ML Buildings,2020-05-29T00:00:00.000Z,,phoenix,False
dbafc7a4-ce96-49c5-b52c-02aa4e78ae52,Brentwood Progressive Dental,dentist,"['health_and_medical', 'cosmetic_dentist']",CA,Brentwood,94513.0,1140 2nd St,37.9375687,-121.6980161,meta,2025-06-02T07:00:00.000Z,0.9784508333782836,43d8b977-c63e-4a93-8d14-e0e4fa70f8e2,,,,Microsoft ML Buildings,2022-03-11T00:00:00.000Z,,antioch,False
76a49ddb-c5f4-4af1-a5f5-3469dd271622,Progressive Fitness Training Center,gym,['active_life'],CA,Antioch,94509.0,1368 Sunset Dr,37.997132,-121.786944,Microsoft,2021-01-12T23:21:24.577Z,0.77,baea2cd9-4d02-42f7-ae11-2a7faa8ce12a,,,,OpenStreetMap,2023-11-09T11:02:54.000Z,,antioch,False
d4768b79-b2f1-48db-a5c0-7601e030a741,Progressive Fitness,gym,"['active_life', 'sports_and_recreation_venue']",OR,Sherwood,97140.0,20345 SW Pacific Hwy,45.3724352,-122.8405986,meta,2025-06-02T07:00:00.000Z,0.9784508333782836,1df8e8aa-2eb4-4859-8958-d0f7f1c827da,,commercial,retail,OpenStreetMap,2021-02-14T21:51:41.000Z,,portland,False
5b82fd81-a727-47cc-87d2-dad9741aa142,Progressive Casualty,insurance_agency,['financial_advising'],OR,Portland,97223.0,7150 SW Sandburg St,45.420453,-122.751002,meta,2025-06-02T07:00:00.000Z,0.3961437335670464,9898694c-355c-4f8a-874a-ba7d2a48593a,,,,OpenStreetMap,2015-05-30T03:49:25.000Z,,portland,False
5667860b-aac6-4141-8932-4277fdf5fb11,Progressive Periodontics,dentist,"['periodontist', 'doctor']",OR,Tigard,97223.0,12025 SW 70th Ave,45.4328545,-122.7494168,meta,2025-06-02T07:00:00.000Z,0.9784508333782836,34929d22-31a7-4f6a-b240-a7c273f22c61,,,,OpenStreetMap,2015-09-04T05:15:55.000Z,,portland,False
27ed3a86-42a1-4c6a-92ae-fc23479e7fb9,Progressive Insurance - Claims Office,insurance_agency,,OR,Tigard,97223.0,10565 SW Nimbus Ave,45.4438336,-122.7858389,meta,2025-06-02T07:00:00.000Z,0.9297091412742382,,,,,,,,portland,True
a36cc45a-c55d-4f04-bd4f-f3261d2115ca,Independent Progressive Advisors,financial_advising,"['financial_service', 'investing']",OR,Portland,97225.0,1675 SW Marlow Ave,45.5076134,-122.7857822,meta,2025-06-02T07:00:00.000Z,0.9204819277108434,31532d60-ef15-464e-a682-58cd5fcc9afe,,,,OpenStreetMap,2015-01-30T07:53:07.000Z,,portland,False
ddabfa7f-f052-43da-9bb8-2b0419112d67,Progressive Counseling,counseling_and_mental_health,"['health_and_medical', 'medical_service_organizations']",OR,Portland,97223.0,9370 SW Greenburg Rd,45.45187,-122.77403,meta,2025-06-02T07:00:00.000Z,0.4929396662387676,fa0af54d-b0e8-4d78-aab0-230aecde5ea9,,,,OpenStreetMap,2015-05-13T20:09:13.000Z,,portland,False
c2c73c52-eb7d-4a62-a0f4-645ce94ce21f,Progressive Services Corporation,advertising_agency,"['hospital', 'building_supply_store']",OR,Beaverton,97006.0,1500 NW Bethany Blvd,45.529854,-122.8420656,meta,2025-06-02T07:00:00.000Z,0.9204819277108434,ad043fd0-bab8-48a3-bbdf-060ffb50fb2f,,,,OpenStreetMap,2016-07-28T01:24:15.000Z,,portland,True
85e8106a-f86d-4591-a393-d38a0e6de764,Progressive Mediation,divorce_and_family_law,['mediator'],OR,Portland,97214.0,3282 SE Hawthorne Blvd,45.5118639,-122.631008,Microsoft,2019-06-08T21:04:06.280Z,0.77,149a6f4f-74e7-4b38-8d2c-c4d0f0c00f0f,,,,OpenStreetMap,2016-06-09T02:54:20.000Z,,portland,False
85e8106a-f86d-4591-a393-d38a0e6de764,Progressive Mediation,divorce_and_family_law,['mediator'],OR,Portland,97214.0,3282 SE Hawthorne Blvd,45.5118639,-122.631008,Microsoft,2019-06-08T21:04:06.280Z,0.77,9104dadb-5f87-4a99-84f0-20f4f721059c,,,,OpenStreetMap,2016-06-09T02:54:22.000Z,,portland,False
85e8106a-f86d-4591-a393-d38a0e6de764,Progressive Mediation,divorce_and_family_law,['mediator'],OR,Portland,97214.0,3282 SE Hawthorne Blvd,45.5118639,-122.631008,Microsoft,2019-06-08T21:04:06.280Z,0.77,67dfb6dc-443d-4fb2-8a2b-23a96351f3ed,SakÃ©,commercial,,OpenStreetMap,2016-06-09T02:54:22.000Z,,portland,False
16960a62-bf11-42e3-b165-5b3599350ae4,Progressive Insurance,automotive,,OR,Portland,97266.0,8115 SE 82nd Ave,45.4643975,-122.5799761,Microsoft,2018-07-13T16:23:27.933Z,0.77,aa3d03fe-eab3-4d81-ab2c-70b48a60d30d,,,,OpenStreetMap,2023-09-27T00:27:02.000Z,,portland,False
71ce882c-d763-40a1-aef0-bd8425a45fb3,Progressive Collective,cannabis_clinic,"['medical_service_organizations', 'shopping']",OR,Portland,97216.0,9810 E Burnside St,45.52218,-122.56269,meta,2025-06-02T07:00:00.000Z,0.5662921348314607,,,,,,,,portland,False
c7687008-66e8-4921-9c76-c9ac1e793831,American Open Progressive Martial Arts,martial_arts_club,"['sports_and_fitness_instruction', 'active_life']",OR,Gresham,97080.0,3445 SE Hillyard Rd,45.4772911,-122.3976401,meta,2025-06-02T07:00:00.000Z,0.9688311688311688,580ecfb0-8568-4cc8-a869-8ad2480b1adf,,religious,church,OpenStreetMap,2019-01-21T17:29:17.000Z,,portland,False
c7687008-66e8-4921-9c76-c9ac1e793831,American Open Progressive Martial Arts,martial_arts_club,"['sports_and_fitness_instruction', 'active_life']",OR,Gresham,97080.0,3445 SE Hillyard Rd,45.4772911,-122.3976401,meta,2025-06-02T07:00:00.000Z,0.9688311688311688,3f665202-9335-47bf-8d98-0cb4a0820981,,,,OpenStreetMap,2015-09-17T22:53:50.000Z,,portland,False
86b78a1c-a8e9-498f-aaef-0268488632db,Progressive Protestor,clothing_store,['retail'],OR,Portland,97212.0,424 NE Morris St.,45.544379,-122.660975,Microsoft,2025-05-14T15:25:14.363Z,0.77,432c6133-070e-40d6-a33b-9cc3df340d16,,,,OpenStreetMap,2015-01-25T05:12:08.000Z,,portland,False
d1ebb36a-20c6-43c3-9be9-0626e5c5802a,Progressive Jiu Jitsu MMA,martial_arts_club,"['active_life', 'gym']",WA,Vancouver,98661.0,225 E Reserve St,45.6228988,-122.6532442,meta,2025-06-02T07:00:00.000Z,0.9784508333782836,5e4f4577-a7b3-40a6-9ef7-2ef1b7bc5bb2,,,,OpenStreetMap,2023-08-14T04:58:45.000Z,,portland,False
2b19eeef-ec31-400d-b702-b7c51edf6048,Progressive Roofing & Home Improvements LLC,roofing,['ceiling_and_roofing_repair_and_service'],LA,Kenner,70062.0,2504 Kentucky Ave,30.0016218,-90.2337374,Microsoft,2025-05-15T18:22:30.667Z,0.77,1cc7f0bc-688c-465f-85eb-5b5fe2d77646,,,,OpenStreetMap,2022-05-22T20:08:14.000Z,,new-orleans,False
def8563f-7388-4771-936f-df313864622c,Progressive LA Independent Insurance,insurance_agency,,LA,Metairie,70001.0,4631 W Napoleon Ave,29.9945312,-90.1835765,meta,2025-06-02T07:00:00.000Z,0.9297091412742382,,,,,,,,new-orleans,False
395cf2fe-1675-4693-ba3c-7f9624762eb9,Progressive Church,church_cathedral,['religious_organization'],LA,Marrero,70072.0,437 Cohen St,29.898806,-90.1161402,meta,2025-06-02T07:00:00.000Z,0.9784508333782836,0581cc4a-25b8-49ac-b04d-622d66e86a71,,,,OpenStreetMap,2022-05-29T03:16:48.000Z,,new-orleans,False
b9da3e38-7c46-479c-bcf9-2d4e057bff4c,Progressive Health Care,disability_services_and_support_organization,"['hospital', 'health_and_medical']",LA,New Orleans,70121.0,811 Causeway Blvd,29.964142,-90.156324,meta,2025-06-02T07:00:00.000Z,0.5662921348314607,a3a7a8f7-0fd7-4485-a2bd-1af2c32d5286,,,,OpenStreetMap,2022-05-28T22:53:56.000Z,,new-orleans,False
5c1bb95b-1410-4c50-9a19-2818d5079aab,Progressive Baptist Church,baptist_church,"['church_cathedral', 'religious_organization']",LA,New Orleans,70113.0,1214 S Robertson St,29.9465619,-90.0835318,meta,2025-06-02T07:00:00.000Z,0.9784508333782836,02a337bd-da6f-4d15-8932-fd4e448303f6,Progressive Baptist Church,religious,,OpenStreetMap,2025-01-20T18:33:39.000Z,,new-orleans,False
524a5e8b-2194-40b4-a8a6-ea58cbb1bb28,Progressive,insurance_agency,,LA,Metairie,70001.0,2450 Severn Ave,29.996615,-90.160448,meta,2025-06-02T07:00:00.000Z,0.7548172757475083,b8a02a55-ec13-448f-b282-fc120f3246e5,,,,OpenStreetMap,2018-11-07T12:13:54.000Z,,new-orleans,False
481f80c0-dfb4-422b-8d50-97d26f715712,Progressive Guitar Lessons,music_school,"['art_school', 'professional_services']",LA,New Orleans,70119.0,926 N Carrollton Ave,29.98089,-90.09375,meta,2025-06-02T07:00:00.000Z,0.8540983606557377,,,,,,,,new-orleans,False
da7dfd46-f957-40c5-9f0b-62bf8d0f5b5c,Progressive Guitar Studio,music_school,['musical_instrument_store'],LA,New Orleans,70124.0,5537 Canal Blvd,29.9905396,-90.1093942,meta,2025-06-02T07:00:00.000Z,0.9415384615384615,4276a202-13a4-4ad3-9917-d093cf5da662,,,,OpenStreetMap,2015-02-01T03:27:32.000Z,,new-orleans,False
2a058013-7096-422a-be0e-ab643818f7b3,Progressive Global Agency,insurance_agency,"['professional_services', 'arts_and_entertainment']",TN,Nashville,37205.0,103 W Tyne Dr,36.09666,-86.87322,meta,2025-06-02T07:00:00.000Z,0.3961437335670464,011207f0-60fa-400b-85ff-7e54db5fee82,,,,Esri Community Maps,2024-10-15T00:00:00.000Z,,nashville-davidson,False
d03092e5-c7c1-4b3a-822b-8c2426c2e9ae,Progressive ASI,event_planning,,,,37211.0,,36.070755,-86.6892307,meta,2025-06-02T07:00:00.000Z,0.909823677581864,8fc66cba-05dd-45d9-8148-92f71dac6494,,,,Esri Community Maps,2024-10-15T00:00:00.000Z,,nashville-davidson,True
5124b463-a87e-4e31-8c37-f5a0456352b5,Progressive Development LLC,real_estate,['home_developer'],TN,Nashville,37203.0,214 McMillan St,36.158231,-86.7943759,meta,2025-06-02T07:00:00.000Z,0.8831168831168831,812528e5-22cd-4e2c-8342-3f2b9c54b00b,,,,OpenStreetMap,2020-06-28T08:09:49.000Z,,nashville-davidson,False
4f751a44-adba-460c-a6c1-5886eaae87c8,Progressive Baptist Church,baptist_church,"['church_cathedral', 'religious_organization']",TN,Nashville,37203.0,1419 12th Ave S,36.1386935,-86.7881135,meta,2025-06-02T07:00:00.000Z,0.9784508333782836,727034dd-6b7f-480f-9cc4-53172db41e93,,,,OpenStreetMap,2019-09-18T09:32:33.000Z,,nashville-davidson,False
36d9671a-b51d-49d1-903f-266b559aad9a,Progressive Mobile Electronics,automotive_parts_and_accessories,"['electronics', 'car_stereo_store']",CA,San Diego,92136.0,3341 Norman Scott Rd,32.6873928,-117.126031,meta,2025-06-02T07:00:00.000Z,0.8860580325548478,,,,,,,,san-diego,False
af2706f6-d786-4d07-8666-55b02cbce759,Progressive Recruitment,temp_agency,['employment_agencies'],CA,San Diego,92101.0,600 B St Ste 04,32.7177875,-117.1587092,Microsoft,2024-03-29T00:24:03.493Z,0.77,,,,,,,,san-diego,False
a707ce09-ba3e-4f4f-aaaa-fc006aa20316,Progressive,temp_agency,['employment_agencies'],CA,San Diego,92101.0,600 B St Ste 04,32.7181196,-117.1585998,Microsoft,2025-05-18T21:08:31.960Z,0.77,64ccc1f2-75b9-4c73-a77b-eddc8a576671,San Diego Union-Tribune Building,,,OpenStreetMap,2024-06-12T15:28:30.000Z,,san-diego,False
c89961dc-5000-49c2-90e6-f106161ccf3e,Progressive Therapy Center,occupational_therapy,"['speech_therapist', 'pediatrician']",CA,San Diego,92110.0,3434 Midway Dr,32.75099,-117.21242,meta,2025-06-02T07:00:00.000Z,0.3376623376623376,b6f4dd57-3be9-4355-8f99-8cd191459893,Urgent Care & More San Diego,medical,,OpenStreetMap,2021-06-30T19:57:53.000Z,,san-diego,False
428a10c3-6522-4ce4-8dc8-814515c8937d,Progressive Window Tinting,commercial_industrial,"['professional_services', 'industrial_company']",CA,San Diego,92110.0,3206 Moore St,32.755283,-117.204363,meta,2025-06-02T07:00:00.000Z,0.2456896551724137,d44188c8-c7e1-4279-8d67-b833b815f0ea,,,,OpenStreetMap,2020-11-16T20:43:15.000Z,,san-diego,False
eb833eb9-6727-48f4-9e78-dc9aa976bdf3,Progressive Combat Solutions - Combatives,martial_arts_club,"['active_life', 'education']",CA,San Diego,92110.0,980 Buenos Ave,32.76702,-117.20294,meta,2025-06-02T07:00:00.000Z,0.3376623376623376,b9d84bc3-45a7-4e0b-93e8-4e55067a6e16,,,,OpenStreetMap,2022-03-10T02:29:36.000Z,,san-diego,False
5695577b-a049-4933-a07e-f9b9b98ad1d5,"Progressive Holistic Living, Kristin Wilhite, HHP",hypnosis_hypnotherapy,['health_and_medical'],CA,San Diego,92108.0,4420 Hotel Circle Ct Ste #235,32.7580028,-117.1745884,Microsoft,2025-05-21T13:21:32.257Z,0.77,02760e5b-7a25-46ec-ac90-f3c3fd7864e9,,,,OpenStreetMap,2011-06-07T15:41:44.000Z,,san-diego,False
aea4ae37-8fec-4f47-97b0-b4fa6bd2b3a7,Pilgrim Progressive Baptist Church,baptist_church,"['religious_organization', 'church_cathedral']",CA,San Diego,92102.0,4995 A St,32.7184637,-117.0878393,meta,2025-06-02T07:00:00.000Z,0.9784508333782836,e65750f8-b21e-45f9-84ca-46d9b94ca389,Pilgrim Progressive Baptist Church,religious,church,OpenStreetMap,2024-08-25T13:34:26.000Z,,san-diego,False
04edae1a-f4f2-40f0-a09a-c37cf5c7147b,Progressive Medical Specialist,hospital,"['alcohol_and_drug_treatment_centers', 'health_and_medical']",CA,San Diego,92115.0,4974 El Cajon Blvd,32.756951,-117.087219,meta,2025-06-02T07:00:00.000Z,0.3376623376623376,fe8f0e63-ed29-46ac-9186-fa2d966f7b5c,,,,OpenStreetMap,2009-03-06T06:13:53.000Z,,san-diego,False
1cfa1b30-02eb-4017-9223-1e2101a8242d,"Progressive Results, Inc.",physical_therapy,"['community_services_non_profits', 'gym']",CA,San Diego,92117.0,4807 Iroquois Ave,32.797205,-117.196094,meta,2025-06-02T07:00:00.000Z,0.3961437335670464,,,,,,,,san-diego,False
64643f65-bd99-4373-84c9-0824fe03f7d0,Progressive Insurance,auto_insurance,['home_and_rental_insurance'],CA,San Diego,92123.0,4141 Ruffin Rd,32.8170174443,-117.123674659,Microsoft,2014-05-12T15:19:39.133Z,0.77,9784b0a2-5967-4f2b-96d5-3c7105f71cd9,,industrial,industrial,OpenStreetMap,2020-09-21T11:47:56.000Z,,san-diego,False
82f40745-0e23-4ce5-9710-2e7fcd03720c,Progressive Heating & Air,hvac_services,"['contractor', 'commercial_refrigeration']",CA,San Diego,92111.0,4828 Ronson Ct,32.8301037,-117.1462696,meta,2025-06-02T07:00:00.000Z,0.8148148148148148,7cc8c2fe-049c-4a59-bf45-0c1603c4b393,,,,OpenStreetMap,2017-10-10T04:14:55.000Z,,san-diego,False
144746e7-080d-48eb-b612-5b0042ebed30,Progressive Business Funding,financial_service,"['installment_loans', 'accountant']",CA,Del Mar,92014.0,853 Camino del Mar,32.9531164,-117.2626798,meta,2025-06-02T07:00:00.000Z,0.9415384615384615,4644a230-5b11-473b-b2f4-f709699586f8,,,,OpenStreetMap,2021-07-06T16:30:28.000Z,,san-diego,False
5365ad50-2394-4d4f-868d-3228f5303a4c,Progressive Graphics Applications,printing_services,"['advertising_agency', 'professional_services']",CA,San Diego,92121.0,9030 Carroll Way,32.8876506,-117.1594977,meta,2025-06-02T07:00:00.000Z,0.9204819277108434,b9358d49-1500-4ee0-8510-c08b68f457ea,,,,OpenStreetMap,2017-10-10T04:37:12.000Z,,san-diego,False
08a4640a-d07d-450e-8536-b0128713cb12,Progressive Custom Builders,contractor,['construction_services'],CA,Solana Beach,92075.0,1447 Santa Marta Ct,33.00375,-117.240751,meta,2025-06-02T07:00:00.000Z,0.242152466367713,69e14074-ee99-438f-839a-aee4e7841f3e,,,,OpenStreetMap,2024-10-14T12:49:32.000Z,,san-diego,False
e3fd0653-3d62-4f63-a99f-26e9e28b8db4,Progressive Steel,contractor,"['commercial_industrial', 'home_improvement_store']",CA,Spring Valley,91977.0,9188 Harness St,32.7190161,-117.0018913,meta,2025-06-02T07:00:00.000Z,0.9300613496932516,d2393108-7759-4b04-bab6-75e901cfcbb7,,,,Microsoft ML Buildings,2023-09-01T00:00:00.000Z,0.9886000156402588,san-diego,False
4c3b2262-bf31-4470-ac24-02999101789b,Progressive Health & Wellness,skin_care,"['professional_services', 'nutritionist']",CA,El Cajon,92020.0,161 E Main St,32.79461,-116.961017,meta,2025-06-02T07:00:00.000Z,0.3376623376623376,d6230f39-6ac0-417e-97d2-0d473a0d0d0e,,,,Microsoft ML Buildings,2022-04-29T00:00:00.000Z,0.9969000220298768,san-diego,False
eb4473b9-3358-4ff5-b7de-c928df7040cb,Progressive Copier Systems,appliance_repair_service,"['printing_services', 'it_service_and_computer_repair']",CA,El Cajon,92021.0,864 N 2nd St,32.80675,-116.936009,meta,2025-06-02T07:00:00.000Z,0.5662921348314607,5a5da945-6182-464c-91bf-9d946c30bda6,,,,OpenStreetMap,2022-01-08T04:07:56.000Z,,san-diego,False
29a55adf-388e-46c7-adf8-c375debc2f04,Progressive Baptist Church,church_cathedral,"['baptist_church', 'insurance_agency']",KY,Louisville,40217.0,600 E Burnett Ave,38.2255769,-85.7467971,meta,2025-06-02T07:00:00.000Z,0.9784508333782836,1a894657-d8db-4ca0-86b8-4411fe8ccbe4,Progressive Baptist Church,religious,,OpenStreetMap,2024-05-30T15:16:17.000Z,,louisville,False
c4098ca5-2f55-4a17-b9ec-016829f8d97f,"Progressive Services Printing, Inc.",printing_services,,KY,Louisville,40207.0,4350 Brownsboro Rd Ste 110,38.2850759,-85.6306873,Microsoft,2025-05-21T08:45:21.360Z,0.77,,,,,,,,louisville,False
750a6b72-6c97-4be4-a7b6-8dc0f15b1a73,Progressive Medical Instrumentation,laboratory_testing,"['pharmacy', 'health_and_medical']",KY,Louisville,40299.0,2205 Watterson Trl,38.212345,-85.558482,meta,2025-06-02T07:00:00.000Z,0.242152466367713,a0cb9809-aeec-4a0b-8ca9-00b33e988cc4,,,,OpenStreetMap,2015-05-14T19:04:42.000Z,,louisville,False
4971a443-a930-4054-af5e-07cbab7f68d3,Progressive Insurance - Claims Office,insurance_agency,,KY,Lyndon,40223.0,9520 Ormsby Station Rd,38.2629188,-85.5774565,meta,2025-06-02T07:00:00.000Z,0.9459263554653524,c1be7408-77fc-4fc9-a029-9e4a7371f112,,,,OpenStreetMap,2015-04-09T02:05:27.000Z,,louisville,True
4bcdbc26-c7b7-4bf0-8cc1-3ce62660a61b,"Progressive Technology, Inc.",software_development,"['it_service_and_computer_repair', 'professional_services']",CA,Bakersfield,93309.0,900 Mohawk St,35.362679,-119.062358,meta,2025-06-02T07:00:00.000Z,0.242152466367713,4438304b-1bd6-449b-a6bf-dfeecff7e1ca,,commercial,commercial,OpenStreetMap,2017-07-17T11:49:16.000Z,,bakersfield,False
970d4f91-f352-4f40-ad82-7015ef3e8a19,Progressive Taekwondo Academy,martial_arts_club,"['active_life', 'gym']",NC,Apex,27502.0,702 Laura Duncan Rd,35.7351896,-78.841739,meta,2025-06-02T07:00:00.000Z,0.9784508333782836,d7e1d88a-bfa6-4e36-a37f-5081c75db11b,,,,OpenStreetMap,2018-09-13T20:26:10.000Z,,raleigh,False
