id_left,primary_name_left,primary_category,alternate_category,id_right,primary_name_right,subtype,class,source_city,region,locality,zipcode,address,latitude,longitude,plc_source_dataset,plc_source_update_time,plc_source_confidence,bldg_dataset,bldg_update_time,bldg_confidence,is_office_by_pipeline
8afed9cd-9d4e-4f08-a61a-ced5991da154,APS Pharmacy,pharmacy,"['medical_supply', 'medical_service_organizations']",386cc850-76fb-4ab8-b889-350d0c5a4c36,,,,st-petersburg,FL,Palm Harbor,34684.0,34911 US-19 N,28.0886225,-82.7378894,meta,2025-06-02T07:00:00.000Z,0.9784508333782836,OpenStreetMap,2017-09-09T21:53:32.000Z,,False
46aa4932-a279-4d76-b7b2-533dbcfb2a01,APS West Phoenix Power Plant,real_estate,['real_estate_agent'],514b58cc-b7b0-454c-a71e-7df55db4f2d5,,,,phoenix,AZ,Phoenix,85043.0,4610 W Hadley St,33.4414627,-112.1589066,meta,2025-06-02T07:00:00.000Z,0.3376623376623376,OpenStreetMap,2022-05-20T20:29:19.000Z,,False
2cc83bad-95f6-4f9f-94c6-681e1eb9da0e,APS - Surprise office,real_estate,['event_planning'],794cf7c6-6afa-4eba-bb34-27d581a89c5a,APS,commercial,commercial,phoenix,AZ,Surprise,85378.0,16800 N Dysart Rd,33.636856,-112.342859,meta,2025-06-02T07:00:00.000Z,0.296943231441048,OpenStreetMap,2016-09-18T11:41:06.000Z,,True
6eb294c8-2143-47e9-9a2d-61714420c231,Aps Biogroup,naturopathic_holistic,"['chiropractor', 'furniture_store']",e8bd53c7-6c94-4a2b-b898-14532bb7b934,,outbuilding,carport,phoenix,AZ,Phoenix,85004.0,2235 S Central Ave,33.426324,-112.073061,meta,2025-06-02T07:00:00.000Z,0.5662921348314607,OpenStreetMap,2024-02-05T02:20:45.000Z,,False
054d6353-2822-4439-87ea-a2b1339071df,APS Gorilla's Greenhouse,airline,"['social_service_organizations', 'arts_and_entertainment']",af1b7b55-4d95-40b3-9366-a0f9c8384891,,transportation,parking,phoenix,AZ,Phoenix,85004.0,201 E Jefferson St,33.4458962,-112.0720324,meta,2025-06-02T07:00:00.000Z,0.3961437335670464,OpenStreetMap,2019-12-11T01:08:23.000Z,,False
45da7f24-ce7f-42d1-ad48-6bc6aac28f85,APS Energy Service Co.,public_utility_company,"['marketing_consultant', 'advertising_agency']",8e4a5367-f988-438a-8a0a-641c485b08ae,Two Arizona Center,,,phoenix,AZ,Phoenix,85004.0,400 E Van Buren St,33.4525193,-112.0681022,meta,2025-06-02T07:00:00.000Z,0.242152466367713,OpenStreetMap,2013-03-12T05:04:18.000Z,,False
9072ee28-1b5c-452e-a9ad-9df60a26ee2e,Arizona Public Service - APS,electric_utility_provider,"['energy_company', 'public_service_and_government']",8e4a5367-f988-438a-8a0a-641c485b08ae,Two Arizona Center,,,phoenix,AZ,Phoenix,85004.0,400 N 5th St,33.4526911,-112.0676562,meta,2025-06-02T07:00:00.000Z,0.8148148148148148,OpenStreetMap,2013-03-12T05:04:18.000Z,,False
130d1fbc-f3c0-4259-9b55-0b2a4cad25c0,Pinnacle West Landscape Management,landscaping,"['business_to_business_services', 'business_to_business']",6ca09b5d-6123-4ebd-9c62-370c3c4a49d8,,,,phoenix,AZ,Phoenix,85034.0,2505 E Jefferson St,33.446958,-112.027608,Microsoft,2025-04-05T09:10:30.200Z,0.77,OpenStreetMap,2021-05-02T17:28:14.000Z,,False
f28ad392-26d6-4de8-b77b-f4fe74413db2,APS Light Parade,attractions_and_activities,"['arts_and_entertainment', 'structure_and_geography']",,,,,phoenix,AZ,Phoenix,0.0,,33.5094703,-112.0735736,meta,2025-06-02T07:00:00.000Z,0.1666666666666666,,,,False
8dc2e410-864a-4c43-b2d1-bcf9762da326,Tempe/APS Joint Fire Training Center,public_service_and_government,"['medical_service_organizations', 'health_and_medical']",fe9812a5-bf48-4cf7-ac68-30c0278c0157,,industrial,industrial,phoenix,AZ,Tempe,85281.0,1340 E University Dr,33.4234011,-111.9172485,meta,2025-06-02T07:00:00.000Z,0.9784508333782836,OpenStreetMap,2015-05-13T15:20:04.000Z,,False
bc703dd2-71f3-4080-bc2f-7040866b2dd5,APS Ocotillo Power Plant,electric_utility_provider,"['industrial_equipment', 'public_utility_company']",,,,,phoenix,AZ,Tempe,85288.0,1500 E University Dr,33.4245646,-111.9136264,meta,2025-06-02T07:00:00.000Z,0.9784508333782836,,,,False
4c6ae911-ad57-4a8d-9986-4f936e54852c,Aps,electrician,"['hvac_services', 'home_improvement_store']",131e57e9-2573-47f3-9367-e07c51f79966,,commercial,commercial,phoenix,AZ,Phoenix,85021.0,2122 W Cheryl Dr,33.578616,-112.104563,meta,2025-06-02T07:00:00.000Z,0.296943231441048,OpenStreetMap,2023-11-23T04:36:14.000Z,,False
221653a3-f6dc-4f59-891c-55a95d5e0ffd,Arizona Public Service - Black Canyon Facility,event_planning,,5a6eb748-bd28-4ae6-8385-99449975b5c1,,commercial,commercial,phoenix,AZ,Phoenix,85029.0,2133 W Peoria Ave,33.581271,-112.106118,meta,2025-06-02T07:00:00.000Z,0.242152466367713,OpenStreetMap,2023-11-23T04:36:14.000Z,,True
9f0ce1de-09f6-4c25-9ea1-eaae6815b41b,Aps,public_utility_company,"['public_service_and_government', 'post_office']",6398ae7b-2696-4033-8ea8-3721abf527af,,industrial,industrial,phoenix,AZ,Phoenix,85032.0,4612 E Bell Rd,33.641256,-111.980755,meta,2025-06-02T07:00:00.000Z,0.3961437335670464,OpenStreetMap,2021-11-04T02:44:23.000Z,,False
289b3bf5-b37f-4c88-8738-0c32b7a6873c,Heritage Academy APS,elementary_school,['educational_services'],,,,,atlanta,GA,Atlanta,30354.0,3500 Villa Cir SE,33.6596595,-84.3790384,meta,2025-06-02T07:00:00.000Z,0.9784508333782836,,,,False
bcc05a42-35b6-4d83-aabf-d16b4c305735,APS Office of Safety & Security,public_school,"['public_and_government_association', 'school']",05c00959-76be-4f31-87cf-4eba0ea16aea,Atlanta Public Schools - Headquarters,,,atlanta,GA,Atlanta,30303.0,130 Trinity Ave SW,33.7483914,-84.392112,meta,2025-06-02T07:00:00.000Z,0.5662921348314607,OpenStreetMap,2022-05-12T06:02:02.000Z,,False
10896fb1-d503-4467-9487-6339df3adf73,APS Adult Ed,specialty_school,"['education', 'school']",86f161e9-cb4f-4569-95fb-5ffbc9734133,,,,atlanta,GA,Atlanta,30316.0,1757 Mary Dell Dr SE,33.72279,-84.33042,meta,2025-06-02T07:00:00.000Z,0.8980891719745223,OpenStreetMap,2024-09-06T05:24:39.000Z,,False
9938073e-87ca-4bb2-a649-97f7b696a21a,APS Attorney Services Inc,legal_services,"['private_investigation', 'lawyer']",4f5773f4-d77a-44c2-b30e-2d9f5a665bab,,commercial,office,atlanta,GA,Atlanta,30339.0,400 Galleria Pkwy SE,33.8864111,-84.4612261,meta,2025-06-02T07:00:00.000Z,0.9459263554653524,OpenStreetMap,2024-05-23T01:18:37.000Z,,False
f336cd2f-634d-4e90-80dc-19443e4f7b98,APS Facilities Service Center,central_government_office,"['public_service_and_government', 'professional_services']",297b9298-408f-41c1-ada8-f53becf3d1ca,Atlanta Public Schools Service Center,,,atlanta,GA,Atlanta,30307.0,1631 La France St NE,33.7607338,-84.3335128,meta,2025-06-02T07:00:00.000Z,0.7548172757475083,OpenStreetMap,2009-09-16T19:45:04.000Z,,False
997e8603-68e6-4d34-8e1a-99c049d690e5,aps billing,accountant,['billing_services'],,,,,atlanta,GA,Decatur,30030.0,235 E Ponce De Leon Ave Ste 108,33.7755883,-84.293345,Microsoft,2016-08-31T15:03:40.910Z,0.77,,,,False
e38e0bbc-03e8-496e-a7a4-658398c2e032,APS Income Tax Services,trusts,"['accountant', 'financial_service']",3f07eee8-2f22-42a0-8429-c5e498230c2c,,,,atlanta,GA,Decatur,30032.0,4151 Memorial Dr,33.7693243,-84.2499962,meta,2025-06-02T07:00:00.000Z,0.9300613496932516,Microsoft ML Buildings,2023-09-01T00:00:00.000Z,0.9491999745368958,False
c5408de0-7177-4982-bb1e-dbf947ae881f,APS Construction,damage_restoration,"['windows_installation', 'contractor']",c483868d-a508-4bc3-8bea-eff5758a8a95,,,,atlanta,GA,Lawrenceville,30043.0,1755 N Brown Rd NW,33.991281,-84.079111,meta,2025-06-02T07:00:00.000Z,0.2456896551724137,OpenStreetMap,2016-01-19T22:16:43.000Z,,False
af497398-7c2d-4478-beaa-e5b7a728b81c,APS Wine & Spirits,liquor_store,['wine_bar'],,,,,oakland,CA,Oakland,94603.0,9401 San Leandro St,37.74125,-122.1823822,meta,2025-06-02T07:00:00.000Z,0.9459263554653524,,,,False
8f39db30-e873-46a0-b9ff-4b73e4f620fa,APS Industrial Services,contractor,"['movers', 'industrial_equipment']",3acc3e03-dce0-4d12-96b3-00f8dce68f8c,,commercial,commercial,mission-viejo,CA,Santa Ana,92705.0,2022 S Grand Ave,33.7199469,-117.8508616,meta,2025-06-02T07:00:00.000Z,0.9415384615384615,OpenStreetMap,2024-05-29T22:49:42.000Z,,False
7814f135-dee3-4bea-952b-e8d8ff842f26,"APS Survey & Mapping, Inc.",land_surveying,['real_estate_service'],cf8e22d3-dacd-4846-aad0-1b1bb7dbae49,,,,seattle,WA,Bellevue,98005.0,13221 SE 26th St Ste A,47.58641,-122.16377,Microsoft,2019-03-05T18:01:49.267Z,0.77,OpenStreetMap,2024-07-20T06:55:36.000Z,,False
b5ee211e-8b5a-464a-8d65-1202dd32b568,APS Dealer Services,automotive_consultant,"['advertising_agency', 'automotive_services_and_repair']",bb883c5c-b305-4b88-af09-b1187675997d,,,,philadelphia,PA,Downingtown,19335.0,68 Delaney Dr,40.047468,-75.741771,meta,2025-06-02T07:00:00.000Z,0.3376623376623376,Esri Community Maps,2024-10-15T00:00:00.000Z,,False
51336332-308b-45a2-b476-cff71a52bf23,APS Museum,museum,"['art_museum', 'arts_and_entertainment']",3d8e605b-579f-4c49-8854-6f5f13f3d256,Philosophical Hall,,,philadelphia,PA,Philadelphia,19106.0,104 S 5th St,39.948642,-75.149425,meta,2025-06-02T07:00:00.000Z,0.5662921348314607,OpenStreetMap,2024-05-21T22:11:55.000Z,,False
d89b1086-02ea-4fc8-be99-f5c9370ef9a8,APS Supply Company,metal_fabricator,"['industrial_equipment', 'construction_services']",,,,,philadelphia,NJ,Beverly,8010.0,711 Cooper St,40.0603333,-74.916144,meta,2025-06-02T07:00:00.000Z,0.9784508333782836,,,,True
84b2403b-11ab-4305-b78d-848886518e40,APS Masonry Contracting,masonry_contractors,['stone_and_masonry'],242553ed-1edf-4d4d-af3d-934b8ba8df9e,,,,philadelphia,PA,Huntingdon Valley,19006.0,1850 Hampstead Rd,40.1080035,-75.0693618,Microsoft,2025-05-22T12:52:23.387Z,0.77,Microsoft ML Buildings,2020-10-17T00:00:00.000Z,,False
3c63be42-8691-4ebb-b38a-827cc0e2a0c9,"APS, Inc. - Associated Professional Services",property_management,"['accountant', 'financial_service']",f7b34b97-21cc-49e6-905d-60c1da5588e4,,,,las-vegas,NV,Las Vegas,89118.0,4966 S Rainbow Blvd,36.098805,-115.241832,meta,2025-06-02T07:00:00.000Z,0.3961437335670464,OpenStreetMap,2024-01-03T01:28:56.000Z,,False
b3e3de72-eabc-40d4-a991-ecdbe40fdf10,Odyssey APS Group,employment_agencies,['public_service_and_government'],788dfbc2-1637-44a0-8577-c9268f91c3cc,,,,las-vegas,,,89119.0,1555 E Flamingo Rd Ste 149,36.1140654,-115.1313533,meta,2025-06-02T07:00:00.000Z,0.909823677581864,OpenStreetMap,2022-01-01T23:26:14.000Z,,False
6571bb7e-65f6-456c-bc66-acb46b08e428,APS Document Services,legal_services,['lawyer'],0393c608-7382-41b5-8786-7e94a9f603fd,,,,fresno,CA,Fresno,93720.0,2565 E Perrin Ave,36.8735367,-119.7386073,meta,2025-06-02T07:00:00.000Z,0.9459263554653524,Microsoft ML Buildings,2022-05-30T00:00:00.000Z,,False
e1310509-d895-4d87-b98f-9fbc65c5486c,APS Home Cleaning Services,office_cleaning,"['home_cleaning', 'cleaning_services']",,,,,washington-dc,VA,Herndon,20171.0,2465 Centreville Rd #j17-211,38.950823090559744,-77.41092525422573,Microsoft,2024-08-19T04:43:18.700Z,0.77,,,,False
2b636412-fb81-4fc1-8c32-5c557f31ae1a,APS Home Cleaning Services Leesburg,office_cleaning,"['home_cleaning', 'cleaning_services']",298de218-2e3d-40be-a280-d6a63c80ae78,,,,washington-dc,VA,Leesburg,20176.0,525-K E Market St Ste 107,39.108083,-77.552597,Microsoft,2023-06-12T06:41:14.780Z,0.77,OpenStreetMap,2017-07-03T21:24:26.000Z,,False
657ec3f0-4e5a-443f-b386-3643e11c8320,APS Home Cleaning Services,home_cleaning,"['home_service', 'professional_services']",7f47a397-8269-4f00-849e-a3e1767e5a75,,commercial,retail,washington-dc,VA,Ashburn,20148.0,43150 Broadlands Center Plz,39.0277001,-77.5095565,meta,2025-06-02T07:00:00.000Z,0.8253968253968254,OpenStreetMap,2019-11-30T19:38:27.000Z,,False
416af313-9fb5-4187-b971-f98fc4cc876e,APS Home Cleaning,office_cleaning,"['home_cleaning', 'organization', 'cleaning_services']",7f47a397-8269-4f00-849e-a3e1767e5a75,,commercial,retail,washington-dc,VA,Ashburn,20148.0,43150 Broadlands Center Plz Ste 152-219,39.026552,-77.508252,Microsoft,2019-07-26T21:39:22.107Z,0.77,OpenStreetMap,2019-11-30T19:38:27.000Z,,False
23f22453-3f59-4976-9104-5f1b2bf4a6bb,APS Flooring and Carpet,contractor,"['professional_services', 'home_improvement_store']",fdaa84d4-e5a6-466c-ba63-a0af8f8f0065,The Graham,,,washington-dc,VA,Alexandria,22311.0,5021 Seminary Rd,38.8338044,-77.1150666,meta,2025-06-02T07:00:00.000Z,0.9300613496932516,OpenStreetMap,2023-05-28T12:20:32.000Z,,False
97d84f5d-d911-4d43-be9b-13bd74b756ed,"APS - Window tint, Ceramic Coatings, Detailing, Undercoating, PPF",car_window_tinting,"['auto_detailing', 'auto_glass_service', 'home_window_tinting', 'automotive']",fcba9497-7cfa-472f-bb7a-fe44a363d8bf,,commercial,commercial,washington-dc,VA,Fairfax,22031.0,3170 Draper Dr Unit 8,38.8661636,-77.2822374,Microsoft,2025-05-14T03:25:40.903Z,0.77,OpenStreetMap,2014-03-14T13:45:34.000Z,,False
fe068a8e-a3b2-4dc6-8def-e138800e080b,APS Electronics,appliance_repair_service,,,,,,boston,MA,Norwood,2062.0,661 Pleasant St Unit 200 Unit 114,42.1744256,-71.2020686,Microsoft,2025-03-21T06:52:48.680Z,0.77,,,,False
63690f44-c897-46b2-8783-ec93eede30e3,Aps Medical Billing & Professional Consultants,accountant,"['surgical_appliances_and_supplies', 'medical_service_organizations']",b9ec39ac-e3ce-4978-acb9-78532f94277f,,,,toledo,OH,Toledo,43614.0,5620 Southwyck Blvd,41.605197,-83.670397,meta,2025-06-02T07:00:00.000Z,0.7548172757475083,OpenStreetMap,2024-11-26T15:22:28.000Z,,False
512849b7-8597-49d5-9416-2ac01c3db739,APS Zone,automotive_parts_and_accessories,"['auto_company', 'wholesale_store']",87ec7931-74e1-41b3-9cd9-b43d9274c31e,,,,detroit,MI,Canton,48187.0,42040 Koppernick Rd,42.3419701,-83.4572465,meta,2025-06-02T07:00:00.000Z,0.9204819277108434,OpenStreetMap,2015-09-24T20:55:46.000Z,,False
7d0579a4-1eb5-44ef-bf2f-1a2b9f41a168,Alliance Polymers & Services DBA APS Elastomers,plastic_manufacturer,"['commercial_industrial', 'shopping_center']",314efd2a-e90f-42b6-ae71-8d07eb41021c,,,,detroit,MI,Westland,48185.0,6271 Commerce Dr,42.3298887,-83.4227475,meta,2025-06-02T07:00:00.000Z,0.9297091412742382,OpenStreetMap,2020-02-19T14:01:10.000Z,,False
dde669ee-a31b-426f-9ad9-5a58c0a6a034,APS Dumpsters,contractor,"['garbage_collection_service', 'professional_services']",,,,,detroit,MI,Livonia,48150.0,11906 Farmington Rd,42.3703435,-83.3720981,meta,2025-06-02T07:00:00.000Z,0.8860580325548478,,,,False
ca539c0f-81d2-4d82-8c89-c7e89ec26ea9,APS Residential Services,contractor,['construction_services'],,,,,detroit,MI,Livonia,48150.0,11906 Farmington Rd,42.3705699,-83.3720395,meta,2025-06-02T07:00:00.000Z,0.9300613496932516,,,,False
282c5fa2-859c-46b0-b22d-538b0ceaa634,Aps Child Find,school,"['campus_building', 'specialty_school']",bc8cf2d6-1030-466c-b6ac-932e47a2e738,,,,albuquerque,NM,Albuquerque,87106.0,1710 Mesa St SE,35.0628292,-106.6245863,meta,2025-06-02T07:00:00.000Z,0.9297091412742382,OpenStreetMap,2014-02-06T14:09:47.000Z,,False
9e4ad23a-4dc6-4fde-959d-09feda849738,APS Clothing Bank,charity_organization,"['clothing_store', 'printing_services']",,,,,albuquerque,NM,Albuquerque,87106.0,1730 University Blvd SE,35.0630159,-106.6313582,meta,2025-06-02T07:00:00.000Z,0.9415384615384615,,,,False
566995c7-4504-4025-8d70-0b31bbbb1d5e,APS The Teachers' Toolbox,educational_supply_store,['shopping'],38ba08e1-766b-49df-9f8d-88ae43a17292,,,,albuquerque,NM,Albuquerque,87106.0,930 Oak St SE,35.0745903,-106.636827,meta,2025-06-02T07:00:00.000Z,0.7548172757475083,OpenStreetMap,2020-08-08T19:25:58.000Z,,False
25888b37-a288-4d59-96d9-aa0b90a90045,APS Graphics Enterprise Services,printing_services,"['graphic_designer', 'business_advertising']",099bc67e-4121-48ce-84d7-c1762cc994c9,,,,albuquerque,NM,Albuquerque,87106.0,912 Oak St SE,35.076765,-106.636852,meta,2025-06-02T07:00:00.000Z,0.3961437335670464,OpenStreetMap,2020-08-10T16:19:46.000Z,,False
3d14b140-414d-423c-afed-8577dcbc193a,APS Core Services,campus_building,,099bc67e-4121-48ce-84d7-c1762cc994c9,,,,albuquerque,NM,Albuquerque,87106.0,830 Oak St SE,35.0767832,-106.636914,meta,2025-06-02T07:00:00.000Z,0.3961437335670464,OpenStreetMap,2020-08-10T16:19:46.000Z,,True
f85eab2b-95c1-4d01-8576-050967c3be3b,APS Food and Nutrition Services,education,"['school', 'food_beverage_service_distribution']",c32577e2-4e01-4ed2-a7d7-ea1ab99966a8,Albuquerque Public Schools Nutrition Warehouse,commercial,warehouse,albuquerque,NM,Albuquerque,87108.0,800 Louisiana Blvd NE,35.0853643,-106.5674522,meta,2025-06-02T07:00:00.000Z,0.9459263554653524,OpenStreetMap,2024-12-20T23:54:44.000Z,,False
82b045b5-d32a-45f2-8993-9447bedbd25e,APS Recruitment,professional_services,['event_photography'],de8545a7-9f33-45d8-b509-ebee4d540549,Albuquerque Public Schools,,,albuquerque,NM,Albuquerque,87110.0,6400 Uptown Blvd NE,35.10279,-106.57258,meta,2025-06-02T07:00:00.000Z,0.3376623376623376,OpenStreetMap,2024-03-26T04:04:06.000Z,,False
ba27779f-40e2-47af-9f9a-6aea8cf249ef,APS Aztec Complex,school,"['education', 'specialty_school']",,,,,albuquerque,NM,Albuquerque,87112.0,2611 Eubank Blvd NE,35.1135274,-106.5339385,meta,2025-06-02T07:00:00.000Z,0.9459263554653524,,,,False
4873bff7-8ff6-4e4c-9a07-aad13c32cf72,APS FireCo Tulsa,fire_protection_service,"['central_government_office', 'automation_services']",96f7da11-ce2f-4cf3-ad56-e67f464e0b91,,,,tulsa,OK,Tulsa,74145.0,8301 E 51st St S,36.0905509,-95.883732,meta,2025-06-02T07:00:00.000Z,0.9459263554653524,Microsoft ML Buildings,2019-03-21T00:00:00.000Z,,False
89a4bbda-2977-4bbb-9a5b-6568e3ec8494,CrossFit APS,gym,"['sports_and_fitness_instruction', 'sporting_goods']",,,,,sacramento,CA,Elk Grove,95757.0,5640 Whitelock Pkwy,38.3934174,-121.4369223,meta,2025-06-02T07:00:00.000Z,0.5662921348314607,,,,False
709caaee-0960-4ad0-b878-48e4b585aa23,APS Transformation Center,gym,"['active_life', 'fitness_trainer']",b7aa8841-d35d-4fd4-9da4-b43ed3fa37f8,,,,sacramento,CA,Elk Grove,95624.0,10471 Grant Line Rd,38.3766334,-121.3596359,meta,2025-06-02T07:00:00.000Z,0.9204819277108434,OpenStreetMap,2022-11-17T19:59:34.000Z,,False
5f9cfbb9-8187-439d-990c-4fa32292024c,APS Environmental,plumbing,"['construction_services', 'garbage_collection_service']",be8a2f84-3150-4acc-97f6-a3b4dd1562db,,,,sacramento,CA,North Highlands,95660.0,6643 32nd St,38.6883956,-121.3924664,meta,2025-06-02T07:00:00.000Z,0.9459263554653524,OpenStreetMap,2022-07-01T05:55:28.000Z,,False
ee7e9757-65ae-4d98-b9ff-41a11d8b650c,UPMC Pinnacle West Shore,hospital,['health_and_medical'],,,,,harrisburg,PA,Mechanicsburg,17050.0,1995 Technology Pkwy,40.285,-76.99117,Microsoft,2017-09-18T20:45:23.807Z,0.77,,,,False
bdd8f202-264c-4ee9-9f94-f1cea77611ba,UPMC Pinnacle West Shore,hospital,['health_and_medical'],3a67218d-31e7-43c7-b35a-7cc961a6cd5a,UPMC Pinnacle West Shore Hospital,medical,hospital,harrisburg,PA,Mechanicsburg,17050.0,1995 Technology Pkwy,40.2830278,-76.9746228,Microsoft,2019-12-02T18:21:55.560Z,0.77,OpenStreetMap,2023-02-23T21:46:37.000Z,,False
f02ed153-55cc-40ac-8b9f-c20293ceb2f7,APS Financial Inc,financial_service,"['installment_loans', 'insurance_agency']",905ec4d4-d758-4dd1-9042-e14f15d60c0b,,commercial,commercial,virginia-beach,VA,Virginia Beach,23452.0,3640 S Plaza Trl,36.8302,-76.09893,meta,2025-06-02T07:00:00.000Z,0.8980891719745223,OpenStreetMap,2016-03-08T17:04:01.000Z,,False
377a93b3-d3f4-44ac-afd4-a2115e06dc2d,APS Market,grocery_store,"['liquor_store', 'shopping']",,,,,modesto,CA,Ceres,95307.0,3505 Central Ave,37.586056,-120.957146,meta,2025-06-02T07:00:00.000Z,0.5662921348314607,,,,False
5ab1ec3b-6cc6-4f52-aaac-4468249e8e8a,APS Tax and Accounting Services,accountant,"['financial_service', 'trusts']",d3295506-245c-40e5-9b39-72c2da0cbd4b,,commercial,office,modesto,CA,Modesto,95350.0,3421 Tully Rd,37.6884935,-121.0129599,meta,2025-06-02T07:00:00.000Z,0.9297091412742382,OpenStreetMap,2024-01-05T22:32:02.000Z,,False
1afc3064-f5ea-4c84-bf07-9bffc29d1cd0,Aps Legal Ease,lawyer,"['legal_services', 'charity_organization']",6db555d2-bd6a-4f81-a49b-3cdbb5e767cf,,,,greenville,SC,Greenville,29611.0,3504 Highway 153,34.8481224,-82.3935791,meta,2025-06-02T07:00:00.000Z,0.909823677581864,OpenStreetMap,2021-02-06T00:09:47.000Z,,False
55cf428e-e483-4df5-aedc-593ae4df33a9,APS Garage Door,contractor,"['garage_door_service', 'business_manufacturing_and_supply']",,,,,cincinnati,OH,West Chester Twp,45011.0,9052 Goldpark Dr,39.33135,-84.4645822,meta,2025-06-02T07:00:00.000Z,0.8831168831168831,,,,False
83a59e84-7176-47b9-be97-bb02754da230,APS Communications,advertising_agency,"['business_advertising', 'printing_services']",,,,,lexington-fayette,KY,Lexington,40503.0,3320 Clays Mill Rd,37.9976794,-84.5475019,meta,2025-06-02T07:00:00.000Z,0.9297091412742382,,,,False
9c30d685-d7d5-4bb7-abbb-9b4c73b5a109,APS Avenues,school,"['high_school', 'elementary_school']",,,,,denver,CO,Aurora,80011.0,12310 E Parkview Dr,39.7215584,-104.8430095,meta,2025-06-02T07:00:00.000Z,0.9300613496932516,,,,False
c8237266-eefe-4900-b8ad-6f342dd55573,APS Division of Equity in Learning,education,"['school', 'home_service']",fdd192e8-7ee5-4422-b2bf-360b28e72457,,commercial,commercial,denver,CO,Aurora,80011.0,15751 E 1st Ave,39.7198938,-104.8056862,meta,2025-06-02T07:00:00.000Z,0.9784508333782836,OpenStreetMap,2022-04-02T15:26:56.000Z,,False
413985ff-7c42-40db-8d1e-a19f3cb7a53f,Aps Pharmacy,pharmacy,"['grocery_store', 'eat_and_drink']",e3cb4240-3fc6-4b94-a95f-0ba27af59ca4,,,,memphis,MS,Southaven,38671.0,480 Airport Industrial Dr,34.988421,-89.996818,meta,2025-06-02T07:00:00.000Z,0.3376623376623376,OpenStreetMap,2018-11-10T00:12:55.000Z,,False
8f123092-9462-4434-ab22-2f0646f645e3,APS Facility Maintenance,construction_services,"['landscaping', 'contractor']",,,,,memphis,TN,Memphis,38118.0,3220 E Shelby Dr,35.0209428,-89.9565747,meta,2025-06-02T07:00:00.000Z,0.909823677581864,,,,False
837f3621-ebc9-47eb-8b66-c23b956e2686,APS Materials,metal_supplier,"['commercial_industrial', 'home_and_garden']",494f4519-0242-457d-968c-bcc90943006f,,,,dayton,OH,Dayton,45405.0,4011 Riverside Dr,39.8061854,-84.207406,meta,2025-06-02T07:00:00.000Z,0.9415384615384615,OpenStreetMap,2013-09-27T11:20:47.000Z,,False
61e3861f-e36f-4657-921b-b733bf4ba8c9,APS Clothing Company,clothing_store,"['womens_clothing_store', 'shopping']",d21e8ca2-b611-42e5-95c0-de067e24dec7,,residential,terrace,columbus-ohio,OH,Columbus,43215.0,61 W Hubbard Ave,39.97845,-83.00566,meta,2025-06-02T07:00:00.000Z,0.4929396662387676,OpenStreetMap,2020-01-17T19:29:31.000Z,,True
b68f2eab-2aba-4495-a08f-93cb4f644fc3,"Charanjit K Sandhu, DDS - APS Dental Center",cosmetic_dentist,"['endodontist', 'general_dentistry', 'pediatric_dentist', 'dentist', 'health_and_medical']",faa3272f-0c2a-4b71-9a91-deda7aeb3baf,,,,new-york,NJ,Linden,7036.0,24 W Price St,40.630809,-74.254451,Microsoft,2018-03-10T04:04:49.293Z,0.77,OpenStreetMap,2023-07-18T13:24:39.000Z,,False
b68f2eab-2aba-4495-a08f-93cb4f644fc3,"Charanjit K Sandhu, DDS - APS Dental Center",cosmetic_dentist,"['endodontist', 'general_dentistry', 'pediatric_dentist', 'dentist', 'health_and_medical']",9f60b5d1-5bfe-4014-880e-eded4439483b,,,,new-york,NJ,Linden,7036.0,24 W Price St,40.630809,-74.254451,Microsoft,2018-03-10T04:04:49.293Z,0.77,OpenStreetMap,2023-07-18T13:24:39.000Z,,False
d97a5b30-5cfd-4533-bfdd-3b9cfb3c657f,APS International,toy_store,"['merchandising_service', 'shopping']",,,,,new-york,NJ,Elizabeth,7202.0,345 S Broad St,40.6561311,-74.215678,meta,2025-06-02T07:00:00.000Z,0.8831168831168831,,,,False
18f6da4e-7685-47f6-bcbd-e87e3f9bf70f,APS Realty,real_estate,['real_estate_agent'],,,,,new-york,NY,New York,11412.0,190-19 Linden Blvd,40.6922566,-73.7604019,meta,2025-06-02T07:00:00.000Z,0.9784508333782836,,,,False
3dfb5632-3a4d-43b0-9849-3fb2b1686f86,Cjs Aps Marine,beer_garden,['bar'],9a83ff74-88b2-4951-87de-c8935c24faef,,residential,house,new-york,NY,Massapequa Park,11762.0,33 Marion Pl,40.67381,-73.44724,meta,2025-06-02T07:00:00.000Z,0.4929396662387676,OpenStreetMap,2021-05-30T19:29:33.000Z,,False
1becc18e-9d91-4ca5-a653-e1d0214d452d,APS Pension & Financial Services,financial_service,"['financial_advising', 'trusts']",66510846-2397-423c-a9c9-fe19919ef419,,commercial,commercial,new-york,NY,Huntington,11747.0,1 Huntington Quadrangle,40.7733688,-73.4210762,meta,2025-06-02T07:00:00.000Z,0.909823677581864,OpenStreetMap,2021-06-02T13:00:09.000Z,,False
55229d70-5a04-4290-813c-8db5f124704a,APS Construction,contractor,['construction_services'],00e3919c-6472-49bc-a673-840e07ce435a,,commercial,commercial,reno,NV,Sparks,89431.0,1380 Greg St,39.5244217,-119.7610576,meta,2025-06-02T07:00:00.000Z,0.8860580325548478,OpenStreetMap,2024-11-03T06:29:35.000Z,,False
63e51755-412c-46f5-b2cd-07c6eae0c4e8,APS Automotive,automotive_repair,"['automotive_services_and_repair', 'professional_services']",,,,,minneapolis,MN,Bloomington,55425.0,1700 E Old Shakopee Rd,44.836403,-93.2496577,meta,2025-06-02T07:00:00.000Z,0.9415384615384615,,,,False
1cb388a1-8204-4c6d-9f4b-28e4f1dcc7cb,APS Office of International Programs,community_services_non_profits,"['education', 'school']",a4a4e465-3ebc-4af2-9360-5e74eb3bafa3,,,,minneapolis,MN,Eagan,55121.0,3285 Northwood Cir,44.83894,-93.1506,meta,2025-06-02T07:00:00.000Z,0.296943231441048,OpenStreetMap,2017-03-29T19:26:05.000Z,,False
d4e4c790-2af3-4ef1-900a-b67fa2cef8cb,APS Foundation Repair and Waterproofing,masonry_contractors,"['stone_and_masonry', 'masonry_concrete']",b58b186f-d877-4e2f-aba2-490915671753,,,,birmingham,AL,Irondale,35210.0,2616 Commerce Cir,33.546081,-86.692486,Microsoft,2025-05-23T01:51:29.193Z,0.77,Microsoft ML Buildings,2021-03-08T00:00:00.000Z,,False
f53f02ee-7c97-4cfa-a36f-62824e7c9b6a,APS Realty Group,property_management,"['real_estate', 'professional_services']",e9230676-0132-46a7-8cca-b9d2c430724d,,,,winston-salem,NC,Winston-Salem,27103.0,402 Upton St,36.0841554,-80.2986637,meta,2025-06-02T07:00:00.000Z,0.9297091412742382,OpenStreetMap,2022-12-19T05:32:53.000Z,,False
26c82d84-aa91-41a9-b78f-5e79295754b3,Pinnacle West,landmark_and_historical_building,,35bab7e4-27da-41a4-9987-1f76b05547f0,,,,indianapolis,IN,Indianapolis,46214.0,230 Welcome Way Blvd W,39.7695125,-86.2926346,meta,2025-06-02T07:00:00.000Z,0.5662921348314607,OpenStreetMap,2022-07-17T22:08:21.000Z,,False
6abc8fac-f844-4718-bbdb-93a13faa044e,Aps Kreative Kustomz LLC,arts_and_crafts,"['printing_services', 'fabric_store']",fbccb7f6-0d14-426c-8445-9ea1a4bd0374,,,,indianapolis,IN,Indianapolis,46226.0,3709 N Shadeland Ave,39.8239384,-86.0449653,meta,2025-06-02T07:00:00.000Z,0.8831168831168831,OpenStreetMap,2022-12-21T06:37:10.000Z,,False
51154ec3-6382-43b9-a231-b69e4ef3066b,APS Hurricane Protection,contractor,"['landscaping', 'windows_installation']",a60316bb-5948-4dcc-84b2-87a9a41b8c6d,,,,daytona-beach-port-orange,FL,Port Orange,32127.0,600 Oak St,29.1360079,-80.9912163,meta,2025-06-02T07:00:00.000Z,0.9297091412742382,OpenStreetMap,2021-05-05T15:58:46.000Z,,False
d398cad7-105c-4cc3-816a-5015884274b1,APS Security and Fire,home_security,['professional_services'],36152051-f4aa-4a8d-b8f5-5507ff7d3084,,,,daytona-beach-port-orange,FL,Daytona Beach,32114.0,545 Ballough Rd,29.2229355,-81.0222608,meta,2025-06-02T07:00:00.000Z,0.9459263554653524,OpenStreetMap,2022-02-26T06:54:50.000Z,,False
d93712d2-855e-4ba4-b982-bacdc71b204e,APS,construction_services,"['contractor', 'commercial_industrial']",49607c28-74b5-483e-9f75-dfc2098fde74,,,,san-diego,CA,San Diego,92130.0,3525 Del Mar Heights Rd,32.953518,-117.230359,meta,2025-06-02T07:00:00.000Z,0.242152466367713,OpenStreetMap,2022-04-13T22:08:40.000Z,,False
be798ab2-7384-43cd-9476-47d7ed6ffbcb,APS Packaging,industrial_equipment,['liquor_store'],,,,,santa-rosa,CA,Santa Rosa,95407.0,2224 Northpoint Pkwy,38.4153805,-122.7530889,meta,2025-06-02T07:00:00.000Z,0.4929396662387676,,,,False
057f092b-c392-49b9-87ce-0b06c696a7ae,APS FireCo Dallas-Fort Worth,fire_protection_service,,,,,,fort-worth,TX,Euless,76040.0,1105 S Airport Cir Ste D,32.82140716910362,-97.1144226193428,Microsoft,2016-07-11T18:12:40.370Z,0.77,,,,False
273a4a91-1ab2-4430-836f-582a4e6e0c7d,APS Mechanical Air Conditioning,home_improvement_store,"['hvac_services', 'contractor']",f7999756-0904-4f04-8fb2-b957933f468c,,residential,house,miami,FL,Miami,33175.0,14531 SW 52nd St,25.7164155,-80.4291794,meta,2025-06-02T07:00:00.000Z,0.8831168831168831,OpenStreetMap,2019-05-07T17:16:31.000Z,,False
1d1c40b7-a2c9-4969-bab9-5be413029ac5,APS Institute of South Florida,plastic_surgeon,"['doctor', 'health_and_medical']",5e6feb40-10ba-4d65-b9c5-0a7e8db52040,,,,miami,FL,Miami,33155.0,8415 SW 24th St Ste 202,25.748156,-80.332278,Microsoft,2022-09-13T15:53:14.897Z,0.77,OpenStreetMap,2024-10-13T05:56:46.000Z,,False
90f64ad2-1bf1-4766-bbb5-8be3aa7f2904,APS Institute of South Florida,plastic_surgeon,"['health_and_medical', 'pharmacy']",5e6feb40-10ba-4d65-b9c5-0a7e8db52040,,,,miami,FL,Miami,33155.0,8415 Coral Way,25.7482566,-80.3324309,meta,2025-06-02T07:00:00.000Z,0.9784508333782836,OpenStreetMap,2024-10-13T05:56:46.000Z,,False
38ead45c-aee2-41b2-8565-9f862ef8e119,APS Airparts Support Inc,automotive_parts_and_accessories,"['airlines', 'travel']",aeb81cf0-7fac-44dd-885f-a938d9861ed0,,,,miami,FL,Doral,33172.0,1556 NW 89th Ct,25.7882959,-80.341751,meta,2025-06-02T07:00:00.000Z,0.9300613496932516,OpenStreetMap,2016-08-04T03:04:53.000Z,,False
258a39eb-83f4-40ea-b236-0829f3bb99e2,APS Security Systems,home_security,"['professional_services', 'business_manufacturing_and_supply']",d41516ee-091f-4012-9c39-3ebcec58874d,,,,miami,FL,Miami,33155.0,4679 SW 72nd Ave,25.7268175,-80.310511,meta,2025-06-02T07:00:00.000Z,0.909823677581864,OpenStreetMap,2014-07-27T04:16:16.000Z,,False
2945d594-185b-4c88-926f-9bfcdd4b724d,Aps Limited,business_to_business_services,"['shopping', 'airlines']",40313f64-bc6d-4f08-9959-b3831af7d4f3,,,,miami,FL,Miami,33126.0,7178 NW 12th St,25.7819619,-80.3110618,meta,2025-06-02T07:00:00.000Z,0.9415384615384615,OpenStreetMap,2015-05-18T09:15:08.000Z,,True
5abc883a-029c-459f-9fda-1642053a9b50,APS Fulfillment Inc,shipping_center,"['business_storage_and_transportation', 'business_to_business']",6c282b5f-4ffd-4280-aff1-21e1e7d2414d,,,,miami,FL,Fort Lauderdale,33312.0,3526 SW 30th Ave,26.0802618,-80.1792388,Microsoft,2025-05-20T11:51:33.090Z,0.77,OpenStreetMap,2015-10-23T15:47:09.000Z,,False
7cfcf4ff-08db-468d-b1ad-cd66af2fe0a7,APS AutoSpa,car_wash,"['professional_services', 'auto_detailing']",b2ba466f-2b2b-47d1-b9e2-f0de2693e621,,,,miami,FL,Aventura,33180.0,2960 NE 207th St,25.9662488,-80.142474,meta,2025-06-02T07:00:00.000Z,0.9784508333782836,OpenStreetMap,2025-04-16T10:28:49.000Z,,False
e96951cb-9975-4cdd-8bde-041e2e00645c,APS Distributors,shopping,"['grocery_store', 'tobacco_shop']",,,,,miami,FL,Pompano Beach,33073.0,4100 N Powerline Rd,26.2799745,-80.1518051,meta,2025-06-02T07:00:00.000Z,0.9204819277108434,,,,False
4a4a2492-ca85-4b2c-9cc2-8aab5a3bf6d7,APS Technologies,professional_services,"['it_service_and_computer_repair', 'event_photography']",efe867db-fb9a-4dfb-9313-9ebfe029012e,,commercial,retail,austin,TX,Austin,78728.0,1779 Wells Branch Pkwy,30.435253,-97.6743811,meta,2025-06-02T07:00:00.000Z,0.8860580325548478,OpenStreetMap,2023-11-07T01:16:03.000Z,,False
f6ad44cf-65af-4297-8c09-36b6a2947124,APS Training Academy,public_and_government_association,"['community_services_non_profits', 'education']",c5fd7b7c-b0c4-4df4-8781-67b1c9b07df4,,,,chicago,IL,Aurora,60505.0,105 E Galena Blvd,41.756827,-88.3126488,meta,2025-06-02T07:00:00.000Z,0.9784508333782836,OpenStreetMap,2018-01-12T15:27:56.000Z,,False
f6ad44cf-65af-4297-8c09-36b6a2947124,APS Training Academy,public_and_government_association,"['community_services_non_profits', 'education']",42d6b2c7-75b7-4e92-8dc6-ace38f4101ae,,commercial,office,chicago,IL,Aurora,60505.0,105 E Galena Blvd,41.756827,-88.3126488,meta,2025-06-02T07:00:00.000Z,0.9784508333782836,OpenStreetMap,2018-01-12T15:27:57.000Z,,False
91cc4dc4-cb5f-4a0e-b920-e8d0f1605f24,APS Ketamine - Oak Brook Ketamine Treatment,psychiatrist,"['doctor', 'health_and_medical']",,,,,chicago,IL,Oak Brook,60523.0,1200 Harger Rd Ste 200,41.8517042,-87.9495684,Microsoft,2022-11-02T16:32:21.400Z,0.77,,,,False
9f0b8b7c-e21b-4002-8333-ddd594cbc139,APS Scribe,health_department,"['health_and_medical', 'medical_center']",,,,,chicago,IL,South Barrington,60010.0,10 Executive Ct,42.0780581,-88.1422584,meta,2025-06-02T07:00:00.000Z,0.909823677581864,,,,False
af41225a-a02d-484b-bf7c-5510356353d6,Juan's APS Automotive Paint & Body Shop Supplies,automotive_repair,"['hardware_store', 'automotive_parts_and_accessories']",b0ae146c-8732-4de0-a9f6-c07e873d03a9,,,,chicago,IL,Chicago,60632.0,3976 S Archer Ave,41.8214382,-87.6925563,meta,2025-06-02T07:00:00.000Z,0.7548172757475083,OpenStreetMap,2012-05-27T06:19:10.000Z,,False
070ca23d-e7da-4278-8f34-f857eb46b638,APS & Sons Roofing Services,roofing,"['home_improvement_store', 'contractor']",3b72aff3-11d6-47cd-b924-78ba878a9160,,,,chicago,IL,Elmwood Park,60707.0,7816 W North Ave,41.9089003,-87.8214224,meta,2025-06-02T07:00:00.000Z,0.242152466367713,OpenStreetMap,2025-01-27T05:03:20.000Z,,False
28e64cf6-bebf-4ee0-9fdd-52ed76e3d103,APS and Associates,professional_services,"['political_organization', 'financial_service']",476f5274-6da6-4d4a-aec7-9498f941d358,Loop Center Building,commercial,office,chicago,IL,Chicago,60602.0,105 W Madison St,41.8818221,-87.6312294,meta,2025-06-02T07:00:00.000Z,0.8860580325548478,OpenStreetMap,2023-05-25T19:57:42.000Z,,False
10fa5580-fa96-4255-9bfc-2641542f6727,APS Ketamine,psychiatrist,"['doctor', 'health_and_medical']",,,,,chicago,IL,Chicago,60603.0,8 S Michigan Ave Ste 1505,41.8819048,-87.6244587,Microsoft,2022-11-02T21:39:29.953Z,0.77,,,,False
b7dd4227-3fdd-4bb2-a4c6-67d5450abaa4,APS Industrial Services Inc,engineering_services,"['commercial_industrial', 'professional_services']",,,,,dallas,TX,Arlington,76011.0,3430 Dalworth St,32.7444483,-97.0476512,meta,2025-06-02T07:00:00.000Z,0.9459263554653524,,,,False
66198c29-928b-42a8-a269-57679536b9d9,APS North Texas,community_services_non_profits,['education'],ebe05309-596c-4aa3-a761-9a27b123e225,Iglesia La Luz Del Mundo;The Light of the World Church,religious,church,dallas,TX,Dallas,75208.0,120 N Oak Cliff Blvd,32.7461,-96.85238,meta,2025-06-02T07:00:00.000Z,0.296943231441048,OpenStreetMap,2024-05-07T20:45:37.000Z,,False
a7d4d6df-10d0-4c75-9d85-842bc9321426,APS FireCo Dallas-Fort Worth,fire_protection_service,,,,,,dallas,TX,Farmers Branch,75244.0,13615 Welch Rd Ste 105 Ste 105,32.9337074,-96.830504,Microsoft,2021-09-14T18:06:15.817Z,0.77,,,,False
2fe63ecc-5bc4-4fe8-8ab0-702e85a6908f,APS Mortgage,mortgage_broker,,,,,,dallas,TX,The Colony,75056.0,3520 Ashley Gardens,33.1149057,-96.9133982,Microsoft,2025-04-29T06:14:05.600Z,0.77,,,,False
0d222ada-933b-4565-b44d-925d3be36f69,APS Marine Services,boat_parts_and_supply_store,['retail'],,,,,palm-bay-melbourne,FL,Melbourne,32935.0,2778 N Harbor City Blvd Unit 101,28.1524325,-80.6404685,Microsoft,2013-01-28T21:30:12.687Z,0.77,,,,False
3ba0edc4-e062-4eb3-acfa-3d95c272a72a,APS MARINE SERVICES,boat_parts_and_supply_store,['retail'],76682747-6ecf-4cd7-80c5-a9a04d01f4ce,,,,palm-bay-melbourne,FL,Melbourne,32940.0,2840 Allen Hill Ave,28.2140754054095,-80.669721364975,Microsoft,2013-02-22T06:54:33.350Z,0.77,OpenStreetMap,2022-07-01T20:10:48.000Z,,False
efdc8fad-c40a-41a4-9a2a-6f4207345adb,APS Chipsealing and Asphalt Paving,contractor,"['home_improvement_store', 'paving_contractor']",fe56f6b4-10d9-4cc2-a57d-9d185d00439c,Cricket Wireless,,,tucson,AZ,Tucson,85714.0,2004 E Irvington Rd,32.1616483,-110.9413451,meta,2025-06-02T07:00:00.000Z,0.8253968253968254,OpenStreetMap,2025-05-14T21:26:37.000Z,,False
1917c875-328d-498b-9a2e-320ce84cce2a,APS Digital Print,printing_services,['business_advertising'],32d3c8d2-fdf9-4afd-98db-ce2163825d3e,,,,tucson,AZ,Tucson,85713.0,1708 E 22nd St,32.2065649,-110.9462242,meta,2025-06-02T07:00:00.000Z,0.9784508333782836,OpenStreetMap,2020-08-15T17:06:32.000Z,,False
d05a8396-bce5-47d4-b953-225d0ae473df,APS Auto Rental,car_rental_agency,"['car_dealer', 'automotive']",6e0ae1b8-29b6-42f5-b908-5c247486f958,,,,tucson,AZ,Tucson,85716.0,3747 E Speedway Blvd,32.2364896,-110.9125414,meta,2025-06-02T07:00:00.000Z,0.296943231441048,OpenStreetMap,2020-09-19T07:07:29.000Z,,False
05c98816-1d60-43f0-ab18-6f2c9a2d63b4,APS Auto Sales & Leasing Used Cars,car_buyer,"['used_car_dealer', 'automotive']",6e0ae1b8-29b6-42f5-b908-5c247486f958,,,,tucson,AZ,Tucson,85716.0,3747 E Speedway Blvd,32.2364298,-110.9124379,Microsoft,2019-01-14T16:46:00.080Z,0.77,OpenStreetMap,2020-09-19T07:07:29.000Z,,False
96ef5fe2-32d2-44e7-8d3b-c10242d6929f,APS Medical,prenatal_perinatal_care,"['community_services_non_profits', 'hospital']",e2f87182-0ff3-4f0f-b8f2-e4d0757f9b5b,,,,milwaukee,WI,West Allis,53227.0,8501 W Lincoln Ave,43.002524,-88.0187716,meta,2025-06-02T07:00:00.000Z,0.9784508333782836,OpenStreetMap,2022-11-28T14:24:33.000Z,,False
8e9d75b9-821d-471c-b694-6dee70a0f348,APS Milwaukee LLC,automotive_repair,"['auto_customization', 'automotive']",,,,,milwaukee,WI,Butler,53007.0,5085 N 125th St,43.1097982,-88.0671983,meta,2025-06-02T07:00:00.000Z,0.9784508333782836,,,,False
fdc21f79-a9f9-48e7-958e-90978cdac0f5,APS Promotional Solutions,screen_printing_t_shirt_printing,"['mens_clothing_store', 'professional_services']",4b28df90-e4ed-4de3-a14e-d38a42f7fc1a,,,,jacksonville-florida,FL,Jacksonville,32216.0,7121 Beach Blvd,30.289774,-81.5854777,meta,2025-06-02T07:00:00.000Z,0.9784508333782836,OpenStreetMap,2018-05-11T12:38:10.000Z,,False
a7d4d6df-10d0-4c75-9d85-842bc9321426,APS FireCo Dallas-Fort Worth,fire_protection_service,,,,,,denton-lewisville,TX,Farmers Branch,75244.0,13615 Welch Rd Ste 105 Ste 105,32.9337074,-96.830504,Microsoft,2021-09-14T18:06:15.817Z,0.77,,,,False
2fe63ecc-5bc4-4fe8-8ab0-702e85a6908f,APS Mortgage,mortgage_broker,,,,,,denton-lewisville,TX,The Colony,75056.0,3520 Ashley Gardens,33.1149057,-96.9133982,Microsoft,2025-04-29T06:14:05.600Z,0.77,,,,False
6ec4a112-a0d3-45a6-9801-414b86876152,APS Payroll,software_development,"['professional_services', 'financial_service']",a064a86e-2020-4e38-b8b1-a6743bcd7ab8,,,,shreveport,LA,Shreveport,71105.0,3010 Knight St,32.4809874,-93.704745,meta,2025-06-02T07:00:00.000Z,0.9459263554653524,OpenStreetMap,2022-12-06T15:08:30.000Z,,False
344d2202-1787-4c81-baee-7dff4bbc4c3a,APS Fast Printing Services,graphic_designer,['professional_services'],bdb87c98-b609-43d0-af1c-2a581bd0a64a,,,,shreveport,LA,Bossier City,71111.0,1524 Barksdale Blvd,32.51596,-93.72308,meta,2025-06-02T07:00:00.000Z,0.8540983606557377,OpenStreetMap,2022-03-26T23:58:01.000Z,,False
8c8b4752-e7f4-4a90-9484-2f0b2fb4fdf5,APS Friends,prenatal_perinatal_care,"['community_services_non_profits', 'public_service_and_government']",,,,,akron,OH,Akron,44305.0,715 E Buchtel Ave,41.07723,-81.49526,meta,2025-06-02T07:00:00.000Z,0.8980891719745223,,,,False
d0a67386-2a2b-4387-b3b2-cf26632c41ed,APS International,professional_services,['business_manufacturing_and_supply'],,,,,nashville-davidson,TN,Nashville,37210.0,2807 Foster Ave,36.112762,-86.743,meta,2025-06-02T07:00:00.000Z,0.242152466367713,,,,False
3689a5f1-80cb-4cd9-8a2f-9de761b3515d,APS Fitness,fitness_trainer,"['gym', 'active_life']",8911cb61-62de-4e45-9f00-e04c52c84e12,,,,houston,TX,Katy,77449.0,2910 N Mason Rd,29.816209,-95.7515454,meta,2025-06-02T07:00:00.000Z,0.909823677581864,OpenStreetMap,2020-04-02T11:36:34.000Z,,False
0f48809b-62bd-48f0-8380-b6bfd14f3a6f,APS Motors.,automotive_dealer,,bb3784af-c0a4-4c48-85bc-8a6ce710f095,,,,houston,TX,Houston,77076.0,602 e little York ,29.86961,-95.39092,meta,2025-06-02T07:00:00.000Z,0.4929396662387676,OpenStreetMap,2021-02-23T00:40:51.000Z,,False
e7cc656a-9856-4510-bce0-dca03e41a575,APS Window Cleaning,gutter_service,['window_washing'],,,,,houston,TX,Houston,77060.0,713 Bradfield Rd,29.9451942443848,-95.3875427246094,Microsoft,2014-12-30T08:19:22.723Z,0.77,,,,False
f01488c7-86af-4b53-8c65-2296e7d96692,APS,property_management,"['landscaping', 'real_estate']",99f5469a-a028-4db1-9a14-26dce9e79b8f,,,,indio,CA,Cathedral City,92234.0,67780 Medano Rd,33.8493146,-116.4788787,meta,2025-06-02T07:00:00.000Z,0.8831168831168831,Esri Community Maps,2024-10-15T00:00:00.000Z,,False
01501d97-2ac6-4c9a-9457-c2cdce4255cb,APS - Alarm Protection Services,security_systems,['home_security'],4f183e50-6f5e-4bef-ad40-aa4442b6999b,APS,,,new-orleans,LA,Metairie,70006.0,4440 Trenton St,30.0007935,-90.18206067,Microsoft,2020-02-26T21:14:14.400Z,0.77,OpenStreetMap,2022-05-23T01:12:58.000Z,,False
ed8c2a64-c540-48ac-838a-1fdbfc8f439c,Aps Flooring LLC,contractor,['professional_services'],7a796e19-e298-4bd2-b097-10ef97322714,,,,new-orleans,LA,Chalmette,70043.0,323 E Virtu St,29.9543577,-89.9548676,meta,2025-06-02T07:00:00.000Z,0.8831168831168831,OpenStreetMap,2015-01-27T10:51:14.000Z,,False
b9d61160-e69a-4e6e-9c2d-79a19ae5c893,Aps,electric_utility_provider,"['contractor', 'social_service_organizations']",,,,,sarasota-bradenton,FL,Sarasota,34237.0,2041 Princeton St,27.346543,-82.5294861,meta,2025-06-02T07:00:00.000Z,0.8860580325548478,,,,False
ace65ea7-6d89-42f9-b178-3ab8aa206b93,APS Automotive,automotive_repair,"['auto_customization', 'automotive']",,,,,oklahoma-city,OK,Oklahoma City,73141.0,7725 NE 23rd St,35.4932527,-97.3925863,meta,2025-06-02T07:00:00.000Z,0.9415384615384615,,,,False
3fa14ad6-3100-4c5e-a49c-21c5099f4c8c,APS Youth Networking Agency,community_services_non_profits,"['youth_organizations', 'central_government_office']",baa916c0-6d4e-4c36-bb76-b11f0a671950,,residential,residential,pittsburgh,PA,Pittsburgh,15221.0,1256 Franklin Ave,40.437529,-79.8745409,meta,2025-06-02T07:00:00.000Z,0.8860580325548478,OpenStreetMap,2017-10-22T21:55:43.000Z,,False
d6cc68fe-d377-4d31-b41a-0bc1f1c9f4e1,APS Group Property Services,professional_services,"['home_improvement_store', 'event_photography']",7b07da2e-7adb-4ae6-9c4e-322ad7446ac9,,,,madison,WI,Madison,53713.0,2829 Perry St,43.0330409,-89.395866,meta,2025-06-02T07:00:00.000Z,0.8540983606557377,OpenStreetMap,2016-05-12T01:59:52.000Z,,False
0b35b95d-0361-41bb-b9d4-32353f570b08,APS Auto Parts Specialist,automotive_parts_and_accessories,"['auto_company', 'automotive_dealer']",a67562c1-634e-4011-953e-1df5e9bdb060,,,,riverside-san-bernardino,CA,Ontario,91761.0,100 E Main St,34.0610647,-117.6505299,meta,2025-06-02T07:00:00.000Z,0.9297091412742382,OpenStreetMap,2024-04-19T06:24:17.000Z,,False
bfa77f7b-4681-4976-b6a4-c5e131c9ea4b,APS - Automotive Paint Supply,paint_store,"['auto_parts_and_supply_store', 'retail']",,,,,riverside-san-bernardino,CA,Fontana,92335.0,16484 Ceres Ave,34.093976,-117.444937,Microsoft,2025-02-15T04:36:11.780Z,0.77,,,,False
d7a9cfeb-427f-43d9-bd41-00d1dd39a7bf,APS-Automotive Paint Supply,paint_store,"['auto_parts_and_supply_store', 'retail']",,,,,riverside-san-bernardino,CA,Fontana,92335.0,16484 Ceres Ave,34.0943603515625,-117.44474029541,Microsoft,2014-04-03T19:40:09.800Z,0.77,,,,False
2080670b-a82c-4d3c-95ce-ceba466f8d21,APS Security,home_security,['professional_services'],4dbd636e-34a1-4190-ad66-72e0d3611449,,commercial,commercial,riverside-san-bernardino,CA,Fontana,92335.0,16846 Merrill Ave,34.0922369,-117.4369644,meta,2025-06-02T07:00:00.000Z,0.9415384615384615,OpenStreetMap,2023-10-20T03:53:59.000Z,,False
09e60908-9f94-4ef4-8bbd-cc1b80105c20,APS Imaging and Supply,professional_services,['software_development'],,,,,riverside-san-bernardino,CA,March Air Reserve Base,92518.0,14120 Meridian Pkwy,33.9137777,-117.2911281,meta,2025-06-02T07:00:00.000Z,0.9297091412742382,,,,False
8f39db30-e873-46a0-b9ff-4b73e4f620fa,APS Industrial Services,contractor,"['movers', 'industrial_equipment']",3acc3e03-dce0-4d12-96b3-00f8dce68f8c,,commercial,commercial,los-angeles,CA,Santa Ana,92705.0,2022 S Grand Ave,33.7199469,-117.8508616,meta,2025-06-02T07:00:00.000Z,0.9415384615384615,OpenStreetMap,2024-05-29T22:49:42.000Z,,False
6729d531-1b90-4ce4-a80a-c5e4553d4360,APS Finishing,contractor,"['sewing_and_alterations', 'real_estate']",bbc8f96f-920f-480e-ba89-94249998a954,,commercial,warehouse,los-angeles,CA,Vernon,90058.0,3165 Slauson Ave,33.989593,-118.211648,meta,2025-06-02T07:00:00.000Z,0.3961437335670464,OpenStreetMap,2016-06-23T14:49:55.000Z,,False
0e76b676-89e0-4e62-8e53-9f8ac9193500,APS Homes,shopping,"['wholesale_store', 'professional_services']",0f1d5d03-39bc-4ec7-803f-841f0657481f,,industrial,industrial,los-angeles,CA,Los Angeles,91304.0,7821 Alabama Ave,34.2125277,-118.6003044,meta,2025-06-02T07:00:00.000Z,0.8831168831168831,OpenStreetMap,2016-07-25T16:43:23.000Z,,False
dc51e92b-0f27-4653-8ee0-276f44a7620d,APS Water Services,plumbing,"['b2b_science_and_technology', 'surgical_appliances_and_supplies']",,,,,los-angeles,CA,Van Nuys,91406.0,7320 Valjean Ave,34.2036347,-118.4858641,meta,2025-06-02T07:00:00.000Z,0.9459263554653524,,,,False
9bf6fee4-7c43-4fac-82ba-6b44df9ea9f7,APS Pharmacy,pharmacy,['medical_supply'],3dc838e9-f316-4695-b827-55d45ad47c93,,commercial,commercial,los-angeles,CA,Norwalk,90650.0,13132 Studebaker Rd,33.911981,-118.0986038,meta,2025-06-02T07:00:00.000Z,0.3376623376623376,OpenStreetMap,2016-10-31T21:33:58.000Z,,False
