id_left,primary_name_left,primary_category,alternate_category,region,locality,zipcode,address,latitude,longitude,plc_source_dataset,plc_source_update_time,plc_source_confidence,id_right,primary_name_right,subtype,class,bldg_dataset,bldg_update_time,bldg_confidence,source_city,is_office_by_pipeline
d3ebe1a5-6260-4ca2-8dca-5cd4f6d5e8db,Prudential,insurance_agency,,IN,Fort Wayne,46805.0,2420 N Coliseum Blvd,41.098902,-85.0880706,meta,2025-06-02T07:00:00.000Z,0.9300613496932516,,,,,,,,fort-wayne,False
4fe7b1e5-36f7-42fd-8650-d509b5c02dd7,"Ryan Rushe, Financial Planner/Advisor with Prudential",financial_service,['financial_advising'],VA,Vienna,22182.0,1919 Gallows Rd,38.91312,-77.22662,meta,2025-06-02T07:00:00.000Z,0.242152466367713,f3172e6f-80c2-4283-b3e5-08483d59d231,,,,OpenStreetMap,2022-09-19T20:46:46.000Z,,washington-dc,False
9a8eff55-f9f5-42b1-b990-f778c3967240,Prudential,real_estate_agent,['insurance_agency'],MD,Bethesda,20814.0,4920 Elm St,38.9820399,-77.0971376,meta,2025-06-02T07:00:00.000Z,0.8831168831168831,942f0b93-fa2f-4c3d-b705-bd9897015dc1,Elm Street Shops,,,OpenStreetMap,2023-08-11T15:16:52.000Z,,washington-dc,False
201d322b-6b8e-408c-869b-5a5a4d73fb5f,Prudential Associates,information_technology_company,['financial_advising'],MD,Rockville,20850.0,9900 Belward Campus Dr,39.104717,-77.208718,meta,2025-06-02T07:00:00.000Z,0.242152466367713,e43e6888-f3dc-4a48-9b10-2d025c8771d3,Rockville Research Center at Belward South,commercial,commercial,OpenStreetMap,2024-02-02T01:43:01.000Z,,washington-dc,False
0b95bd14-60be-48e7-ab53-7dce92884a9a,Prudential Associates,private_investigation,"['professional_services', 'financial_advising']",MD,Rockville,20850.0,9200 Corporate Blvd,39.1072257,-77.1907307,meta,2025-06-02T07:00:00.000Z,0.9300613496932516,f58028ea-c2a7-4ff4-8e31-55850aee2efc,,commercial,office,OpenStreetMap,2024-01-16T08:15:13.000Z,,washington-dc,True
bceb8ae7-08cf-4e09-bde5-f7345cb589f9,Derilyn D. Freeman at Prudential,financial_service,['insurance_agency'],VA,Vienna,22182.0,1919 Gallows Rd,39.0281792,-77.1401215,meta,2025-06-02T07:00:00.000Z,0.3376623376623376,58d57161-8362-4998-b292-fcc62b8a93b0,,commercial,commercial,OpenStreetMap,2018-04-07T19:25:56.000Z,,washington-dc,False
79567f8d-0e98-4e08-8663-f8deab513c62,Prudential Overall Supply,shopping,"['clothing_store', 'carpet_store']",CA,Chula Vista,91910.0,740 F St,32.6362052,-117.0972489,meta,2025-06-02T07:00:00.000Z,0.9784508333782836,176bc35a-827c-4028-981a-4dd9bf03e7f9,,,,OpenStreetMap,2023-06-17T08:48:45.000Z,,san-diego,False
3aa89d4e-5f51-42c4-a841-970f5ddaa0ce,Prudential California Realty,real_estate,['real_estate_agent'],CA,Chula Vista,91910.0,333 H St,32.634327,-117.0781941,meta,2025-06-02T07:00:00.000Z,0.9415384615384615,7d017764-fe0e-4075-bdb7-e77c25f585ab,,commercial,commercial,Esri Community Maps,2024-10-15T00:00:00.000Z,,san-diego,False
367f24a9-9125-4694-b5ec-e3d06e907f3b,Prudential California Realty,real_estate,"['property_management', 'real_estate_agent']",CA,San Diego,92101.0,516 5th Ave,32.7108056,-117.160195,meta,2025-06-02T07:00:00.000Z,0.8860580325548478,,,,,,,,san-diego,False
93751082-2eb1-4856-a667-faad2378fb5e,Prudential California Realty,real_estate_agent,['real_estate'],CA,San Diego,92108.0,2365 Northside Dr,32.783808,-117.1254,meta,2025-06-02T07:00:00.000Z,0.296943231441048,115a29f7-7ca2-47b9-90f0-306b40f2d3ba,,,,OpenStreetMap,2010-06-30T04:30:59.000Z,,san-diego,False
4f038b26-25d6-4ef7-90c0-1000215531ad,Prudential California Realty /  Mark S McDonald,real_estate_agent,"['fast_food_restaurant', 'real_estate']",CA,Del Mar,92014.0,3790 Via de La Valle,32.983262,-117.229507,meta,2025-06-02T07:00:00.000Z,0.3961437335670464,b9a94080-062b-487a-bb9a-f7df2dd61be6,,,,OpenStreetMap,2025-01-08T12:59:24.000Z,,san-diego,False
5fa8ef97-4736-46d1-b26c-269c649d2b27,Rebecca Wood - Kramer & Martin - Prudential CA Realty,real_estate_agent,['property_management'],CA,Rancho Santa Fe,92067.0,16915 Avenida de Acacias,33.019322,-117.203429,meta,2025-06-02T07:00:00.000Z,0.242152466367713,58575d73-0697-4ef3-bd65-e7cd54eff533,,,,OpenStreetMap,2025-01-08T14:03:19.000Z,,san-diego,False
3c59343d-b0d6-420b-9521-12296dfff094,Prudential California Realty,property_management,"['real_estate_agent', 'real_estate_service']",CA,La Mesa,91941.0,9555 Grossmont Summit Dr,32.778444,-116.990903,meta,2025-06-02T07:00:00.000Z,0.3961437335670464,ef3d706c-1309-4227-95cf-8add27056723,,,,Microsoft ML Buildings,2023-09-01T00:00:00.000Z,0.973800003528595,san-diego,False
d681c3a8-0d0f-4173-ba73-207242234122,Prudential California Realty,real_estate_agent,"['real_estate', 'real_estate_service']",CA,Stockton,95207.0,5713 N Pershing Ave,37.9999622,-121.3267641,meta,2025-06-02T07:00:00.000Z,0.242152466367713,dc841187-706d-4137-8a7e-f2fab7b52393,,,,OpenStreetMap,2014-06-11T20:43:12.000Z,,stockton,False
bf37b48b-d1ae-4a4b-8f4b-8ce0c7a6a82a,Prudential Overall Supply,clothing_store,"['carpet_store', 'shopping']",TX,El Paso,79936.0,11501 Rojas Dr,31.7384699,-106.3153967,meta,2025-06-02T07:00:00.000Z,0.9784508333782836,,,,,,,,el-paso,False
c2831ed5-d496-4728-8899-3106e3c98855,Team Gayton - Prudential California Realty,real_estate_agent,['real_estate'],CA,Huntington Beach,92648.0,200 Main St,33.658617,-118.000156,meta,2025-06-02T07:00:00.000Z,0.296943231441048,329a16db-562b-48f1-9f20-0007513ad15d,,,,OpenStreetMap,2020-09-21T21:21:57.000Z,,los-angeles,False
7d099001-53a4-488c-8256-6daf18ff23fd,Prudential California Realty,real_estate_agent,['real_estate'],CA,Huntington Beach,92649.0,5848 Edinger Ave,33.728852,-118.026576,meta,2025-06-02T07:00:00.000Z,0.242152466367713,4e547ecc-d2f8-4a31-bbec-6d25fe3c37ed,,,,OpenStreetMap,2021-01-27T19:19:01.000Z,,los-angeles,False
aac41670-d955-45ac-8a9b-98b7d8c74965,Prudential Funding Partners,installment_loans,"['mortgage_broker', 'investing']",CA,Huntington Beach,92647.0,7755 Center Ave,33.7349369,-117.9951485,meta,2025-06-02T07:00:00.000Z,0.8860580325548478,93c7120f-2af0-4aaf-ae36-d5bdd63a45df,,commercial,commercial,OpenStreetMap,2021-06-15T15:07:00.000Z,,los-angeles,False
41a5e0f2-feef-4369-9c58-8127bc89ed24,Prudential California Realty,real_estate_agent,['real_estate'],CA,Newport Beach,92660.0,1400 Newport Center Dr,33.6092483,-117.8795735,meta,2025-06-02T07:00:00.000Z,0.9297091412742382,fb1a2e7e-df2a-4139-b42a-eaa7db137b1e,The Kelso Team - On Q Financial INC.,,,OpenStreetMap,2022-10-25T15:02:54.000Z,,los-angeles,False
ec554fd9-2d9e-4fdf-9a90-0d37021e4102,Prudential Overall Supply,uniform_store,['clothing_store'],CA,Irvine,92606.0,1661 Alton Pkwy,33.6986402,-117.8461149,meta,2025-06-02T07:00:00.000Z,0.9688311688311688,ce58bbfd-6906-4ea9-80ac-034df8acbdce,,commercial,commercial,OpenStreetMap,2023-12-19T23:19:39.000Z,,los-angeles,False
50a4858b-2da0-463b-9ffa-298a8e8010ff,Prudential Malibu Realty,real_estate_service,,CA,Malibu,90265.0,23405 Pacific Coast Hwy,34.034356,-118.685406,Microsoft,2013-01-27T18:57:32.500Z,0.77,,,,,,,,los-angeles,False
e50ed5e9-dffb-4e3e-8982-3597d6f121f6,Prudential Plumbing,plumbing,['contractor'],CA,Torrance,90503.0,3525 W Carson St,33.832628,-118.34875,meta,2025-06-02T07:00:00.000Z,0.2456896551724137,,,,,,,,los-angeles,False
5f5eb96a-4cd0-4047-a774-ed551a5da8ea,Dina & Osmin Ruano - Prudential California Realty,real_estate,['real_estate_agent'],CA,Hermosa Beach,90254.0,2615 Pacific Coast Hwy,33.873561,-118.396419,meta,2025-06-02T07:00:00.000Z,0.242152466367713,7f6ad0ec-f2a8-4a01-bfd5-dd4d81c6520b,,commercial,commercial,OpenStreetMap,2025-03-10T04:36:04.000Z,,los-angeles,False
b61e531f-bcc5-4b0c-987f-2a46d680af8b,Prudential Plumbing,plumbing,,CA,Torrance,90503.0,PO Box 13742,33.84021759033203,-118.35316848754884,Microsoft,2015-09-10T02:45:59.623Z,0.77,40879d9e-017f-48d9-b418-80925c59703d,,commercial,commercial,OpenStreetMap,2016-09-16T13:45:54.000Z,,los-angeles,False
0f1a83a8-1567-419a-813f-531dc3894a23,Prudential California Realty,real_estate_agent,['real_estate'],CA,Carson,90745.0,510 W Carson St,33.831423,-118.2848716,meta,2025-06-02T07:00:00.000Z,0.9204819277108434,ac783baf-589a-4b17-9a56-71851e0df67c,,commercial,commercial,OpenStreetMap,2016-09-08T15:17:25.000Z,,los-angeles,False
d6a0021b-1258-4f42-a0d5-149474f976db,Prudential Ca. Realty,real_estate,"['real_estate_agent', 'property_management']",CA,Long Beach,90807.0,3728 Atlantic Ave,33.825121,-118.184731,meta,2025-06-02T07:00:00.000Z,0.242152466367713,da42c180-fa59-4c72-a21d-7736f4f21cd1,,commercial,commercial,OpenStreetMap,2016-09-07T14:57:22.000Z,,los-angeles,False
ed801d53-fe2a-43d0-8f94-b98040dfbcdc,Prudential Overall Supply,clothing_store,"['home_cleaning', 'carpet_store']",CA,Carson,90746.0,951 Sandhill Ave,33.8787679,-118.2583661,meta,2025-06-02T07:00:00.000Z,0.9459263554653524,,,,,,,,los-angeles,False
21ae54d9-2f8d-4aa7-be2b-ae78da012fa7,Prudential California Realty,real_estate_agent,"['real_estate', 'insurance_agency']",CA,Bellflower,90706.0,16911 Bellflower Blvd,33.880823,-118.125568,meta,2025-06-02T07:00:00.000Z,0.2456896551724137,e7327c2c-13ca-4197-9832-8de4595572dc,,commercial,commercial,OpenStreetMap,2016-10-28T16:36:49.000Z,,los-angeles,False
7e5bc89e-0a72-4980-aee7-fe52336a1035,Prudential,financial_service,"['insurance_agency', 'financial_advising']",CA,Los Angeles,90010.0,3530 Wilshire Blvd,34.0611032,-118.301013,meta,2025-06-02T07:00:00.000Z,0.8860580325548478,1bed8f89-40c0-4fda-a41e-ec8b71e3edba,,commercial,commercial,OpenStreetMap,2022-07-28T15:54:38.000Z,,los-angeles,False
32a7475b-f505-4b24-879f-c8f936444122,Prudential Overall Supply,home_and_garden,"['shopping', 'dry_cleaning']",CA,Commerce,90040.0,6920 Bandini Blvd,33.9857696,-118.1383241,meta,2025-06-02T07:00:00.000Z,0.9784508333782836,7f1a8d41-c021-4334-8e1b-8e5b8357688a,,industrial,industrial,OpenStreetMap,2016-11-29T19:46:42.000Z,,los-angeles,False
9df8fe3a-e0f0-4e7a-8ec8-9b3b359d8024,Prudential Cleanroom Services,dry_cleaning,"['carpet_store', 'professional_services']",CA,Commerce,90040.0,6948 Bandini Blvd,33.9857468,-118.1375774,meta,2025-06-02T07:00:00.000Z,0.9459263554653524,82c6ec31-b6d4-4574-b0ae-0fb068ace324,,industrial,industrial,OpenStreetMap,2016-11-29T19:46:17.000Z,,los-angeles,False
6bbd4f60-f735-4ed3-bcae-64665c257b3a,Prudential Lighting,packing_supply,"['business_manufacturing_and_supply', 'contractor']",CA,Los Angeles,90058.0,1774 E 21st St,34.0172344,-118.2404973,meta,2025-06-02T07:00:00.000Z,0.9784508333782836,f85ae41d-3cc8-4eba-bdc2-3adc280931f6,,industrial,industrial,OpenStreetMap,2016-07-05T19:14:24.000Z,,los-angeles,False
34ce4dd3-0da5-40a3-90dd-a3c5c14eb4d6,Prudential California Realty,real_estate_agent,"['commercial_real_estate', 'property_management']",CA,Calabasas,91302.0,23925 Park Sorrento,34.152747,-118.648295,meta,2025-06-02T07:00:00.000Z,0.4929396662387676,523a67fe-f317-43a2-b54c-339b2c715d2c,,commercial,commercial,OpenStreetMap,2016-07-07T06:36:17.000Z,,los-angeles,False
48c2b20d-169e-4a95-aede-96d1f7207a76,Prudential Tax Advisory Group,trusts,"['financial_service', 'accountant']",CA,Los Angeles,91316.0,18075 Ventura Blvd,34.1655469,-118.5267085,meta,2025-06-02T07:00:00.000Z,0.909823677581864,,,,,,,,los-angeles,False
720df112-bb60-492f-a5f3-e1af01926461,Prudential Security Guard Services,real_estate_agent,"['real_estate', 'insurance_agency']",CA,Los Angeles,91304.0,21041 Parthenia St,34.2283349,-118.5923091,meta,2025-06-02T07:00:00.000Z,0.909823677581864,003fb3ce-01d7-4609-a76d-6921ef33debf,,residential,apartments,OpenStreetMap,2024-02-14T20:14:55.000Z,,los-angeles,False
1e06c319-8379-4f4f-81f8-378e1b406263,Prudential Auto Body Paint,automotive_repair,"['auto_body_shop', 'wholesale_store']",CA,Los Angeles,91605.0,13225 Sherman Way,34.2015553,-118.4212901,meta,2025-06-02T07:00:00.000Z,0.9784508333782836,,,,,,,,los-angeles,False
65fb7ad7-e96a-4315-a7e8-27ae2fc4803e,Prudential California Realty,real_estate_agent,"['commercial_real_estate', 'professional_services']",CA,Glendale,91201.0,1625 W Glenoaks Blvd,34.170503,-118.288241,meta,2025-06-02T07:00:00.000Z,0.909823677581864,a43625d1-b890-4da6-abba-442392eb2415,Coldwell Banker,commercial,commercial,OpenStreetMap,2023-12-29T01:48:57.000Z,,los-angeles,False
77a16df8-4b33-46d2-978d-a0930267c6e8,John Moreno Prudential California Realty,real_estate_agent,"['property_management', 'real_estate']",CA,Pasadena,91101.0,540 S Lake Ave,34.13655,-118.13187,meta,2025-06-02T07:00:00.000Z,0.4929396662387676,069210ed-e51f-4ac9-ba96-fbcd14f94059,,,,OpenStreetMap,2016-12-09T12:22:47.000Z,,los-angeles,False
5428fb9d-3532-411a-9399-cf5821e48922,Prudential California Realty,real_estate_agent,"['real_estate', 'professional_services']",CA,Cerritos,90703.0,11306 183rd St,33.865412,-118.092941,meta,2025-06-02T07:00:00.000Z,0.242152466367713,5f25365b-362f-4554-a10e-0fb3c4fe4343,,commercial,commercial,OpenStreetMap,2016-11-25T20:40:26.000Z,,los-angeles,False
01b66b9b-03a4-48d5-8276-49178115cbf4,Amit Gandhi at Prudential,investing,"['financial_service', 'financial_advising']",CA,Artesia,90701.0,18500 Pioneer Blvd,33.8637342,-118.0819796,meta,2025-06-02T07:00:00.000Z,0.9415384615384615,,,,,,,,los-angeles,False
1ffd859e-822f-4f74-94df-9c2f5d781c4e,Prudential Hospice Care,hospital,"['hospice', 'health_and_medical']",CA,Cerritos,90703.0,13047 Artesia Blvd,33.8735521,-118.0542451,meta,2025-06-02T07:00:00.000Z,0.9297091412742382,51a7483e-b447-4ff3-839b-f5349d82ce3a,,commercial,commercial,OpenStreetMap,2024-07-19T16:26:18.000Z,,los-angeles,False
c2f293b3-09a7-41c2-8ca1-9416984744dd,Prudential California Realty,real_estate_agent,['real_estate'],CA,Norwalk,90650.0,11642 Firestone Blvd,33.914048,-118.085354,meta,2025-06-02T07:00:00.000Z,0.242152466367713,c0c37d5c-c4fb-40dc-ab59-04e38ad6548e,,commercial,commercial,OpenStreetMap,2016-11-03T18:46:00.000Z,,los-angeles,False
d50808aa-3a8c-4e73-b8ed-3b448d4e927d,Prudential Overall Supply,home_and_garden,"['home_improvement_store', 'hardware_store']",CA,Cerritos,90703.0,17641 Fabrica Way,33.8702046,-118.0318151,meta,2025-06-02T07:00:00.000Z,0.9415384615384615,,,,,,,,los-angeles,False
51d73de8-402d-479e-aee3-969d7c06d539,Prudential California Realty,real_estate,"['real_estate_agent', 'event_planning']",CA,Fullerton,92835.0,1419 N Harbor Blvd,33.8846373,-117.9259948,meta,2025-06-02T07:00:00.000Z,0.3376623376623376,,,,,,,,los-angeles,True
deb6358d-0871-4f3d-a127-c268112cad85,Prudential California Realty Brea,real_estate_agent,['real_estate'],CA,Brea,92821.0,3350 E Birch St,33.9178799,-117.84909,meta,2025-06-02T07:00:00.000Z,0.296943231441048,90ed60e9-2235-4254-b24e-ff0a826c8600,,,,OpenStreetMap,2011-08-02T23:20:59.000Z,,los-angeles,False
ded246d8-d402-4b09-838b-74d5686f0934,Prudential California Realty,real_estate_agent,['real_estate'],CA,Whittier,90603.0,16218 Whittier Blvd,33.940527,-117.984841,meta,2025-06-02T07:00:00.000Z,0.2456896551724137,521f29ed-ab35-49d3-8300-ad159117899c,,commercial,retail,OpenStreetMap,2024-12-04T11:52:52.000Z,,los-angeles,False
3af14c36-ca10-4432-ac8c-ba5cac44af90,Delilah Dijamco at Prudential,insurance_agency,,CA,Industry,91748.0,17700 Castleton St,33.99228,-117.91623,meta,2025-06-02T07:00:00.000Z,0.3961437335670464,e91ccbb5-4898-44db-b3fb-8ee64beac3ec,,commercial,commercial,OpenStreetMap,2017-02-01T11:52:41.000Z,,los-angeles,False
7d2b7dd0-ae39-4bd8-bc1c-1e4d2dac005b,Prudential California Realty,real_estate_agent,"['real_estate', 'professional_services']",CA,Anaheim,92808.0,181 S Old Springs Rd,33.864325,-117.742615,meta,2025-06-02T07:00:00.000Z,0.3376623376623376,91575d4c-5edc-4f73-8780-37e19711b7c3,,commercial,commercial,OpenStreetMap,2020-11-16T23:37:07.000Z,,los-angeles,False
f0db374c-e7a4-4b2e-a9db-2d9940fb3872,Prudential California Realty,real_estate_agent,['real_estate'],CA,Yorba Linda,92887.0,22800 Savi Ranch Pkwy,33.875178,-117.738872,meta,2025-06-02T07:00:00.000Z,0.3961437335670464,05d95a2e-9925-478f-9444-5a80ac287dda,,commercial,commercial,OpenStreetMap,2016-03-17T19:04:13.000Z,,los-angeles,False
8041125f-549e-4234-866b-3487b0defacb,New Prudential Driving & Lucy's Traffic School,driving_school,"['education', 'traffic_school']",CA,Pomona,91767.0,1146 N Garey Ave,34.0690368,-117.7519707,meta,2025-06-02T07:00:00.000Z,0.9784508333782836,ce698f11-1707-4dfb-a8a2-b1bbd55bd391,,commercial,commercial,OpenStreetMap,2017-01-30T18:51:00.000Z,,los-angeles,False
72de4f62-5f34-4348-a084-d23943388e6e,Prudential Mortgage Corp.,mortgage_broker,"['real_estate', 'professional_services']",CA,Arcadia,91007.0,805 W Duarte Rd,34.12608,-118.05762,meta,2025-06-02T07:00:00.000Z,0.8860580325548478,4bbfdde6-9936-4999-a821-df2e1e37e4fb,,commercial,commercial,OpenStreetMap,2017-02-02T10:29:06.000Z,,los-angeles,False
015d59eb-1d90-4e4f-94eb-c3f00d78599f,California Prudential Real Estate Services,real_estate,['real_estate_agent'],CA,Los Angeles,0.0,1 Any where ,34.1413049,-118.0312297,meta,2025-06-02T07:00:00.000Z,0.3313953488372093,b9774b25-d20c-4c68-9b7e-bf240415d0db,,commercial,commercial,OpenStreetMap,2017-02-01T20:18:10.000Z,,los-angeles,False
707c7f35-b6f9-4556-8963-41c0e9c486f6,"Prudential, Fox & Roach Realtors",real_estate_agent,"['real_estate', 'commercial_real_estate']",PA,Exton,19341.0,232 Eagleview Blvd,40.055563,-75.665593,meta,2025-06-02T07:00:00.000Z,0.242152466367713,c0d30e32-e3dd-403e-9f65-0c9e16e0e9dd,,,,OpenStreetMap,2010-09-07T02:04:49.000Z,,philadelphia,False
6ef72af2-14f5-4a92-895f-00b89ad500d3,Prudential Fox & Roach,real_estate_agent,"['real_estate', 'carpet_store']",PA,Malvern,19355.0,49 E Lancaster Ave,40.0439937,-75.5181314,meta,2025-06-02T07:00:00.000Z,0.5662921348314607,0de48478-81e7-43bf-89e1-f8e8a5248822,,,,OpenStreetMap,2011-06-07T02:05:30.000Z,,philadelphia,False
32938e06-c315-47dc-a7f2-94a758d96378,Prudential Savings Bank,bank_credit_union,"['installment_loans', 'financial_service']",PA,Drexel Hill,19026.0,601 Morgan Ave,39.949389,-75.306148,meta,2025-06-02T07:00:00.000Z,0.3961437335670464,6b9b37a9-da53-4f68-ad6a-e0396abc63f0,,,,Microsoft ML Buildings,2020-09-21T00:00:00.000Z,,philadelphia,False
f815f2b0-f467-41b6-9293-9b3a1edcce16,Nancy Dubin - Prudential Fox & Roach,real_estate_agent,,PA,Haverford,19041.0,338 W Lancaster Ave,40.0158805847168,-75.30693817138672,Microsoft,2013-09-26T14:43:13.203Z,0.77,,,,,,,,philadelphia,False
aa9ba881-a809-4d99-92f9-5a8d861de95b,Prudential Fox and Roach Realtors,real_estate_agent,"['commercial_real_estate', 'real_estate']",NJ,Blackwood,8012.0,198 Fries Mill Rd,39.7307209,-75.0471304,meta,2025-06-02T07:00:00.000Z,0.9300613496932516,05c046ba-904a-4021-ab37-220d0a42e677,,commercial,retail,OpenStreetMap,2020-03-21T13:53:56.000Z,,philadelphia,False
bba4fd03-a506-4b48-b52e-a513fa7739fd,William Witt at Prudential,insurance_agency,['financial_service'],NJ,Blackwood,8012.0,1504 Blackwood Clementon Rd,39.80293,-75.043,meta,2025-06-02T07:00:00.000Z,0.242152466367713,89f3be12-98b5-450f-9b1a-843b43f41448,,,,OpenStreetMap,2021-06-10T14:30:24.000Z,,philadelphia,False
80e8a11b-3cc6-4db8-b31e-25ad482b3592,Prudential Fox and Roach Realtors Commercial,real_estate_agent,['real_estate'],NJ,Haddonfield,8033.0,41 S Haddon Ave,39.897137,-75.030605,meta,2025-06-02T07:00:00.000Z,0.242152466367713,b087f926-b72a-41f1-9e38-e0bcbddc6a94,,,,OpenStreetMap,2020-01-30T21:46:21.000Z,,philadelphia,False
fe3fa218-44a6-4f91-a83d-1267c6d8f966,Prudential-Lisa Thomas-Life Insurance & Financial Services,insurance_agency,"['professional_services', 'financial_service']",NJ,Marlton,8053.0,525 Route 73 N,39.90113,-74.93595,meta,2025-06-02T07:00:00.000Z,0.296943231441048,ea366923-863f-4294-a534-4ec12ba010e9,,,,OpenStreetMap,2024-10-21T22:51:50.000Z,,philadelphia,False
ed993110-3a18-4ab2-b5ef-f5e3911439d9,Prudential Savings Bank,bank_credit_union,"['banks', 'financial_service']",PA,Philadelphia,19148.0,238 Moore St,39.925544,-75.150902,meta,2025-06-02T07:00:00.000Z,0.5662921348314607,17a5c319-0c2c-43b7-8235-e5d8c679af24,,,,OpenStreetMap,2022-12-19T22:57:48.000Z,,philadelphia,False
ed993110-3a18-4ab2-b5ef-f5e3911439d9,Prudential Savings Bank,bank_credit_union,"['banks', 'financial_service']",PA,Philadelphia,19148.0,238 Moore St,39.925544,-75.150902,meta,2025-06-02T07:00:00.000Z,0.5662921348314607,d7794eda-fab4-4759-afc4-7cbee296aab3,,,,OpenStreetMap,2022-12-19T22:57:48.000Z,,philadelphia,False
d9c48a5b-352f-42e6-8675-3277b2ba1dbe,Prudential Bank,bank_credit_union,"['banks', 'investing']",PA,Philadelphia,19137.0,4800 Richmond St,40.0021338,-75.0650012,meta,2025-06-02T07:00:00.000Z,0.3376623376623376,8963c3e5-8599-408c-bf37-f38e1df56c38,,,,Microsoft ML Buildings,2000-01-01T00:00:00.000Z,,philadelphia,False
ef144f94-529b-4e21-927d-17566674b6fd,Prudential Fox and Roach Realtors,real_estate_agent,['real_estate_service'],NJ,Cherry Hill,8034.0,1401 Marlton Pike,39.910167,-74.993113,meta,2025-06-02T07:00:00.000Z,0.3961437335670464,91c534fb-7d49-4ae9-8b34-70866f1afb7c,South Jersey Medical Center,,,OpenStreetMap,2017-03-02T00:56:37.000Z,,philadelphia,False
926150c1-767d-423c-9d10-78f2de891a4f,Prudential Fox Roach,real_estate_agent,"['real_estate_service', 'real_estate']",NJ,Mt Laurel,8054.0,4230 Dearborn Cir,39.9703822,-74.902297,meta,2025-06-02T07:00:00.000Z,0.242152466367713,78aad9d4-4797-45bc-8bbe-a08f0e2b8780,Berkshire Hathaway,,,OpenStreetMap,2015-05-12T03:40:15.000Z,,philadelphia,False
926150c1-767d-423c-9d10-78f2de891a4f,Prudential Fox Roach,real_estate_agent,"['real_estate_service', 'real_estate']",NJ,Mt Laurel,8054.0,4230 Dearborn Cir,39.9703822,-74.902297,meta,2025-06-02T07:00:00.000Z,0.242152466367713,aa27cc0d-f3b2-47d7-ab12-abc07abc0ef7,Trident Mortgage,,,OpenStreetMap,2015-05-12T03:40:15.000Z,,philadelphia,False
a30b15a8-a6de-4196-adea-ef2d99eb6651,David Desimone at Prudential,financial_advising,"['insurance_agency', 'financial_service']",PA,Collegeville,19426.0,8 School House Rd,40.2136411,-75.4550473,meta,2025-06-02T07:00:00.000Z,0.9204819277108434,,,,,,,,philadelphia,False
dafa6a50-258c-4b3e-8ca6-2f28958c367c,Prudential Financial,insurance_agency,['financial_service'],PA,Southampton,18966.0,80 2nd Street Pike,40.160251,-75.048466,meta,2025-06-02T07:00:00.000Z,0.296943231441048,29126fc2-52bd-4115-bb1d-b7751a7905a6,,,,OpenStreetMap,2021-01-30T19:11:56.000Z,,philadelphia,False
c36cba81-c2fe-460c-8036-e902bb348225,Prudential-Mohindroo,financial_advising,['financial_service'],PA,Yardley,19067.0,91 S Main St,40.240343,-74.836302,meta,2025-06-02T07:00:00.000Z,0.3376623376623376,d31815b9-b419-4dbc-a4c7-642622f2345c,,,,Esri Community Maps,2024-10-15T00:00:00.000Z,,philadelphia,False
5821a3e2-761d-48b8-904e-75f5ea954da9,Prudential Financial,insurance_agency,['real_estate'],NC,Charlotte,28211.0,2701 Coltsgate Rd,35.1490054,-80.8265758,meta,2025-06-02T07:00:00.000Z,0.9300613496932516,45afaf41-c615-4164-9f8c-42c32b86c7b7,,,,OpenStreetMap,2023-01-19T21:25:46.000Z,,charlotte,False
56f298dc-7044-4c37-955d-32dbe3a30c5f,Prudential Indiana Realty Group - Hicks,venue_and_event_space,"['real_estate_agent', 'real_estate_service']",IN,Greenwood,46142.0,1680 W Main St,39.613221,-86.1558373,Microsoft,2024-12-02T08:32:02.297Z,0.77,,,,,,,,indianapolis,False
db9d3c4b-d030-4dd1-83e5-93679d9c97b5,Diana Wilson Hall Prudential Indiana Classic Realty Team,real_estate_agent,"['real_estate', 'commercial_real_estate']",IN,Greenwood,46142.0,1680 Main St W,39.613675,-86.155811,meta,2025-06-02T07:00:00.000Z,0.3376623376623376,51f2c8b8-4ea7-4d4e-9643-8c28265b875c,,,,Microsoft ML Buildings,2024-07-01T00:00:00.000Z,0.9930999875068665,indianapolis,False
24798bc6-1bbc-4aee-a6fb-fc3e3ca290dd,James M. Kemmerer - Prudential Financial,financial_service,"['accountant', 'installment_loans']",IN,Greenwood,46142.0,520 N Madison Ave,39.6218935,-86.1130895,meta,2025-06-02T07:00:00.000Z,0.9300613496932516,e5f9d776-e719-4059-9736-263a3f18faed,,,,OpenStreetMap,2022-12-13T22:20:29.000Z,,indianapolis,False
e082322b-0f70-48ba-916c-7c3e02b9d7be,Prudential Indiana Realty Group,real_estate_agent,['real_estate'],IN,Indianapolis,46240.0,3801 E 82nd St,39.9082708,-86.1026036,meta,2025-06-02T07:00:00.000Z,0.909823677581864,59289bbe-4189-4b2e-a6b1-f2545c47ed96,,,,OpenStreetMap,2022-12-26T00:28:24.000Z,,indianapolis,False
5b320dd6-50fc-4fa5-8737-4352372a4983,Prudential Indiana Realty,real_estate_agent,"['professional_services', 'business']",IN,Fishers,46038.0,8402 E 116th St,39.95737,-86.020261,meta,2025-06-02T07:00:00.000Z,0.3376623376623376,348a0eba-bb0e-4e62-8433-e5524bcd4683,,commercial,office,OpenStreetMap,2020-09-11T21:28:30.000Z,,indianapolis,True
ce8d4b56-6085-4980-a48d-d78d5f02ed47,Daniel LaMarca at Prudential,financial_service,"['insurance_agency', 'financial_advising']",OH,Gahanna,43230.0,428 Beecher Rd,40.047017,-82.863683,meta,2025-06-02T07:00:00.000Z,0.296943231441048,53805a48-9ced-47a7-b784-c8059d1b5f42,,,,Microsoft ML Buildings,2024-07-01T00:00:00.000Z,0.9426000118255616,columbus-ohio,False
17978af0-3644-424a-8b5e-5f0738e04a7d,Prudential Metrix REALTORS,corporate_office,['private_establishments_and_corporates'],OH,Westerville,43082.0,110 Polaris Pkwy,40.148155,-82.927757,Microsoft,2011-01-12T14:21:08.287Z,0.77,36725812-eecc-4927-b212-01310d8b9d28,,commercial,office,OpenStreetMap,2022-07-22T21:29:19.000Z,,columbus-ohio,True
e92e5bfe-77f4-4155-bfdc-7aaa7441595d,Keri Evans / Prudential Cooper & Co. REALTORS,real_estate_agent,"['real_estate', 'windows_installation']",AL,Mobile,36609.0,411 Azalea Rd,30.668827,-88.150727,meta,2025-06-02T07:00:00.000Z,0.2456896551724137,,,,,,,,mobile,False
d29d4f77-cd3b-4513-8c01-7f4597bc37bc,Prudential Don Johnson,real_estate,"['bar', 'real_estate_agent']",TX,San Antonio,78232.0,16845 Blanco Rd,29.595627,-98.511337,meta,2025-06-02T07:00:00.000Z,0.3376623376623376,5aac809f-89e6-4a6b-86d7-7ea72b412dae,,,,Microsoft ML Buildings,2020-12-25T00:00:00.000Z,,san-antonio,False
cbb52f65-b591-4a3c-b964-c741200e6cb1,Prudential Overall Supply,uniform_store,['retail'],TX,San Antonio,78233.0,12050 Crownpoint Ste 100,29.55028833,-98.36483067,Microsoft,2019-10-14T15:27:37.180Z,0.77,bc09411c-9212-4b21-a735-2aba26a284fb,,,,OpenStreetMap,2025-01-17T15:29:16.000Z,,san-antonio,False
b8888123-589b-4a2e-8f14-4d6d89f8cd7d,"James Roberts, Prudential Real Estate",real_estate,"['real_estate_service', 'real_estate_agent']",UT,American Fork,84003.0,315 S 500 E,40.370834,-111.785762,meta,2025-06-02T07:00:00.000Z,0.242152466367713,c99fac9b-4370-46ab-af44-89ff6b2ff0d2,,,,OpenStreetMap,2025-01-22T17:25:11.000Z,,provo,False
8b595b13-3ccd-439f-a7f3-401371c6bc05,"William Davis, Financial Planner - Prudential Advisors",insurance_agency,['financial_service'],NC,Greensboro,27410.0,5587 Garden Village Way,36.1129801,-79.9063567,meta,2025-06-02T07:00:00.000Z,0.9300613496932516,6d0556d1-d1ab-48b8-8de5-a35be6835eaa,,,,OpenStreetMap,2015-12-08T02:17:25.000Z,,greensboro,False
bc12f546-117b-4b17-bf04-4d689bae547f,Prudential Carolinas Realty-Greensboro,real_estate,"['real_estate_agent', 'movers']",NC,Greensboro,27408.0,802 Green Valley Rd,36.091032,-79.817533,meta,2025-06-02T07:00:00.000Z,0.242152466367713,657816a5-6196-43d4-b021-cfd3b83dbd08,,,,OpenStreetMap,2016-04-21T17:59:45.000Z,,greensboro,False
843679de-39f8-4899-bf01-8b6cc1ccc1ef,Prudential Yost and Little,real_estate_agent,['real_estate'],NC,Greensboro,27401.0,1103 N Elm St,36.08939,-79.789232,meta,2025-06-02T07:00:00.000Z,0.242152466367713,88583cef-5012-41eb-83e4-9c40ef14f85b,,commercial,office,OpenStreetMap,2024-09-12T11:55:43.000Z,,greensboro,True
d9583f63-92ac-46a3-8590-54e3d5c26981,Prudential Cleanroom Services,professional_services,"['b2b_textiles', 'laundromat']",AZ,Mesa,85210.0,42 W Hampton Ave,33.3881124,-111.8336243,meta,2025-06-02T07:00:00.000Z,0.9300613496932516,4f725f4b-7ce0-4dc0-bdca-e68a56eee4d1,Prudential Cleanroom Services,,,OpenStreetMap,2021-06-13T21:44:01.000Z,,phoenix,False
201608d8-600d-4a94-899e-755112112fb1,Prudential Overall Supply,clothing_store,"['hardware_store', 'shopping']",AZ,Phoenix,85043.0,5102 W Roosevelt St,33.4589713,-112.1697981,meta,2025-06-02T07:00:00.000Z,0.9784508333782836,,,,,,,,phoenix,False
3eea3b23-516d-451a-bc0b-1fd2e293999c,Prudential Healthcare,insurance_agency,['real_estate_agent'],AZ,Phoenix,85016.0,2910 E Camelback Rd,33.510438,-112.0185664,meta,2025-06-02T07:00:00.000Z,0.8860580325548478,08246755-3e43-4fa9-8d23-c45730a7a4a7,,,,OpenStreetMap,2024-06-01T19:38:53.000Z,,phoenix,False
6a11b071-1625-47c4-8938-ef3c31075bd1,Prudential Construction,construction_services,"['fence_and_gate_sales_service', 'metal_fabricator']",AZ,Gilbert,85297.0,3311 S 147th Pl,33.289954,-111.764931,meta,2025-06-02T07:00:00.000Z,0.8253968253968254,f4eb8308-24c7-4021-80c6-a0552d354b24,,,,OpenStreetMap,2023-07-13T23:52:33.000Z,,phoenix,False
5ad9dbfb-5d9c-4430-ad13-c830c6676543,Prudential Overall Supply,carpet_store,"['clothing_store', 'hardware_store']",CA,Fresno,93725.0,1260 E North Ave,36.6925782,-119.7668102,meta,2025-06-02T07:00:00.000Z,0.9784508333782836,,,,,,,,fresno,False
da2984fe-3ace-4108-88d0-ea1a7a6eda62,Prudential Agricultural Investments,real_estate_agent,,CA,Fresno,93720.0,7108 N Fresno St,36.8397625,-119.7814656,Microsoft,2025-02-17T08:19:30.060Z,0.77,,,,,,,,fresno,False
94680a7c-ad49-42b7-a533-dcc6d7815b10,Prudential Contracting,tutoring_center,"['employment_agencies', 'education']",CO,Aurora,80012.0,12195 E Ohio Ave,39.702835,-104.844845,Microsoft,2025-05-19T20:55:53.907Z,0.77,2a3e5729-279d-4292-a23d-1f7613ee3620,,,,OpenStreetMap,2022-01-02T01:06:40.000Z,,denver,False
344b9221-e06a-4a71-ab52-4bcfb154a88d,Prudential Overall Supply,uniform_store,['retail'],CO,Commerce City,80022.0,5710 E 56th Ave,39.795767,-104.919762,Microsoft,2019-11-07T17:14:14.960Z,0.77,e80ad5ff-ba0c-416a-a9f4-c7b58aa978f8,,,,OpenStreetMap,2022-02-14T02:34:37.000Z,,denver,False
53dd2cde-cefe-4c97-a55f-fb3cd5273361,Roy J James Prudential Advisors,financial_service,['insurance_agency'],FL,St Petersburg,33711.0,4100 Central Ave,27.77068,-82.68908,meta,2025-06-02T07:00:00.000Z,0.296943231441048,927e3a74-fa1e-41d8-b6b6-6c533b77c2c4,,,,OpenStreetMap,2017-09-10T18:37:30.000Z,,st-petersburg,False
5e9dbc39-4982-4cc7-9486-15305413b578,Joseph Baez at Prudential Financial,financial_service,,FL,St Petersburg,33701.0,447 3rd Ave N,27.77522,-82.63952,meta,2025-06-02T07:00:00.000Z,0.242152466367713,65041999-8fb9-44ba-af97-d2b393956d3f,The Legal Building,commercial,office,OpenStreetMap,2021-04-27T06:54:10.000Z,,st-petersburg,True
d02eba3b-5356-4dca-8449-445f3b2ee5f4,Anthony Daugherty at Prudential,installment_loans,"['financial_service', 'investing']",FL,New Port Richey,34655.0,3030 Starkey Blvd,28.2032417,-82.6428261,meta,2025-06-02T07:00:00.000Z,0.9300613496932516,bbf1e5de-4b61-4ad4-895f-d07c581c0155,,,,OpenStreetMap,2021-03-25T23:45:38.000Z,,st-petersburg,False
7958eb4c-1e27-4d68-b782-3b5e783158fb,Prudential Tropical Realty,real_estate_agent,"['real_estate', 'tanning_salon']",FL,Port Richey,34668.0,9108 US Highway 19,28.289381,-82.711066,meta,2025-06-02T07:00:00.000Z,0.3376623376623376,99f704d6-85c4-419b-be47-3145828f17fe,Berkshire Hathaway HomeServices,,,OpenStreetMap,2024-01-17T03:40:56.000Z,,st-petersburg,False
2b811b8b-f3e9-4060-80fd-8771ffdae955,"Joshua Derwin, MBA at Prudential",financial_service,['financial_advising'],KS,Overland Park,66210.0,11071 Hauser St,38.92863,-94.73835,meta,2025-06-02T07:00:00.000Z,0.4929396662387676,be39fefa-3396-44b4-b2c1-9ddec8b50972,,,,Microsoft ML Buildings,2019-09-23T00:00:00.000Z,,kansas-city,False
c805de74-d053-48ab-8f3d-efc0356e3cb8,Prudential Dunnigan Real Estate,real_estate,['real_estate_agent'],CA,Sacramento,95831.0,6355 Riverside Blvd,38.5106933,-121.5402822,meta,2025-06-02T07:00:00.000Z,0.9300613496932516,8605a563-d870-426b-b7d1-2e19bab0bd60,,,,Microsoft ML Buildings,2022-04-24T00:00:00.000Z,,sacramento,False
baba6bed-37ab-4591-8012-a56ef2cb510b,Prudential Overall Supply,uniform_store,['retail'],CA,Broderick,95605.0,545 Jefferson Blvd #5,38.587422,-121.526127,Microsoft,2019-10-14T16:13:31.050Z,0.77,23049cbb-8923-43f5-89f3-151a2ea30ad8,,industrial,industrial,OpenStreetMap,2013-01-20T08:23:34.000Z,,sacramento,False
f05a3bb2-2032-48b9-9ee2-ffa1fcf61ee2,J D Hacker at Prudential,insurance_agency,"['investing', 'financial_advising']",SC,Columbia,29206.0,5111 Trenholm Rd,34.0271294,-81.1108682,meta,2025-06-02T07:00:00.000Z,0.3376623376623376,,,,,,,,columbia-south-carolina,False
50340a15-1153-45db-a2c7-3512325ea6f1,Natalie Zednik at Prudential,financial_service,['financial_advising'],SC,Columbia,29210.0,2000 Center Point Rd,34.0418344,-81.1116714,meta,2025-06-02T07:00:00.000Z,0.2456896551724137,,,,,,,,columbia-south-carolina,False
9945ac3b-a0cf-46a6-962f-096546c5ac42,Prudential Midlands Property Management,real_estate,['property_management'],SC,Columbia,29205.0,3200 Devine St,33.997159,-80.995507,meta,2025-06-02T07:00:00.000Z,0.2456896551724137,2d622fda-4c30-45ee-b21f-9b6ca570f0de,Wilder Property Management,,,OpenStreetMap,2024-09-16T16:21:58.000Z,,columbia-south-carolina,False
d6f47a74-479e-4820-bbd7-505398ad11ef,Prudential Alliance Realty Inc,real_estate_agent,['real_estate_service'],OK,Oklahoma City,73120.0,4101 NW 122nd St,35.594661,-97.594275,Microsoft,2013-01-29T01:45:00.453Z,0.77,,,,,,,,oklahoma-city,False
ae32408e-3e25-4774-8d75-36391e99ad67,James L DeFano at Prudential,financial_service,['insurance_agency'],IL,Downers Grove,60515.0,1901 Butterfield Rd,41.72586,-88.20392,meta,2025-06-02T07:00:00.000Z,0.3376623376623376,,,,,,,,chicago,False
e7b84410-7e5d-4fe2-ab3c-815c8d12779c,Prudential Real Estate,real_estate_agent,['insurance_agency'],IL,Elk Grove Village,60007.0,25 Turner Ave,41.993874,-88.002569,meta,2025-06-02T07:00:00.000Z,0.8860580325548478,,,,,,,,chicago,False
880bae29-9de4-458f-aed5-3ae5022a5fc1,Prudential Real Estate,real_estate_agent,,IL,Elk Grove Vlg,60007.0,25 Turner Ave Ste 101,41.993974,-88.002594,Microsoft,2013-08-19T17:09:28.537Z,0.77,,,,,,,,chicago,False
a3a6740b-9e1b-4332-bc91-7ca6bd564ba2,Prudential American Heritage Real Estate,real_estate_agent,['real_estate_service'],IL,Barrington,60010.0,303 E Main St Ste 205,42.15408,-88.132939,Microsoft,2013-01-28T22:16:22.967Z,0.77,6b72f5fd-56ed-4894-b83e-335fea685277,,,,OpenStreetMap,2025-01-23T22:29:06.000Z,,chicago,False
a1c2eee3-2eff-41c4-a889-6ec4376efc11,Prudential Solutions,home_improvement_store,"['contractor', 'construction_services']",IL,Barrington,60010.0,119 Howe Ter,42.1508,-88.10918,meta,2025-06-02T07:00:00.000Z,0.2456896551724137,e845f415-9464-4091-8253-e27b9fbfde22,,,,Microsoft ML Buildings,2023-09-01T00:00:00.000Z,0.9815000295639038,chicago,False
4c8bbf7a-2f16-4483-91d9-46cd9fa801b9,Prudential Home Health Services Corp.,home_health_care,"['occupational_therapy', 'personal_care_service', 'skilled_nursing', 'health_and_medical']",IL,Matteson,60443.0,4440 W Lincoln Highway Ste 205,41.5076997,-87.7261523,Microsoft,2025-03-28T15:09:25.303Z,0.77,,,,,,,,chicago,False
84b16721-5ed5-4db5-b5cd-5a0bd0a73c64,Prudential  Home Health Corporation,home_health_care,['home_service'],IL,Matteson,60443.0,4440 211th St,41.507698,-87.725303,meta,2025-06-02T07:00:00.000Z,0.4929396662387676,42865368-5424-4479-af3b-67b775c09ebb,,,,OpenStreetMap,2022-01-10T23:43:55.000Z,,chicago,True
424ae613-3198-4f42-8161-1ed71a0b29f4,Artur Stypula at Prudential,financial_service,,IL,Rosemont,60018.0,10275 W Higgins Rd,41.995738,-87.883557,meta,2025-06-02T07:00:00.000Z,0.242152466367713,32b8e60f-6767-4227-8830-7a4609762f89,O'Hare International Center,commercial,office,OpenStreetMap,2022-02-13T11:35:56.000Z,,chicago,True
e6c18d2b-1627-483b-8199-ad20d6751d50,Prudential,insurance_agency,['financial_service'],IL,Chicago,60661.0,525 W Monroe St,41.880403,-87.640653,meta,2025-06-02T07:00:00.000Z,0.3376623376623376,ba91c33f-be36-40a3-868e-4b54fd0cffd1,Cigna,commercial,office,OpenStreetMap,2021-07-07T06:18:50.000Z,,chicago,True
f0538969-0f13-4f36-b6e2-1344ebef5bfd,Prudential Gem & Jewelry,jewelry_store,"['shopping', 'b2b_jewelers']",IL,Chicago,60602.0,9 N Wabash Ave,41.8822588,-87.6259924,meta,2025-06-02T07:00:00.000Z,0.9784508333782836,492bfe5c-df38-47d9-b402-817e73fa4627,,,,OpenStreetMap,2023-05-25T20:42:40.000Z,,chicago,False
f896e1fa-37ce-456b-986e-ce5835cdd701,One Prudential Plaza,event_planning,"['landmark_and_historical_building', 'professional_services']",IL,Chicago,60601.0,130 E Randolph St,41.8849,-87.6233,meta,2025-06-02T07:00:00.000Z,0.5662921348314607,e2f8889a-572a-4259-a61c-514aab39839f,One Prudential Plaza,commercial,office,OpenStreetMap,2024-08-23T11:09:32.000Z,,chicago,True
569eef43-e294-49cc-869e-35a229f1c5c3,Prudential Plaza,event_planning,"['professional_services', 'landmark_and_historical_building']",IL,Chicago,60601.0,130 E Randolph St,41.8851544,-87.6231593,meta,2025-06-02T07:00:00.000Z,0.9784508333782836,e2f8889a-572a-4259-a61c-514aab39839f,One Prudential Plaza,commercial,office,OpenStreetMap,2024-08-23T11:09:32.000Z,,chicago,True
b84bb6c8-62cb-4a45-93e0-93d8ab51b134,Prudential Building Chicago,physical_therapy,"['radio_station', 'arcade']",IL,Chicago,60601.0,180 N Stetson Ave,41.8852434,-87.6227156,meta,2025-06-02T07:00:00.000Z,0.7548172757475083,e366709e-ed23-4ad3-9eb6-3e5edba512ea,Two Prudential Plaza,commercial,office,OpenStreetMap,2023-06-04T03:29:02.000Z,,chicago,False
5d3d8db0-9be5-467f-9b35-da8d96aef93a,Athletico Physical Therapy - Prudential Building,occupational_therapy,"['physical_therapy', 'health_and_medical']",IL,Chicago,60601.0,180 N Stetson Ave Lbby CL10,41.88543,-87.62273,Microsoft,2023-12-21T00:43:22.797Z,0.77,e366709e-ed23-4ad3-9eb6-3e5edba512ea,Two Prudential Plaza,commercial,office,OpenStreetMap,2023-06-04T03:29:02.000Z,,chicago,False
3e03df21-fe29-413c-bd48-d99faaaf148b,Prudential Rubloff,real_estate_agent,['real_estate'],IL,Northbrook,60062.0,1143 Church St,42.130807,-87.824841,meta,2025-06-02T07:00:00.000Z,0.2456896551724137,8dcbc2ad-8ee0-4005-b352-d1ad2d09eaa7,,,,Microsoft ML Buildings,2023-09-01T00:00:00.000Z,0.8762000203132629,chicago,False
41a5e0f2-feef-4369-9c58-8127bc89ed24,Prudential California Realty,real_estate_agent,['real_estate'],CA,Newport Beach,92660.0,1400 Newport Center Dr,33.6092483,-117.8795735,meta,2025-06-02T07:00:00.000Z,0.9297091412742382,fb1a2e7e-df2a-4139-b42a-eaa7db137b1e,The Kelso Team - On Q Financial INC.,,,OpenStreetMap,2022-10-25T15:02:54.000Z,,mission-viejo,False
ec554fd9-2d9e-4fdf-9a90-0d37021e4102,Prudential Overall Supply,uniform_store,['clothing_store'],CA,Irvine,92606.0,1661 Alton Pkwy,33.6986402,-117.8461149,meta,2025-06-02T07:00:00.000Z,0.9688311688311688,ce58bbfd-6906-4ea9-80ac-034df8acbdce,,commercial,commercial,OpenStreetMap,2023-12-19T23:19:39.000Z,,mission-viejo,False
bcc7d9a5-8015-4489-9b60-90718f1bf7ed,Prudential California Realty,real_estate,"['real_estate_agent', 'commercial_real_estate']",CA,Laguna Beach,92651.0,30812 S Coast Hwy,33.5161836,-117.7567082,meta,2025-06-02T07:00:00.000Z,0.9300613496932516,329b2ae4-155f-45b5-8e08-256ae669c4b5,,commercial,retail,OpenStreetMap,2024-01-10T19:02:26.000Z,,mission-viejo,False
bcc7d9a5-8015-4489-9b60-90718f1bf7ed,Prudential California Realty,real_estate,"['real_estate_agent', 'commercial_real_estate']",CA,Laguna Beach,92651.0,30812 S Coast Hwy,33.5161836,-117.7567082,meta,2025-06-02T07:00:00.000Z,0.9300613496932516,8979be4b-06c0-4171-b433-6e78aa541f00,,commercial,retail,OpenStreetMap,2024-01-10T19:02:26.000Z,,mission-viejo,False
2ff7d702-2719-430d-85d1-b3b8ea8ffa9c,Prudential California Reatly,notary_public,['real_estate_agent'],CA,Redwood City,94062.0,3201 Jefferson Ave,37.46939468,-122.2472687,Microsoft,2013-04-11T14:24:41.733Z,0.77,e569b0b7-1557-41d3-aa68-2a99f80f0d04,,,,OpenStreetMap,2015-11-30T21:27:59.000Z,,san-jose,False
df84072c-1620-4cb5-a10b-0cd081ff91f5,Prudential Overall Supply,clothing_store,"['home_cleaning', 'womens_clothing_store']",CA,Milpitas,95035.0,1429 N Milpitas Blvd,37.4513243,-121.9120692,meta,2025-06-02T07:00:00.000Z,0.9784508333782836,,,,,,,,san-jose,False
1781a790-93c5-4dc4-95df-b93d04b3a9ad,Prudential Cleanroom Services,professional_services,"['real_estate', 'shopping']",CA,Milpitas,95035.0,1437 N Milpitas Blvd,37.4515856,-121.9125004,meta,2025-06-02T07:00:00.000Z,0.9297091412742382,988cca56-d027-4647-9547-4f06a8e11615,Prudential Cleanroom Services,industrial,industrial,OpenStreetMap,2021-02-07T02:18:10.000Z,,san-jose,False
67939249-5e43-42b6-958b-919550baf265,Prudential York Simpson Underwood Realty,real_estate,"['financial_service', 'insurance_agency']",NC,Raleigh,27609.0,3700 Computer Dr,35.831382,-78.635713,meta,2025-06-02T07:00:00.000Z,0.242152466367713,0c224943-ae63-42ec-8b78-0cb2b165ad03,,,,OpenStreetMap,2016-10-17T20:28:51.000Z,,raleigh,False
97c228e3-3a9c-4b09-ab68-378ca70fa248,Prudential Builders Center,appliance_store,,WA,Spokane,99202.0,3304 E Ferry Ave,47.660468,-117.361772,meta,2025-06-02T07:00:00.000Z,0.296943231441048,a71bf779-a382-47b7-a998-ad2216950319,,,,OpenStreetMap,2020-06-09T00:59:12.000Z,,spokane,False
c2e70d13-3cbb-4801-aa27-4e6e81c214df,Prudential Builders Center,contractor,"['home_improvement_store', 'hardware_store']",WA,Spokane,99202.0,3902 E Ferry Ave,47.6606668,-117.3528626,meta,2025-06-02T07:00:00.000Z,0.9459263554653524,,,,,,,,spokane,False
d6e6fc7c-4236-41c8-bba5-4276f638191e,Julie Stalla - Prudential Financial,insurance_agency,['financial_service'],OH,North Ridgeville,44039.0,4861 N Barton Rd,41.418555,-81.977043,meta,2025-06-02T07:00:00.000Z,0.296943231441048,10dc03d9-8367-42f8-8508-d7a595c57bf6,,,,Microsoft ML Buildings,2020-09-25T00:00:00.000Z,0.9923999905586244,cleveland,False
4adba5bd-b235-447e-81e3-c6422bae48d1,Prudential Professional Realty,real_estate_agent,"['real_estate', 'professional_services']",OH,Strongsville,44136.0,14775 Pearl Rd,41.30699,-81.83374,meta,2025-06-02T07:00:00.000Z,0.4929396662387676,0489a2d0-5b8c-4e41-bfa3-6f840fe8afed,,,,Microsoft ML Buildings,2020-10-14T00:00:00.000Z,,cleveland,False
8083245a-cb7b-4646-8d09-a25f8c0a2f29,Joseph Persempere - Prudential Financial,investing,"['financial_service', 'financial_advising']",CT,Shelton,6484.0,2 Corporate Dr,41.2754361,-73.1290085,meta,2025-06-02T07:00:00.000Z,0.9204819277108434,c6508149-6409-429d-b5e9-4a7478131835,,,,OpenStreetMap,2025-01-20T00:49:40.000Z,,new-haven,False
267793f4-1d14-47b3-84af-6caec106442f,Prudential Insurance Co,insurance_agency,['real_estate'],CT,Shelton,6484.0,1 Corporate Dr,41.2761636,-73.1286322,meta,2025-06-02T07:00:00.000Z,0.9784508333782836,f3c018d3-343e-4d00-b086-455bfcbd6da1,,,,OpenStreetMap,2022-02-16T18:00:15.000Z,,new-haven,False
1504a4ce-cd1a-4f7e-b3b6-8875aa97d50b,Prudential Heating & Air Conditioning,hvac_services,"['contractor', 'home_service']",KY,Louisville,40213.0,3302 Gilmore Industrial Blvd,38.1812345,-85.6992408,meta,2025-06-02T07:00:00.000Z,0.9879256218304756,84584826-f917-492a-ba38-8d753cf16ebc,,,,OpenStreetMap,2015-04-07T02:30:26.000Z,,louisville,False
97662920-61f2-4117-83c7-4476f429e5ba,"Prudential Indiana Realty Group, Reisert",real_estate_agent,"['real_estate', 'property_management']",IN,Jeffersonville,47130.0,1302 E 10th St,38.286653,-85.731447,meta,2025-06-02T07:00:00.000Z,0.3376623376623376,4554b305-6d2c-494e-9564-ac3e1b3ace59,,,,Microsoft ML Buildings,2020-04-11T00:00:00.000Z,,louisville,False
b4676395-dddc-403b-8124-834238d82418,Prudential Parks and Weisberg,real_estate,"['real_estate_agent', 'commercial_real_estate']",IN,Jeffersonville,47130.0,2308 E 10th St,38.3107558,-85.7181604,meta,2025-06-02T07:00:00.000Z,0.9204819277108434,,,,,,,,louisville,False
9822d2dc-9278-4f4f-b9b8-eb4a09acdc9a,Prudential Manor Homes,real_estate,['real_estate_agent'],NY,Delmar,12054.0,205 Delaware Ave,42.628592,-73.815833,meta,2025-06-02T07:00:00.000Z,0.242152466367713,04ed101a-04dc-497d-b5ab-484e99324980,"Berkshire Hathaway HomeServices Blake, Realtors",,,OpenStreetMap,2023-08-19T16:52:08.000Z,,albany,False
3d2c8387-7441-4ed4-9e0d-537f7de7af6c,Prudential Manor Realtors,real_estate,"['appraisal_services', 'real_estate_agent']",NY,Rensselaer,12144.0,446 N Greenbush Rd,42.6611631,-73.6924027,meta,2025-06-02T07:00:00.000Z,0.296943231441048,e2b59007-5d37-4d9c-bc4f-25b61fb17e67,Berkshire Hathaway HomeServices,,,OpenStreetMap,2025-05-03T02:24:14.000Z,,albany,False
9b284c8f-a0d1-430e-944a-58fb980ee69b,Prudential,insurance_agency,"['professional_services', 'business']",NY,Latham,12110.0,40 British American Blvd,42.768662,-73.822286,meta,2025-06-02T07:00:00.000Z,0.3376623376623376,f1ea2673-835f-4956-bc61-935797929cf7,,,,OpenStreetMap,2011-08-12T23:40:03.000Z,,albany,False
744cb092-0524-4a7e-8e21-5af6447770ed,Prudential Bob Hatton Realty,real_estate_agent,"['property_management', 'public_and_government_association']",FL,Tampa,33611.0,3801 S West Shore Blvd,27.908618,-82.526986,meta,2025-06-02T07:00:00.000Z,0.242152466367713,ea257b67-fe1b-49d8-8919-32792e037f48,,,,OpenStreetMap,2017-09-10T16:05:14.000Z,,tampa,False
62182521-a810-4c6c-84cc-f4d19ac053c8,Prudential Tropical Realty,real_estate_agent,"['property_management', 'tanning_salon']",FL,Tampa,33629.0,1529 S Dale Mabry Hwy,27.929184,-82.506284,meta,2025-06-02T07:00:00.000Z,0.242152466367713,2efd594f-d9c4-4784-9f24-dad79fec5507,,,,OpenStreetMap,2022-01-11T21:27:43.000Z,,tampa,False
258a87fd-4bd9-4832-9411-7006a5f4a97a,Michael Maruzo Prudential Financial,insurance_agency,['financial_service'],CT,Southington,6489.0,110 Laurel St,41.6444958,-72.868416,meta,2025-06-02T07:00:00.000Z,0.9300613496932516,,,,,,,,hartford,False
0bf9f36a-dd0e-4ecf-9ef5-34b6c3c85779,Hanna Behlke at Prudential Advisors,financial_advising,['financial_service'],CT,Glastonbury,6415.0,"95 Glastonbury Boulevard, Suite 301",41.72241,-72.61896,meta,2025-06-02T07:00:00.000Z,0.8253968253968254,501f33b0-c460-4896-96c5-a749c0eb8173,,,,OpenStreetMap,2021-06-06T16:38:29.000Z,,hartford,False
4a69eefb-2a5a-4f88-b235-81763495515b,Prudential Financial,insurance_agency,['financial_service'],CT,Hartford,6103.0,280 Trumbull St,41.7686322,-72.6747909,meta,2025-06-02T07:00:00.000Z,0.9784508333782836,83864695-573b-4e6c-b351-efeda2d3b819,1 Commercial Plaza,,,OpenStreetMap,2022-10-02T22:10:54.000Z,,hartford,False
4a69eefb-2a5a-4f88-b235-81763495515b,Prudential Financial,insurance_agency,['financial_service'],CT,Hartford,6103.0,280 Trumbull St,41.7686322,-72.6747909,meta,2025-06-02T07:00:00.000Z,0.9784508333782836,c0edcb7c-3630-4cad-b554-9fc0436d9ce1,,,,OpenStreetMap,2022-05-12T04:14:03.000Z,,hartford,False
6529b4ad-0883-4fb4-b57e-05a47fbee837,Benjamin Tomczak at Prudential,financial_advising,"['financial_service', 'insurance_agency']",CT,South Windsor,6074.0,1751 Ellington Rd,41.8266651,-72.5546646,meta,2025-06-02T07:00:00.000Z,0.242152466367713,,,,,,,,hartford,False
ff51be8a-e781-4e01-b570-d89a610b07e8,Prudential California Realty,real_estate_agent,"['appraisal_services', 'event_planning']",CA,San Bruno,94066.0,180 El Camino Real,37.6172859,-122.4081084,meta,2025-06-02T07:00:00.000Z,0.3961437335670464,e50e160e-eaed-4087-a21b-3d99562a28db,,,,OpenStreetMap,2015-12-17T21:49:58.000Z,,san-francisco,True
8ee23873-d456-4dd0-a78e-f198ba12c947,Prudential California Realty,real_estate_agent,,CA,San Francisco,94109.0,1715 Polk St,37.79265594,-122.4214325,Microsoft,2013-04-11T14:33:37.483Z,0.77,cc65f9cd-05e3-48ec-a1fc-36eae5e3ded1,,,,OpenStreetMap,2018-01-20T16:28:24.000Z,,san-francisco,False
8ee23873-d456-4dd0-a78e-f198ba12c947,Prudential California Realty,real_estate_agent,,CA,San Francisco,94109.0,1715 Polk St,37.79265594,-122.4214325,Microsoft,2013-04-11T14:33:37.483Z,0.77,89b52996-547c-4747-b85b-0697509b4e1c,,,,OpenStreetMap,2020-07-09T03:54:25.000Z,,san-francisco,False
3254c638-7f5d-4db8-874b-1ea860fc328f,Prudential,insurance_agency,"['financial_service', 'trusts']",CA,San Francisco,94104.0,180 Montgomery St,37.79091,-122.4020091,meta,2025-06-02T07:00:00.000Z,0.8860580325548478,427a817b-21d0-42dd-8047-3f83bec3dd90,,,,OpenStreetMap,2022-09-04T23:02:08.000Z,,san-francisco,False
2ff7d702-2719-430d-85d1-b3b8ea8ffa9c,Prudential California Reatly,notary_public,['real_estate_agent'],CA,Redwood City,94062.0,3201 Jefferson Ave,37.46939468,-122.2472687,Microsoft,2013-04-11T14:24:41.733Z,0.77,e569b0b7-1557-41d3-aa68-2a99f80f0d04,,,,OpenStreetMap,2015-11-30T21:27:59.000Z,,san-francisco,False
24a799fe-d604-46d3-9d21-ef781fe9fefe,Prudential Alliance,real_estate_agent,['insurance_agency'],MO,Fenton,63026.0,400 Old Smizer Mill Rd,38.5130344,-90.4495137,meta,2025-06-02T07:00:00.000Z,0.8831168831168831,012bb385-34d3-4b0f-9dc5-1aab884485c5,,commercial,retail,OpenStreetMap,2017-12-21T18:16:01.000Z,,st-louis,False
a9206ab4-6968-441c-85a6-fb48c7a1e05d,Prudential Cleanroom Services,uniform_store,['retail'],MO,Fenton,63026.0,1607 Manufacturers Dr,38.53376083,-90.44459817,Microsoft,2024-01-02T16:27:47.937Z,0.77,4d489d39-8438-46a7-95c4-7cb6874bb61a,,,,OpenStreetMap,2019-03-17T21:24:19.000Z,,st-louis,False
ce8d3517-72fd-4353-a84e-2f34e7e058a1,Prudential Select Properties,real_estate_agent,['real_estate_service'],MO,St Louis,63131.0,1650 Des Peres Rd,38.606849,-90.45246,meta,2025-06-02T07:00:00.000Z,0.242152466367713,999696ba-870d-4ee8-aaf8-176bec07b828,Corporate Hill I,,,OpenStreetMap,2015-10-14T13:11:16.000Z,,st-louis,False
6521622b-0cc4-4ce2-a09d-eaff8f918027,Prudential Advantage,real_estate,"['property_management', 'real_estate_agent']",MO,St Louis,63119.0,107 W Lockwood Ave,38.59331,-90.35982,meta,2025-06-02T07:00:00.000Z,0.8860580325548478,55bffc45-6b9a-41b4-bb7e-3a2d19c28fb2,,,,OpenStreetMap,2018-10-29T23:33:28.000Z,,st-louis,False
2b293171-7120-47e7-821a-6594ddfc3d09,Magi McEntire at Prudential,financial_service,,MO,St Louis,63141.0,12312 Olive Blvd,38.67276,-90.45526,meta,2025-06-02T07:00:00.000Z,0.2456896551724137,43cfa17e-68d5-4467-b01a-0645a95b0b46,,,,Microsoft ML Buildings,2022-08-25T00:00:00.000Z,,st-louis,False
355b8419-8df5-45da-8eaa-fc450705031b,Prudential Overall Supply,uniform_store,['retail'],CA,Indio,92201.0,81780 Trader Pl,33.736257,-116.237629,Microsoft,2019-10-14T15:29:27.290Z,0.77,39d1d21f-6de9-4970-b954-97a9d142158c,,,,OpenStreetMap,2023-09-28T07:05:28.000Z,,indio,False
da66a8f6-6e23-46db-b350-0d37ee794350,Prudential Fabrics,b2b_textiles,"['fabric_store', 'shopping']",CA,Victorville,92392.0,15330 Dos Palmas Rd,34.4998523,-117.329378,meta,2025-06-02T07:00:00.000Z,0.9297091412742382,71761afe-b8e6-4dbd-a0e3-1d15f7df2447,,,,OpenStreetMap,2022-05-13T13:33:11.000Z,,victorville,False
c36cba81-c2fe-460c-8036-e902bb348225,Prudential-Mohindroo,financial_advising,['financial_service'],PA,Yardley,19067.0,91 S Main St,40.240343,-74.836302,meta,2025-06-02T07:00:00.000Z,0.3376623376623376,d31815b9-b419-4dbc-a4c7-642622f2345c,,,,Esri Community Maps,2024-10-15T00:00:00.000Z,,trenton,False
c24b5221-d840-475e-bced-cbf95c12a9c8,Prudential Jeffrey Ferry Life Insurance & Financial Services,insurance_agency,,NJ,Lawrence Twp,8648.0,1009 Lenox Dr,40.288337,-74.701716,meta,2025-06-02T07:00:00.000Z,0.3376623376623376,,,,,,,,trenton,False
3ee553e1-a2c9-4d15-85e9-7aef0c479edc,Jane Sold My House Prudential Parent Real Estate,real_estate,['real_estate_agent'],MA,Worcester,1609.0,195 Park Ave,42.272486,-71.81395,meta,2025-06-02T07:00:00.000Z,0.296943231441048,ab31bb0d-60ed-4767-8426-12ffa33bd7c3,,,,OpenStreetMap,2020-03-14T21:07:58.000Z,,worcester,False
1caef5d8-0e4a-4c20-9e66-9ea58b8a5d8e,Samuel Asirifi-Nyarko - Prudential Financial,financial_service,"['insurance_agency', 'retirement_home']",MA,Worcester,1606.0,9 E Mountain St,42.3237767,-71.7926698,meta,2025-06-02T07:00:00.000Z,0.9300613496932516,,,,,,,,worcester,False
2afa74bd-f7f8-4272-97dc-4be3fd70aa50,Prudential Medical & Research,laboratory_testing,['chiropractor'],FL,Miami,33173.0,9999 SW 72nd St,25.7018937,-80.3558984,meta,2025-06-02T07:00:00.000Z,0.9459263554653524,,,,,,,,miami,False
14701caf-1a5b-45d3-916e-80e8ce5d2bc1,Milton Mori - Prudential Financial,financial_service,"['real_estate_agent', 'accountant']",FL,Boca Raton,33496.0,9068 Villa Portofino Cir,26.4060374,-80.1884403,meta,2025-06-02T07:00:00.000Z,0.9297091412742382,b6a5d7c3-953b-4e40-aa6a-7b96b64e2dad,,,,OpenStreetMap,2024-02-28T15:20:50.000Z,,miami,False
6f7fa939-b5e0-4d64-9fd7-641b8f8699a8,Craig Bonney  Prudential Advisors,financial_service,,FL,Boca Raton,33486.0,5355 Town Center Rd,26.36454,-80.1269,meta,2025-06-02T07:00:00.000Z,0.242152466367713,bfddcb01-7638-402d-af6f-da3f5d4f9451,,transportation,parking,OpenStreetMap,2024-02-27T17:00:38.000Z,,miami,False
9d3c6bab-52de-4bf4-8479-84f002f7be31,Prudential Florida Realty,real_estate_agent,"['real_estate', 'community_services_non_profits']",FL,Boca Raton,33431.0,2500 N Military Trl,26.3728035,-80.1204526,meta,2025-06-02T07:00:00.000Z,0.296943231441048,1a1a3e6a-680c-4ef6-96ec-cd84e1e56b09,,,,OpenStreetMap,2024-02-27T17:19:46.000Z,,miami,False
d516d096-6e2c-4b05-9836-2d33db6ee717,Tonie Pasillas - Prudential Realtor,real_estate_agent,['real_estate'],CA,Corona,92881.0,1385 Old Temescal Rd,33.8543173,-117.5365422,meta,2025-06-02T07:00:00.000Z,0.909823677581864,4ac181d4-f867-4062-987a-2fa30dbc3d17,,,,OpenStreetMap,2023-10-28T14:48:23.000Z,,riverside-san-bernardino,False
5fad062a-1d87-463a-8a68-12d11527ddb6,Prudential Overall Supply,automotive,"['auto_customization', 'construction_services']",CA,Riverside,92504.0,6997 Jurupa Ave,33.9607496,-117.4461262,meta,2025-06-02T07:00:00.000Z,0.9784508333782836,,,,,,,,riverside-san-bernardino,False
768f7be3-cb6a-42ab-9530-064f42ba1966,Prudential California Realty,real_estate,"['real_estate_agent', 'property_management']",CA,Rancho Cucamonga,91730.0,10750 Civic Center Dr,34.10131,-117.57038,meta,2025-06-02T07:00:00.000Z,0.296943231441048,b7a108da-0418-45b0-a3cc-c3fa800d7a26,,commercial,commercial,OpenStreetMap,2021-08-12T18:58:24.000Z,,riverside-san-bernardino,False
9bd0a87f-addf-47d4-8aa9-9bdd1f4274c7,Prudential California Realty,real_estate_agent,"['real_estate_service', 'real_estate']",CA,Riverside,92506.0,6349 Riverside Ave,33.95239,-117.38828,meta,2025-06-02T07:00:00.000Z,0.3376623376623376,0c128637-a5bb-4e57-be3a-13fc68af37c5,,,,OpenStreetMap,2025-01-20T19:17:38.000Z,,riverside-san-bernardino,False
31cfcedf-6281-4693-bcf8-041e0ab0132d,Prudential California Realty,real_estate_agent,"['real_estate', 'insurance_agency']",CA,Moreno Valley,92557.0,12125 Day St,33.946227,-117.281164,meta,2025-06-02T07:00:00.000Z,0.242152466367713,38fa01e5-34c3-4b23-be99-b90c4ec974e4,,commercial,retail,OpenStreetMap,2023-01-21T20:43:16.000Z,,riverside-san-bernardino,False
4380724e-cce3-4259-8a2e-a9dc6d4a4069,Prudential Overall Supply,carpet_store,"['home_improvement_store', 'contractor']",TX,Round Rock,78665.0,2721 Oakmont Dr,30.557612,-97.684864,meta,2025-06-02T07:00:00.000Z,0.7548172757475083,aadf5707-8e5a-4204-8a15-de2a7b230fe2,,industrial,industrial,OpenStreetMap,2021-01-05T02:55:59.000Z,,austin,False
4c6ad6cc-8770-4af4-b993-f172b8e55572,Dexter Smith - Prudential York Simpson Underwood Realty,real_estate_agent,"['real_estate', 'land_surveying']",NC,Durham,27705.0,921 Morreene Rd,36.009327,-78.953903,meta,2025-06-02T07:00:00.000Z,0.2456896551724137,f2e176e6-b775-42e3-a9ee-6076ec0da40f,,,,OpenStreetMap,2018-09-14T13:52:33.000Z,,durham,False
64b07ed4-e1aa-4bdc-afa5-4b6df6b8af65,Prudential Penfed Realty,real_estate_agent,"['real_estate', 'commercial_real_estate']",MD,Lutherville Timonium,21093.0,1447 York Rd,39.420068,-76.614608,meta,2025-06-02T07:00:00.000Z,0.3376623376623376,eddc0afb-ec65-436f-ae91-12c709a1bf8b,,,,OpenStreetMap,2021-07-01T14:42:50.000Z,,baltimore,False
4a8a18e1-8302-44bd-80ef-86444ec2c24e,Kofo Akosile at Prudential,insurance_agency,,TX,Houston,77027.0,1233 West Loop S,29.7560486,-95.4549894,meta,2025-06-02T07:00:00.000Z,0.8148148148148148,a27a35c0-35bc-4c41-a5ee-6863f2fb3f17,Park Towers Uptown,,,OpenStreetMap,2023-02-07T23:59:08.000Z,,houston,False
7ddad91b-519e-4fa6-bef9-aec7f72fe212,Prudential,investing,"['insurance_agency', 'brokers']",TX,Houston,77027.0,1233 West Loop S,29.7561602,-95.4549141,meta,2025-06-02T07:00:00.000Z,0.9300613496932516,a27a35c0-35bc-4c41-a5ee-6863f2fb3f17,Park Towers Uptown,,,OpenStreetMap,2023-02-07T23:59:08.000Z,,houston,False
59f5fa0f-1ba5-4774-893e-5d1a2a31446b,American Prudential Capital,financial_service,"['bank_credit_union', 'investing']",TX,Houston,77064.0,10216 Fairbanks North Houston Rd,29.9325397,-95.5272336,meta,2025-06-02T07:00:00.000Z,0.9415384615384615,9e622bfe-cda9-46af-8e1e-94c017f88030,,,,OpenStreetMap,2019-11-23T14:13:44.000Z,,houston,False
ca47a298-6c7f-452e-82ab-7e80fc82617d,"Prudential Georgia Realty, Trish Croft",real_estate_agent,"['property_management', 'professional_services']",GA,Roswell,30075.0,4648 Woodstock Rd,34.062768,-84.420731,meta,2025-06-02T07:00:00.000Z,0.296943231441048,2b305661-9594-4275-99a2-363d9a08702d,,commercial,retail,OpenStreetMap,2024-09-29T17:18:29.000Z,,atlanta,False
6d620865-6824-4a51-88de-73829b1e596f,"The Martin Home Group, Prudential Georgia Realty",real_estate_agent,['real_estate'],GA,Woodstock,30189.0,2340 Towne Lake Pkwy,34.11317,-84.55255,meta,2025-06-02T07:00:00.000Z,0.296943231441048,dd4f256e-8645-498e-b64e-d579d2cfb32c,,,,OpenStreetMap,2017-10-13T20:43:33.000Z,,atlanta,False
68ac5873-8507-4830-b5b0-2939bf0a577c,Prudential Real Estate Investors,real_estate_investment,['real_estate'],GA,Atlanta,30326.0,3348 Peachtree Rd NE,33.8481935,-84.3698047,meta,2025-06-02T07:00:00.000Z,0.8831168831168831,d1590175-22cf-4f90-9ea9-c57ccaa7831f,Tower Place 200,,,OpenStreetMap,2018-04-02T18:06:01.000Z,,atlanta,False
95931e9e-8fc8-481d-bf99-25f9cb91ed06,Prudential Overall Supply,uniform_store,['retail'],GA,Tucker,30084.0,2055 Tucker Industrial Rd,33.820266043025526,-84.18335154850419,Microsoft,2024-01-02T16:20:35.513Z,0.77,08969b6d-62db-4c63-bd14-00a6c1e29842,,,,OpenStreetMap,2012-07-08T02:57:20.000Z,,atlanta,False
20a0c46b-37f9-4b1d-bfb1-1ec926f1964c,PGRU-Prudential Georgia Realty University,real_estate,"['college_university', 'real_estate_agent']",GA,Roswell,30076.0,863 Holcomb Bridge Rd,34.029224,-84.337129,meta,2025-06-02T07:00:00.000Z,0.296943231441048,4e89eb76-d1f0-4172-8b03-7d1476ba3b08,StaffZone Headquarters,commercial,office,OpenStreetMap,2020-08-30T20:37:34.000Z,,atlanta,True
65759900-03ed-41a4-94f1-3504dcf48302,Prudential Palms Realty,real_estate_agent,['real_estate'],FL,Sarasota,34236.0,130 N Tamiami Trl,27.33779,-82.546398,meta,2025-06-02T07:00:00.000Z,0.3376623376623376,10c1dfd1-a533-40d5-a470-9538345832dc,,,,OpenStreetMap,2021-08-19T14:52:31.000Z,,sarasota-bradenton,False
ff51be8a-e781-4e01-b570-d89a610b07e8,Prudential California Realty,real_estate_agent,"['appraisal_services', 'event_planning']",CA,San Bruno,94066.0,180 El Camino Real,37.6172859,-122.4081084,meta,2025-06-02T07:00:00.000Z,0.3961437335670464,e50e160e-eaed-4087-a21b-3d99562a28db,,,,OpenStreetMap,2015-12-17T21:49:58.000Z,,oakland,True
3254c638-7f5d-4db8-874b-1ea860fc328f,Prudential,insurance_agency,"['financial_service', 'trusts']",CA,San Francisco,94104.0,180 Montgomery St,37.79091,-122.4020091,meta,2025-06-02T07:00:00.000Z,0.8860580325548478,427a817b-21d0-42dd-8047-3f83bec3dd90,,,,OpenStreetMap,2022-09-04T23:02:08.000Z,,oakland,False
6886181b-c377-4926-b287-8e86c2c6c5a0,Prudential California Realty,real_estate_agent,['real_estate'],CA,Castro Valley,94552.0,3811 E Castro Valley Blvd,37.694449,-122.052047,meta,2025-06-02T07:00:00.000Z,0.242152466367713,b4ffa4c4-5f0c-4d6c-92ff-4f5451dc013a,,,,OpenStreetMap,2022-07-03T02:45:57.000Z,,oakland,False
d4f4d99b-3064-4f07-bd8e-9e2511ff53ff,Prudential California Realty,real_estate_agent,,CA,Castro Valley,94552.0,3811 E Castro Valley Blvd,37.69534506,-122.0520625,Microsoft,2013-04-10T18:15:22.483Z,0.77,,,,,,,,oakland,False
733d8719-d281-498c-84ef-e0e234f99171,Prudential California Realty/ Michele Senitzer,real_estate_agent,,CA,Oakland,94611.0,4341 Piedmont Ave,37.8298988342285,-122.24828338623,Microsoft,2013-01-29T04:31:29.170Z,0.77,61c97c4e-9bdc-4c28-927f-53dd2d166329,,,,OpenStreetMap,2023-03-14T04:17:08.000Z,,oakland,False
ea16fff1-8e89-4d03-b1d6-4b2ee4ff957f,Prudential California Realty,real_estate_agent,,CA,Pleasant Hill,94523.0,1954 Contra Costa Blvd,37.94857442,-122.0600266,Microsoft,2013-04-10T15:15:20.780Z,0.77,,,,,,,,oakland,False
dbad13bd-d881-4e94-a558-cac035afe3b6,"Prudential Security, Inc.",security_services,,TN,Knoxville,37919.0,5103 Kingston Pike Ste 114,35.9399,-83.98834,Microsoft,2017-11-09T04:08:18.290Z,0.77,0737c7b1-5038-4348-aa69-094c562da89e,,commercial,retail,OpenStreetMap,2020-08-01T13:46:06.000Z,,knoxville,False
ca8f744d-aeac-45da-b0f1-ac4afb3f297e,Curtis Davis - Prudential Financial,financial_service,"['insurance_agency', 'professional_services']",CA,Lancaster,93536.0,2727 W Avenue L-2,34.661218,-118.17925,meta,2025-06-02T07:00:00.000Z,0.3376623376623376,58fa1d5f-1d62-484b-9252-7bc2b26abd3f,,commercial,retail,OpenStreetMap,2017-02-06T20:24:16.000Z,,lancaster-palmdale,False
4284285c-b656-42cd-80eb-5b5dd06d57ef,Philip Hong at Prudential,financial_advising,"['financial_service', 'investing']",HI,Honolulu,96813.0,1100 Alakea St,21.3092012,-157.8593886,meta,2025-06-02T07:00:00.000Z,0.909823677581864,513a4cf5-9925-4ded-9418-ac600b7a4397,Alakea Corporate Tower,,,OpenStreetMap,2017-06-15T12:54:13.000Z,,honolulu,False
b159b676-ed6c-46eb-8d5e-1bb733e5b8a5,Prudential Locations,corporate_office,['private_establishments_and_corporates'],HI,Honolulu,96815.0,614 Kapahulu Ave Ste 300,21.2784,-157.8254,Microsoft,2013-04-02T20:45:09.080Z,0.77,22e3f01d-47f4-4c1c-893f-372100905bb1,International Marketplace,commercial,commercial,OpenStreetMap,2025-01-17T11:40:00.000Z,,honolulu,True
ecc10d30-d3ab-4d10-87bb-1f59e838a12c,Prudential Overall Supply,clothing_store,"['dry_cleaning', 'hospital']",AZ,Tucson,85714.0,4240 S Fremont Ave,32.1737825,-110.9555638,meta,2025-06-02T07:00:00.000Z,0.9784508333782836,bebed314-7afe-468d-a59c-4f81ca8b02e9,,,,OpenStreetMap,2019-11-20T20:26:18.000Z,,tucson,False
141a44e6-f36c-4768-b234-11fa6ae06467,Prudential Towne Realty - Gene Bariso,real_estate_agent,"['real_estate', 'public_and_government_association']",VA,Virginia Beach,23454.0,2008 General Booth Blvd,36.770664,-76.011259,meta,2025-06-02T07:00:00.000Z,0.242152466367713,b0cdfd77-cab0-4a68-b92b-b7e76e6a032c,,commercial,commercial,OpenStreetMap,2016-03-09T02:59:04.000Z,,virginia-beach,False
ddb343e7-7d52-42c8-8cf7-76ce7c4ea872,Prudential Financial,professional_services,"['financial_service', 'real_estate_agent']",FL,Lakeland,33813.0,140 Fitzgerald Rd,27.967781,-81.9626007,meta,2025-06-02T07:00:00.000Z,0.9297091412742382,,,,,,,,lakeland,False
e368ffec-d6e4-4f8e-9c38-60d377784018,Prudential Pharmacy,pharmacy,['health_and_medical'],TX,Duncanville,75116.0,777 E Wheatland Rd,32.6477682,-96.893029,meta,2025-06-02T07:00:00.000Z,0.9784508333782836,eac1e11d-ea0b-4aa3-9a99-1306da796472,,commercial,commercial,OpenStreetMap,2024-05-21T10:21:49.000Z,,dallas,False
26330266-642e-42df-8f1f-c07858727d66,Prudential Asset Resources,insurance_agency,"['shopping', 'commercial_real_estate']",TX,Dallas,75201.0,2100 Ross Ave,32.7875757,-96.7974553,meta,2025-06-02T07:00:00.000Z,0.8860580325548478,cad60d62-aabd-4443-9ea4-b64062ef7c17,,commercial,commercial,OpenStreetMap,2024-04-07T02:41:41.000Z,,dallas,False
d7f4e98f-f340-4cff-ab7c-3e9258646593,Prudential Global Network,professional_services,['business_management_services'],TX,Dallas,75234.0,3010 Lyndon B Johnson Fwy,32.9109997,-96.8776709,meta,2025-06-02T07:00:00.000Z,0.8831168831168831,73daeabd-7900-47f9-881c-39a3a164bec3,Element Towers West,commercial,office,OpenStreetMap,2024-11-01T22:02:22.000Z,,dallas,True
f4555831-4b5d-4a6e-afc3-2895fafcdfad,Ryan K. Schebo at Prudential Advisors,financial_service,"['investing', 'financial_advising']",OH,Centerville,45459.0,6728 Loop Rd,39.64595,-84.14767,meta,2025-06-02T07:00:00.000Z,0.296943231441048,,,,,,,,dayton,False
5aa1e763-e003-4469-852a-67f5f5547092,Prudential Sterling Properties,real_estate_agent,"['real_estate', 'property_management']",FL,Indian Harbour Beach,32937.0,2000 Highway A1a,28.148191,-80.583964,meta,2025-06-02T07:00:00.000Z,0.242152466367713,e89c42ae-b179-49cd-a6cb-51f9a0a6ebe6,,,,OpenStreetMap,2015-11-10T22:47:08.000Z,,palm-bay-melbourne,False
d5a807f1-936e-4bc4-b55c-d357b24d00ba,Prudential Star Real Estate,real_estate,"['real_estate_agent', 'home_improvement_store']",FL,Cocoa Beach,32931.0,1733 N Atlantic Ave,28.341883,-80.610482,meta,2025-06-02T07:00:00.000Z,0.2456896551724137,fc1106fb-48f5-4a0c-92a0-40aa10260b00,,,,OpenStreetMap,2020-02-21T15:32:05.000Z,,palm-bay-melbourne,False
7b6a6741-82a4-473c-8ece-a00b9df20c5d,Prudential Commercial Real Estate/c. Dan Joyner Company,real_estate,"['property_management', 'real_estate_agent']",SC,Greenville,29601.0,24 Vardry St,34.841125,-82.407539,meta,2025-06-02T07:00:00.000Z,0.296943231441048,e2d57cd4-875c-4877-b1c4-287ac24b3097,,transportation,parking,OpenStreetMap,2023-09-30T23:03:58.000Z,,greenville,True
7b6a6741-82a4-473c-8ece-a00b9df20c5d,Prudential Commercial Real Estate/c. Dan Joyner Company,real_estate,"['property_management', 'real_estate_agent']",SC,Greenville,29601.0,24 Vardry St,34.841125,-82.407539,meta,2025-06-02T07:00:00.000Z,0.296943231441048,7dc4f3cb-247d-45b2-83aa-f3e8f297877c,,residential,apartments,OpenStreetMap,2022-04-16T00:35:43.000Z,,greenville,True
d7f4e98f-f340-4cff-ab7c-3e9258646593,Prudential Global Network,professional_services,['business_management_services'],TX,Dallas,75234.0,3010 Lyndon B Johnson Fwy,32.9109997,-96.8776709,meta,2025-06-02T07:00:00.000Z,0.8831168831168831,73daeabd-7900-47f9-881c-39a3a164bec3,Element Towers West,commercial,office,OpenStreetMap,2024-11-01T22:02:22.000Z,,denton-lewisville,True
4c3f8fe5-4bcb-43be-9d03-406ab80cf0e6,Prudential All American Homes,property_management,"['real_estate_agent', 'real_estate']",NC,Fayetteville,28314.0,6920 Cliffdale Rd,35.0611666,-79.0143301,meta,2025-06-02T07:00:00.000Z,0.9300613496932516,,,,,,,,fayetteville,False
29854394-0e9c-4feb-9f1d-37d10fcc1f16,Prudential Florida Realty,real_estate,['real_estate_agent'],FL,Naples,34103.0,4130 Tamiami Trl N,26.1982196,-81.7993881,meta,2025-06-02T07:00:00.000Z,0.909823677581864,a1740170-9f36-4842-869f-5435938a7bd7,,,,OpenStreetMap,2017-09-10T14:20:47.000Z,,bonita-springs-naples,False
31e2f84c-9661-4ae6-aa1e-019179d82b63,Prudential,insurance_agency,,VA,Glen Allen,23060.0,4860 Cox Rd,37.6696351,-77.5703333,meta,2025-06-02T07:00:00.000Z,0.9297091412742382,8b006b70-6a6e-448c-aa78-c80220f34c22,,,,OpenStreetMap,2019-08-09T02:23:46.000Z,,richmond,False
d6b4acfe-a841-4835-abc4-a960b53eb216,Prudential Overall Supply,interior_design,"['home_improvement_store', 'professional_services']",VA,Sandston,23150.0,531 Eastpark Ct,37.53107,-77.33089,meta,2025-06-02T07:00:00.000Z,0.3961437335670464,c6015bf2-9da0-417d-9a72-70d01b78a44d,Prudential Cleanroom Services,,,OpenStreetMap,2023-12-23T08:37:18.000Z,,richmond,False
e5ba7420-0e58-4bd5-9df7-8935244d488c,Prudential Cleanroom Services,contractor,"['real_estate_agent', 'professional_services']",VA,Sandston,23150.0,531 Eastpark Ct,37.531233,-77.3307536,meta,2025-06-02T07:00:00.000Z,0.9784508333782836,,,,,,,,richmond,False
d0784bb1-96ff-42a3-ab72-ee5cef5f4cea,Prudential,financial_advising,"['financial_service', 'insurance_agency']",OH,West Chester,45069.0,8080 Beckett Center Dr,39.3554767,-84.4593051,meta,2025-06-02T07:00:00.000Z,0.9204819277108434,0798d15b-405f-405e-b62b-1ab743a135b3,,,,OpenStreetMap,2012-03-26T04:38:07.000Z,,cincinnati,False
145a876e-6f4e-41ea-aae9-a4b917a40532,Prudential California Realty - Julia Bruns,real_estate_agent,['real_estate'],CA,Ventura,93003.0,4574 Market St,34.256988,-119.230896,meta,2025-06-02T07:00:00.000Z,0.3376623376623376,f401d7d6-7e9e-479d-87d7-b68ac4fabc34,,,,Microsoft ML Buildings,2022-04-29T00:00:00.000Z,,oxnard,False
6fe173c7-19f1-4cc9-8e70-6254026ff58d,Prudential Americana Group Realtors,real_estate_agent,"['real_estate', 'real_estate_service']",NV,Henderson,89052.0,871 Coronado Center Dr,36.0005054,-115.110937,meta,2025-06-02T07:00:00.000Z,0.8860580325548478,6391811f-5e3f-44f9-a7e8-e382df2d453d,,,,OpenStreetMap,2022-06-23T08:53:26.000Z,,las-vegas,False
61838f52-c5cc-4cff-a756-c1b7c20d4196,Prudential Real Estate,real_estate_agent,"['real_estate', 'property_management']",NV,Las Vegas,89113.0,8337 W Sunset Rd,36.0678462,-115.272951,meta,2025-06-02T07:00:00.000Z,0.8860580325548478,602b8bea-f312-4d8b-8ecb-5ca75f7c6afa,,,,OpenStreetMap,2020-04-14T08:53:44.000Z,,las-vegas,False
18a20855-0aed-42e0-bfa1-1f60cd42ec8c,Prudential Overall Supply,clothing_store,"['carpet_store', 'hospital']",NV,Las Vegas,89118.0,3915 W Hacienda Ave,36.0928996,-115.1913564,meta,2025-06-02T07:00:00.000Z,0.9784508333782836,e4788fd4-e656-49d2-a0f4-6fbca688e66f,,commercial,warehouse,OpenStreetMap,2012-07-22T22:42:36.000Z,,las-vegas,False
76bd23a8-d63f-490a-8bcb-7fbf647f0efc,Prudential Financial,professional_services,"['financial_service', 'insurance_agency']",NV,Las Vegas,89129.0,4652 N Tee Pee Ln,36.2458954,-115.3023214,meta,2025-06-02T07:00:00.000Z,0.242152466367713,87114dfe-41a7-4c25-a108-769d4f2cf959,,,,OpenStreetMap,2024-01-04T22:09:40.000Z,,las-vegas,False
292672be-f524-4a02-a3c9-661196308fab,Prudential Americana,real_estate_agent,"['real_estate', 'professional_services']",NV,Las Vegas,89115.0,4420 Cormorant Ave,36.276405,-115.076904,meta,2025-06-02T07:00:00.000Z,0.296943231441048,364a9a93-f86f-4912-a9f3-ba8eb1cb84bf,,,,OpenStreetMap,2024-12-20T20:22:02.000Z,,las-vegas,False
fc817c35-b742-45ba-b7e3-329f273777ad,Prudential Rocky Mountain - Colorado Springs / Pueblo West,real_estate_agent,['real_estate'],CO,Colorado Springs,80906.0,"Colorado Springs, 2630 Tenderfoot Hill St",38.796326,-104.815229,meta,2025-06-02T07:00:00.000Z,0.2456896551724137,83ecbb2d-31cb-4294-862f-4723a5a28f0c,,,,OpenStreetMap,2023-03-14T18:35:45.000Z,,colorado-springs,False
81f93805-331d-4319-b93b-4e36adac001c,Prudential Dining-Beard,real_estate,['real_estate_agent'],KS,Wichita,67205.0,3531 N Ridge Rd,37.7484163,-97.4269589,meta,2025-06-02T07:00:00.000Z,0.909823677581864,,,,,,,,wichita,False
cfa0a45b-a88e-44cf-9205-2fa0a8160fae,Prudential Autos,car_dealer,['used_car_dealer'],KS,Wichita,67213.0,1555 S Meridian Ave,37.6661812,-97.3714645,meta,2025-06-02T07:00:00.000Z,0.9459263554653524,aced9852-3bb3-4b44-8bbc-95aa6af88c06,,,,Microsoft ML Buildings,2018-11-29T00:00:00.000Z,,wichita,False
9c8db6ae-c6bd-4a44-97e0-43b66bfc2a36,"Prudential Healthcare Staffing, LLP",nurse_practitioner,"['health_and_medical', 'hospital']",MN,Coon Rapids,55448.0,1856 132nd Ave NW,45.2100035,-93.3131877,meta,2025-06-02T07:00:00.000Z,0.9204819277108434,74b00890-4904-4381-935e-5fbfc611ba1c,,,,Esri Community Maps,2024-10-15T00:00:00.000Z,,minneapolis,False
d1f96f8b-88f1-43d7-a299-91b77feb3a23,Hillary Prudential Realty,property_management,"['real_estate', 'rental_service']",PA,Pittsburgh,15234.0,1000 Vermont Ave,40.35992,-80.03416,meta,2025-06-02T07:00:00.000Z,0.242152466367713,,,,,,,,pittsburgh,False
baaed181-269b-44d0-a996-02230233b916,Prudential Realty,property_management,"['real_estate', 'commercial_real_estate']",PA,Pittsburgh,15203.0,3700 S Water St,40.4185632,-79.9555026,meta,2025-06-02T07:00:00.000Z,0.9459263554653524,199e03da-0bea-4b85-a12d-c8805dc48c53,,commercial,commercial,OpenStreetMap,2017-10-31T10:41:28.000Z,,pittsburgh,False
b6306f97-948f-4607-b097-0176bfc87dfd,Prudential Homesale  / Stonehenge Reserve,real_estate,"['real_estate_agent', 'commercial_real_estate']",PA,Lancaster,17603.0,215 S Centerville Rd,40.03934,-76.3873,meta,2025-06-02T07:00:00.000Z,0.296943231441048,d7fbccda-71c6-439b-88ce-6559c7af5630,,,,OpenStreetMap,2020-12-16T14:00:18.000Z,,lancaster,False
7394b187-16c3-4ef7-a5f2-87004c365981,Prudential Lancaster Real Estate,real_estate_agent,"['movers', 'real_estate']",PA,Lancaster,17601.0,100 Foxshire Dr,40.076174,-76.323444,meta,2025-06-02T07:00:00.000Z,0.242152466367713,60761cb3-1d91-476a-9f49-3c79ddf64d10,,,,Microsoft ML Buildings,2020-11-07T00:00:00.000Z,,lancaster,False
b4b625da-6c3d-432d-aaab-c8478119ad79,Zakaullah Khan - Prudential Financial,financial_service,['financial_advising'],NJ,Princeton,8540.0,5 Independence Way,40.359688,-74.59515,meta,2025-06-02T07:00:00.000Z,0.5662921348314607,e6581fc6-054e-4f81-a5d7-cbb3a1527444,,commercial,office,OpenStreetMap,2023-10-31T06:48:54.000Z,,new-york,True
cac06c80-3a24-4dac-8351-e2f9862c2b54,Prudential New Jersey Properties,real_estate,['real_estate_agent'],NJ,Martinsville,8836.0,1996 Washington Valley Rd,40.5998863,-74.5576389,meta,2025-06-02T07:00:00.000Z,0.9300613496932516,41360990-2d81-4b99-8aed-7f28b05ea021,,,,OpenStreetMap,2023-06-29T13:06:35.000Z,,new-york,False
d22afb30-a2f0-4228-bbe9-8365414661e8,Michael LoCascio at Prudential,financial_service,"['financial_advising', 'insurance_agency']",NJ,Basking Ridge,7920.0,110 Allen Rd,40.64857,-74.58285,meta,2025-06-02T07:00:00.000Z,0.242152466367713,5c71a16d-8f4d-4246-8080-85aadfa84acd,The Offices at Liberty Corner - 110 Allen Road,commercial,commercial,OpenStreetMap,2020-02-12T19:45:22.000Z,,new-york,False
b6abb080-022b-4c3e-a533-c190976f61a9,Prudential Abstract Corp,insurance_agency,['real_estate'],NJ,East Brunswick,8816.0,573 Cranbury Rd,40.41255,-74.41833,meta,2025-06-02T07:00:00.000Z,0.242152466367713,06d48d45-20ed-48de-8f56-186db55c4bd3,,,,OpenStreetMap,2012-08-03T10:06:30.000Z,,new-york,False
0cadb1de-b5b5-4aa6-8fae-a641eb02b7c1,Greater New Jersey Financial Group of Prudential,financial_service,,NJ,East Brunswick,8816.0,1 Tower Center Blvd,40.4808861,-74.4115338,meta,2025-06-02T07:00:00.000Z,0.5662921348314607,,,,,,,,new-york,False
d8cd0520-0889-4660-8ef3-42f6b757943c,Edward Cross at Prudential,financial_service,['insurance_agency'],NJ,East Brunswick,8816.0,1 Tower Center Blvd,40.4808861,-74.4115338,meta,2025-06-02T07:00:00.000Z,0.296943231441048,,,,,,,,new-york,False
ea10c9ea-91d2-4e7b-9ea1-f941073a31ba,Winfield Marx at Prudential,financial_service,['financial_advising'],NJ,East Brunswick,8816.0,1 Tower Center Blvd,40.47919,-74.408666,meta,2025-06-02T07:00:00.000Z,0.296943231441048,3d198a09-21ed-41ac-889a-5c854e50ec27,,transportation,parking,OpenStreetMap,2023-04-27T04:32:43.000Z,,new-york,False
4635d788-0bf3-4c0c-9d53-5d964116efc7,Prudential New Jersey Properties,real_estate,['real_estate_agent'],NJ,Metuchen,8840.0,3 Amboy Ave,40.5366002,-74.3483073,meta,2025-06-02T07:00:00.000Z,0.3961437335670464,65114be7-b03e-453c-bed4-bfbaa5d8fa46,,,,Microsoft ML Buildings,2022-10-16T00:00:00.000Z,,new-york,False
b73878f8-61a9-48ab-923a-be0c8d2058f0,Prudential Financial,insurance_agency,,NJ,Iselin,8830.0,200 Wood Ave S,40.56028,-74.3238839,meta,2025-06-02T07:00:00.000Z,0.9784508333782836,12ddb28b-2458-4f09-9fa4-394f813dec11,,commercial,office,OpenStreetMap,2013-02-06T13:06:54.000Z,,new-york,True
bcf09834-5fa7-4ef7-81f6-4d72997f05da,Prudential Stainless Pipe,metal_supplier,"['real_estate', 'home_improvement_store']",NJ,Woodbridge Twp,7001.0,130 Essex Ave E,40.575988,-74.2620844,meta,2025-06-02T07:00:00.000Z,0.9415384615384615,e8e11473-60a7-4f7c-ac0c-112867bffa91,,,,Microsoft ML Buildings,2022-10-16T00:00:00.000Z,,new-york,False
00f1f421-9251-4880-8589-1c69c3b6a7f0,Prudential  New Jersey Properties,property_management,"['real_estate_agent', 'real_estate']",NJ,New Providence,7974.0,1260 Springfield Ave,40.705412,-74.404746,meta,2025-06-02T07:00:00.000Z,0.3961437335670464,21fe69e4-e1f7-4e6f-a660-63e589fa597b,,commercial,retail,OpenStreetMap,2022-02-28T22:05:40.000Z,,new-york,False
06f8775b-f5f9-47d0-a904-3fd08b6d657a,Prudential New Jersey Properties,real_estate,,NJ,Westfield,7090.0,215 North Ave W,40.6502915,-74.3463489,meta,2025-06-02T07:00:00.000Z,0.9415384615384615,996237aa-a43a-46c6-b936-cb05330c04e3,,commercial,commercial,OpenStreetMap,2014-01-15T20:35:28.000Z,,new-york,False
9361e16e-a269-4f2b-a075-0cf2c1e5e726,Gary Carvalho at Prudential,insurance_agency,['financial_service'],NJ,Cranford,7016.0,25 Alden St,40.6566511,-74.3039893,meta,2025-06-02T07:00:00.000Z,0.8860580325548478,64dafbcc-3d66-456d-9d0b-fd7da0074d90,,,,OpenStreetMap,2019-08-12T23:26:28.000Z,,new-york,False
6b632210-1285-44b9-b449-b9d97ef71f0f,Prudential Concert Grove,park,"['music_venue', 'japanese_restaurant']",,,7107.0,20 1st St,40.7552587,-74.1841125,meta,2025-06-02T07:00:00.000Z,0.9297091412742382,,,,,,,,new-york,False
2ebbbbee-ddb2-44af-8164-903e267cd7c6,Steven Tabak at Prudential,insurance_agency,['investing'],NY,New York,10306.0,109 New Dorp Plz N,40.5728777,-74.1186519,meta,2025-06-02T07:00:00.000Z,0.9204819277108434,27c33501-54aa-4638-9a93-f1333598d3b8,,,,OpenStreetMap,2013-11-23T13:52:10.000Z,,new-york,False
182d8d8d-6e42-4600-ab22-cffdfb4c4659,ILYA KHAIT at Prudential,insurance_agency,['financial_service'],NY,Brooklyn,11235.0,3047 Emmons Ave,40.5841074,-73.9369811,meta,2025-06-02T07:00:00.000Z,0.9300613496932516,36c5ce28-1cc8-45f7-ba42-0f83482e387a,,,,OpenStreetMap,2013-11-26T21:46:11.000Z,,new-york,False
ed42b0d7-fed3-451e-935f-d3def78d9588,Patrick Hanning at Prudential,insurance_agency,['financial_service'],NY,New York,11694.0,114-12 Beach Channel Dr,40.5823277,-73.8369862,meta,2025-06-02T07:00:00.000Z,0.2456896551724137,7c11ced3-0d90-46f6-a10c-8746de0c4364,Belle Rock Car Service,commercial,commercial,OpenStreetMap,2024-02-04T03:45:11.000Z,,new-york,False
6601da2b-e868-457b-a552-e44352a0ad15,Restaurant At Prudential Center,american_restaurant,"['restaurant', 'fast_food_restaurant']",NJ,Newark,7102.0,25 Lafayette St,40.733271,-74.171273,meta,2025-06-02T07:00:00.000Z,0.7548172757475083,c3b369af-60e6-4f37-b319-e41e2d7abd92,Prudential Center,entertainment,stadium,OpenStreetMap,2023-11-12T17:48:22.000Z,,new-york,False
6601da2b-e868-457b-a552-e44352a0ad15,Restaurant At Prudential Center,american_restaurant,"['restaurant', 'fast_food_restaurant']",NJ,Newark,7102.0,25 Lafayette St,40.733271,-74.171273,meta,2025-06-02T07:00:00.000Z,0.7548172757475083,09f25a54-b2f5-47f4-9f32-f5606967a20d,,entertainment,stadium,OpenStreetMap,2023-11-12T17:48:22.000Z,,new-york,False
bc36389e-aae6-492f-8d5f-36e628ee4604,Atlantic Ambulance Main Medical Office at Prudential Center,medical_center,"['hospital', 'medical_service_organizations']",NJ,Newark,7102.0,165 Mulberry St,40.7338388,-74.1713982,meta,2025-06-02T07:00:00.000Z,0.4929396662387676,c3b369af-60e6-4f37-b319-e41e2d7abd92,Prudential Center,entertainment,stadium,OpenStreetMap,2023-11-12T17:48:22.000Z,,new-york,True
bc36389e-aae6-492f-8d5f-36e628ee4604,Atlantic Ambulance Main Medical Office at Prudential Center,medical_center,"['hospital', 'medical_service_organizations']",NJ,Newark,7102.0,165 Mulberry St,40.7338388,-74.1713982,meta,2025-06-02T07:00:00.000Z,0.4929396662387676,09f25a54-b2f5-47f4-9f32-f5606967a20d,,entertainment,stadium,OpenStreetMap,2023-11-12T17:48:22.000Z,,new-york,True
bad3469f-8b26-41e6-8765-5cf4536e6b5e,VIP Suites - Prudential Center,stadium_arena,"['topic_concert_venue', 'football_stadium']",NJ,Newark,7102.0,25 Lafayette St,40.7335324,-74.1710759,meta,2025-06-02T07:00:00.000Z,0.3961437335670464,c3b369af-60e6-4f37-b319-e41e2d7abd92,Prudential Center,entertainment,stadium,OpenStreetMap,2023-11-12T17:48:22.000Z,,new-york,False
bad3469f-8b26-41e6-8765-5cf4536e6b5e,VIP Suites - Prudential Center,stadium_arena,"['topic_concert_venue', 'football_stadium']",NJ,Newark,7102.0,25 Lafayette St,40.7335324,-74.1710759,meta,2025-06-02T07:00:00.000Z,0.3961437335670464,09f25a54-b2f5-47f4-9f32-f5606967a20d,,entertainment,stadium,OpenStreetMap,2023-11-12T17:48:22.000Z,,new-york,False
2f115cfd-b352-4072-adef-c86d3473054f,Grammy Museum Experience Prudential Center,museum,"['history_museum', 'art_museum']",NJ,Newark,7102.0,25 Lafayette St,40.733559,-74.171085,meta,2025-06-02T07:00:00.000Z,0.5662921348314607,c3b369af-60e6-4f37-b319-e41e2d7abd92,Prudential Center,entertainment,stadium,OpenStreetMap,2023-11-12T17:48:22.000Z,,new-york,False
2f115cfd-b352-4072-adef-c86d3473054f,Grammy Museum Experience Prudential Center,museum,"['history_museum', 'art_museum']",NJ,Newark,7102.0,25 Lafayette St,40.733559,-74.171085,meta,2025-06-02T07:00:00.000Z,0.5662921348314607,09f25a54-b2f5-47f4-9f32-f5606967a20d,,entertainment,stadium,OpenStreetMap,2023-11-12T17:48:22.000Z,,new-york,False
b850a37c-a71f-46c5-8246-be1902453037,Muse at Prudential Center Newark NJ,real_estate,"['arts_and_entertainment', 'topic_concert_venue']",,,7102.0,"Mulberry St, Newark, New Jersey",40.733714,-74.170723,meta,2025-06-02T07:00:00.000Z,0.3961437335670464,c3b369af-60e6-4f37-b319-e41e2d7abd92,Prudential Center,entertainment,stadium,OpenStreetMap,2023-11-12T17:48:22.000Z,,new-york,False
b850a37c-a71f-46c5-8246-be1902453037,Muse at Prudential Center Newark NJ,real_estate,"['arts_and_entertainment', 'topic_concert_venue']",,,7102.0,"Mulberry St, Newark, New Jersey",40.733714,-74.170723,meta,2025-06-02T07:00:00.000Z,0.3961437335670464,09f25a54-b2f5-47f4-9f32-f5606967a20d,,entertainment,stadium,OpenStreetMap,2023-11-12T17:48:22.000Z,,new-york,False
7441b416-f648-4b0a-a4af-9a45e430cc6d,Prudential Center Box Office,topic_concert_venue,"['stadium_arena', 'event_planning']",NJ,Newark,7102.0,165 Mulberry St,40.734054,-74.170127,meta,2025-06-02T07:00:00.000Z,0.4929396662387676,c3b369af-60e6-4f37-b319-e41e2d7abd92,Prudential Center,entertainment,stadium,OpenStreetMap,2023-11-12T17:48:22.000Z,,new-york,False
98942577-aded-4d65-bb14-8b21a86d2fe8,Prudential Mortgage Capital,financial_service,"['insurance_agency', 'real_estate_agent']",NJ,Newark,7102.0,751 Broad St,40.736812,-74.171818,meta,2025-06-02T07:00:00.000Z,0.9784508333782836,1fac9202-ed1c-453e-a7bf-4854274f8d0b,Prudential Plaza Building,,,OpenStreetMap,2016-04-25T00:17:40.000Z,,new-york,False
6cc917a7-ad10-4198-82be-19a0848761de,Prudential Equity Investors,landmark_and_historical_building,"['american_restaurant', 'fountain']",NJ,Newark,7102.0,4 Gateway Ctr,40.7368706,-74.1715964,meta,2025-06-02T07:00:00.000Z,0.242152466367713,1fac9202-ed1c-453e-a7bf-4854274f8d0b,Prudential Plaza Building,,,OpenStreetMap,2016-04-25T00:17:40.000Z,,new-york,False
681ff6b5-1814-4bbb-baa2-c4f7d3c49922,Prudential Center,music_venue,"['cinema', 'bar']",NJ,Newark,7105.0,175 Lafayette St,40.73046,-74.16516,meta,2025-06-02T07:00:00.000Z,0.7548172757475083,609a420f-61f3-4f1e-b41d-8749852dfa10,,,,OpenStreetMap,2016-08-11T11:31:32.000Z,,new-york,False
681ff6b5-1814-4bbb-baa2-c4f7d3c49922,Prudential Center,music_venue,"['cinema', 'bar']",NJ,Newark,7105.0,175 Lafayette St,40.73046,-74.16516,meta,2025-06-02T07:00:00.000Z,0.7548172757475083,6138a962-0ae8-422c-9e82-ec50402925eb,,,,OpenStreetMap,2016-08-11T11:31:32.000Z,,new-york,False
5a7f7f3d-7763-41f7-bdb8-552e0b6f050a,Prudential Insurance Company of America,insurance_agency,,NJ,Newark,7102.0,213 Washington St,40.7375873,-74.1747234,meta,2025-06-02T07:00:00.000Z,0.9459263554653524,e7336e5e-8b80-40b6-9caa-8dda4feb253d,Prudential Building,commercial,commercial,OpenStreetMap,2022-09-20T16:57:38.000Z,,new-york,True
8950fd55-b8a6-495d-935b-f0355b4a4df2,Prudential Financial,insurance_agency,"['real_estate', 'professional_services']",NJ,Newark,7102.0,213 Washington St,40.737757,-74.17461,meta,2025-06-02T07:00:00.000Z,0.7548172757475083,e7336e5e-8b80-40b6-9caa-8dda4feb253d,Prudential Building,commercial,commercial,OpenStreetMap,2022-09-20T16:57:38.000Z,,new-york,False
dbcd773c-6125-44a5-933d-5bd46ad544b8,Prudential Tower,event_planning,"['business', 'financial_service']",NJ,Newark,7102.0,655 Broad St,40.7392412,-74.1709328,meta,2025-06-02T07:00:00.000Z,0.9784508333782836,8840d833-1ef9-43df-8385-5f5ed506b8c9,Prudential Tower,,,OpenStreetMap,2025-01-17T05:25:12.000Z,,new-york,True
4dc8abfc-ee01-4461-84d8-5d055c62a5a1,New Jersey Prudential Arts Center,grocery_store,,NJ,Newark,0.0,,40.739871,-74.1673641,meta,2025-06-02T07:00:00.000Z,0.4929396662387676,3dc3898a-1a37-4834-8ba7-8f517abcf542,New Jersey Performing Arts Center,entertainment,,OpenStreetMap,2025-05-09T15:36:14.000Z,,new-york,False
4a466b6e-7cd4-420c-b457-730f63435a9f,Njpac Prudential Center Newark Nj,arts_and_entertainment,"['real_estate', 'real_estate_agent']",NJ,Jersey City,0.0,,40.7399149,-74.1673861,meta,2025-06-02T07:00:00.000Z,0.4929396662387676,3dc3898a-1a37-4834-8ba7-8f517abcf542,New Jersey Performing Arts Center,entertainment,,OpenStreetMap,2025-05-09T15:36:14.000Z,,new-york,False
f67119f2-e3f4-4f76-8f0a-3aa4e340d7db,Prudential Hall,theatre,"['topic_concert_venue', 'arts_and_entertainment']",NJ,Newark,7102.0,1 Center St,40.7402499,-74.1672886,meta,2025-06-02T07:00:00.000Z,0.9784508333782836,3dc3898a-1a37-4834-8ba7-8f517abcf542,New Jersey Performing Arts Center,entertainment,,OpenStreetMap,2025-05-09T15:36:14.000Z,,new-york,False
2504ee45-5ea5-4465-9347-270712811561,New Jersey Prudential Center,travel,"['transportation', 'limo_services']",NJ,Harrison,0.0,,40.74338,-74.15538,meta,2025-06-02T07:00:00.000Z,0.3376623376623376,,,,,,,,new-york,False
ffc0ff91-97e7-478f-8bfb-2abe4f91357d,TJ Dalton at Prudential,financial_service,"['installment_loans', 'financial_advising']",NJ,Hoboken,7030.0,904 Garden St,40.7478023,-74.0297158,meta,2025-06-02T07:00:00.000Z,0.9204819277108434,4bb35829-446d-4f29-91c2-eb30da70ced4,,,,OpenStreetMap,2016-10-24T20:13:57.000Z,,new-york,False
ffc0ff91-97e7-478f-8bfb-2abe4f91357d,TJ Dalton at Prudential,financial_service,"['installment_loans', 'financial_advising']",NJ,Hoboken,7030.0,904 Garden St,40.7478023,-74.0297158,meta,2025-06-02T07:00:00.000Z,0.9204819277108434,60680ce2-5897-4d23-90bb-f38936f00f68,,,,OpenStreetMap,2016-10-24T20:13:57.000Z,,new-york,False
ffc0ff91-97e7-478f-8bfb-2abe4f91357d,TJ Dalton at Prudential,financial_service,"['installment_loans', 'financial_advising']",NJ,Hoboken,7030.0,904 Garden St,40.7478023,-74.0297158,meta,2025-06-02T07:00:00.000Z,0.9204819277108434,799ed671-e552-40bc-844e-ed1c7b9bac72,,,,OpenStreetMap,2016-10-24T20:13:57.000Z,,new-york,False
5ac770d7-2a3a-4115-8aba-d2b4533a7b43,Prudential Vanguard Financial,trusts,"['financial_service', 'insurance_agency']",NY,New York,10036.0,1501 Broadway,40.7571047,-73.986892,meta,2025-06-02T07:00:00.000Z,0.8860580325548478,cf40efcc-1ba0-4270-9b04-87798688af06,1501 Broadway,commercial,commercial,OpenStreetMap,2022-11-28T17:36:13.000Z,,new-york,False
66714f4d-de5d-4ce0-afd5-744b02b67477,Prudential Advisors,professional_services,['financial_service'],NY,New York,10020.0,1270 Avenue of the Americas,40.7602746,-73.9798326,meta,2025-06-02T07:00:00.000Z,0.909823677581864,f44475e5-676e-4b0e-a0b6-e57c4e645f37,1270 Avenue of the Americas,commercial,commercial,OpenStreetMap,2022-11-24T16:51:35.000Z,,new-york,False
68e9ed0e-37c0-42e7-8d02-8dda401e4b3b,Prudential Advisors,professional_services,['brokers'],NY,Forest Hills,11375.0,118-35 Queens Blvd,40.7147577,-73.8312775,meta,2025-06-02T07:00:00.000Z,0.9204819277108434,6f7b9ae1-7569-4944-915b-ff95f5b8c267,Forest Hills Tower,,,OpenStreetMap,2018-01-28T18:39:30.000Z,,new-york,False
b5a2b7ce-9dd6-474b-9b6e-865adcd0b252,Prudential Borrowing,mortgage_broker,"['installment_loans', 'financial_service']",NY,Rockville Centre,11570.0,450 Sunrise Hwy,40.6571956,-73.636743,meta,2025-06-02T07:00:00.000Z,0.9459263554653524,eedb53e7-157b-42a8-b8ef-c704f6e5043d,,,,OpenStreetMap,2020-09-28T10:18:06.000Z,,new-york,False
420cc273-f013-4497-aa57-5a1af29aa691,Ronald Cellini - Prudential Financial,financial_service,['investing'],NY,Melville,11747.0,445 Broadhollow Rd,40.7751919,-73.4198466,meta,2025-06-02T07:00:00.000Z,0.909823677581864,7659e19f-02ac-4e3a-9034-84304d02de64,,commercial,commercial,OpenStreetMap,2021-06-02T13:11:05.000Z,,new-york,False
87140bdf-3751-4f79-b6f0-151a4cef0b6b,Stephen Barbosa - Prudential Financial,financial_service,"['insurance_agency', 'investing']",NY,Melville,11747.0,445 Broadhollow Rd,40.7751916,-73.4198418,meta,2025-06-02T07:00:00.000Z,0.8860580325548478,7659e19f-02ac-4e3a-9034-84304d02de64,,commercial,commercial,OpenStreetMap,2021-06-02T13:11:05.000Z,,new-york,False
3aa20462-4692-4949-9802-dd3d1f58c3ff,Long Island Premier Financial Group of Prudential,financial_service,"['insurance_agency', 'island']",NY,Melville,11747.0,445 Broadhollow Rd,40.77529,-73.41881,meta,2025-06-02T07:00:00.000Z,0.3961437335670464,9d6be0c3-cc17-40ee-be2b-d52cae7252ee,,transportation,parking,OpenStreetMap,2024-09-17T08:05:29.000Z,,new-york,False
97363dee-b50a-4740-b66a-fab2c68cf9b5,Lawrence Gooen - Prudential Financial,investing,"['financial_service', 'insurance_agency']",NJ,Lake Hopatcong,7849.0,694 State Route 15 S,40.9570933,-74.597597,meta,2025-06-02T07:00:00.000Z,0.9297091412742382,,,,,,,,new-york,False
d32ace25-c504-41af-a20b-83fe787d49f0,Prudential Florham Park Heliport,heliports,"['park', 'real_estate']",,,7932.0,,40.7933033,-74.3802956,meta,2025-06-02T07:00:00.000Z,0.909823677581864,,,,,,,,new-york,False
584c24d2-578a-47ae-9cc7-f1e4fb91f6b2,Prudential Nunzio Martucci Life Insurance and Annuities,insurance_agency,['real_estate_agent'],NJ,Livingston,7039.0,256 S Livingston Ave,40.7876169,-74.3138417,meta,2025-06-02T07:00:00.000Z,0.9297091412742382,3d077bfb-e371-43e2-844e-5cd033772105,,,,Microsoft ML Buildings,2022-10-16T00:00:00.000Z,,new-york,False
aed8b134-0ffa-4539-99ef-5ac10740f594,Prudential Financial,insurance_agency,"['financial_service', 'real_estate']",NJ,Roseland,7068.0,80 Prudential Dr,40.8121061,-74.2976973,meta,2025-06-02T07:00:00.000Z,0.9415384615384615,810999d8-5dca-4995-827c-88acee849490,,,,OpenStreetMap,2018-09-12T00:18:36.000Z,,new-york,False
a8b969ee-0def-4e69-ab79-51f123c7fa65,Northern NJ Financial Group Office of Prudential,financial_service,['insurance_agency'],NJ,East Hanover,7936.0,120 Eagle Rock Ave,40.83182,-74.33543,meta,2025-06-02T07:00:00.000Z,0.3961437335670464,,,,,,,,new-york,True
989f047b-104c-4180-9d57-395495ce9bfd,Tony Fields at Prudential,attractions_and_activities,['park'],NJ,East Hanover,7936.0,120 Eagle Rock Ave,40.83187,-74.33515,meta,2025-06-02T07:00:00.000Z,0.242152466367713,,,,,,,,new-york,False
d0baac94-789a-45ce-a12b-b97b857f3950,Prudential Financial Insurance Company of America,insurance_agency,"['professional_services', 'financial_service']",NJ,East Hanover,7936.0,120 Eagle Rock Ave,40.832565,-74.334922,meta,2025-06-02T07:00:00.000Z,0.3376623376623376,fffdeacf-dc0b-49c7-9247-b384a1f7a119,,,,OpenStreetMap,2023-07-01T02:30:09.000Z,,new-york,True
0b51e6a7-fa94-44c3-88dc-42e50b3cdcec,Charlene Sasso - Prudential Financial,installment_loans,"['financial_service', 'investing']",NJ,East Hanover,7936.0,120 Eagle Rock Ave,40.8326791,-74.3350161,meta,2025-06-02T07:00:00.000Z,0.8860580325548478,fffdeacf-dc0b-49c7-9247-b384a1f7a119,,,,OpenStreetMap,2023-07-01T02:30:09.000Z,,new-york,False
6640909b-9b43-4a52-a149-c39652da1bba,Glenn Matano - Prudential Financial,financial_service,"['professional_services', 'investing']",NJ,Wayne,7470.0,200 Black Oak Ridge Rd,40.9483713,-74.2735751,meta,2025-06-02T07:00:00.000Z,0.8860580325548478,,,,,,,,new-york,False
37d2125a-9498-4ee3-bc23-f3ad5c86fee4,Prudential Financial,insurance_agency,['real_estate'],NJ,Carlstadt,7072.0,404 Hackensack St,40.837544,-74.091964,meta,2025-06-02T07:00:00.000Z,0.242152466367713,66d0a171-ad56-4304-b760-0c5b9078d2b9,,,,Microsoft ML Buildings,2022-10-16T00:00:00.000Z,,new-york,False
9f4ff00d-f062-4427-96bf-9d4c08d0f2f5,Prudential Van Lines,storage_facility,"['movers', 'shopping']",NJ,Hackensack,7601.0,81 Hobart St,40.8758937,-74.0507194,meta,2025-06-02T07:00:00.000Z,0.8860580325548478,16fd9b7c-1c5e-4994-a306-d9fe2d0dfa2c,,,,OpenStreetMap,2018-10-26T01:58:30.000Z,,new-york,False
41d7a4fd-5878-43c6-8f0b-8587e409106a,Prudential Adamo Realty,real_estate_agent,"['real_estate_service', 'real_estate']",NJ,Ridgefield,7657.0,742 Bergen Blvd,40.83297,-73.991043,meta,2025-06-02T07:00:00.000Z,0.296943231441048,1fe46015-a01b-4cdf-ac36-15c8f7663440,,,,Microsoft ML Buildings,2022-10-16T00:00:00.000Z,,new-york,False
76591692-2709-433f-8398-1959972abb97,Faisal Shuja - Prudential Financial,financial_service,"['retirement_home', 'insurance_agency']",NY,Bronx,10462.0,760 Lydig Ave,40.8543255,-73.8653429,meta,2025-06-02T07:00:00.000Z,0.909823677581864,b9546172-6dd1-422a-b4cb-b013e4f9266a,,,,OpenStreetMap,2014-05-13T22:51:26.000Z,,new-york,False
8e7d99f9-886e-4c83-9e91-5de4c009e0e8,Prudential,insurance_agency,['real_estate'],NJ,Paramus,7652.0,11 Sunflower Ave,40.974096,-74.0805159,meta,2025-06-02T07:00:00.000Z,0.9297091412742382,,,,,,,,new-york,False
884d028b-1344-4415-af9a-2a939915a7ba,Andrew Massello at Prudential,investing,,NY,Yonkers,10710.0,2092 Central Park Ave,40.96947,-73.8359,meta,2025-06-02T07:00:00.000Z,0.2456896551724137,92001b23-782a-49e3-9583-984c38c26ea3,,industrial,industrial,OpenStreetMap,2025-06-07T02:03:20.000Z,,new-york,False
e5ee0664-1000-4e80-a7b4-8daf2e20379b,Prudential Douglas Elliman New Development Division,real_estate_agent,"['real_estate', 'mens_clothing_store']",NY,Syosset,11791.0,317 Jackson Ave,40.811166,-73.500923,meta,2025-06-02T07:00:00.000Z,0.242152466367713,2e0ef997-928c-4d3b-9f61-0213f4ac0a69,,commercial,retail,OpenStreetMap,2021-05-30T19:31:35.000Z,,new-york,False
b02e0a09-2a4e-4ada-8a31-f702fcd62a5f,Prudential Centennial Realty,real_estate_service,,NY,Scarsdale,10583.0,4 Chase Rd,40.9891055,-73.8068481,Microsoft,2020-04-08T12:45:48.180Z,0.77,,,,,,,,new-york,False
f59a595f-7dc8-4ee7-97a6-0ae6515e5084,Prudential Long Island Realty,real_estate,"['real_estate_agent', 'tanning_salon']",NY,Ronkonkoma,11779.0,4949 Express Dr N,40.8141,-73.108939,meta,2025-06-02T07:00:00.000Z,0.2456896551724137,d1deaf2c-c95e-4a24-a7dc-2d3f5ef17b29,,residential,house,OpenStreetMap,2021-06-02T13:03:50.000Z,,new-york,False
4df34c02-d045-4f66-bc9b-fc0237d7fe96,Jata Brian-Prudential Long Island Realty,real_estate,['real_estate_agent'],NY,Farmingville,11738.0,2410 N Ocean Ave,40.828311,-73.019985,meta,2025-06-02T07:00:00.000Z,0.242152466367713,8cdea7cf-e793-44a7-bf6d-ee56332015f7,,commercial,commercial,OpenStreetMap,2021-06-02T15:54:19.000Z,,new-york,False
667124bc-3cb5-4422-9401-be7a1a240d4c,Matthew J. Niegocki at Prudential,insurance_agency,"['financial_service', 'real_estate_agent']",NY,East Setauket,11733.0,100 S Jersey Ave,40.93801,-73.10739,meta,2025-06-02T07:00:00.000Z,0.4929396662387676,d58599c0-a0a5-4910-89ad-0e932c14e060,,commercial,retail,OpenStreetMap,2017-01-05T05:46:07.000Z,,new-york,False
6886181b-c377-4926-b287-8e86c2c6c5a0,Prudential California Realty,real_estate_agent,['real_estate'],CA,Castro Valley,94552.0,3811 E Castro Valley Blvd,37.694449,-122.052047,meta,2025-06-02T07:00:00.000Z,0.242152466367713,b4ffa4c4-5f0c-4d6c-92ff-4f5451dc013a,,,,OpenStreetMap,2022-07-03T02:45:57.000Z,,concord,False
d4f4d99b-3064-4f07-bd8e-9e2511ff53ff,Prudential California Realty,real_estate_agent,,CA,Castro Valley,94552.0,3811 E Castro Valley Blvd,37.69534506,-122.0520625,Microsoft,2013-04-10T18:15:22.483Z,0.77,,,,,,,,concord,False
ea16fff1-8e89-4d03-b1d6-4b2ee4ff957f,Prudential California Realty,real_estate_agent,,CA,Pleasant Hill,94523.0,1954 Contra Costa Blvd,37.94857442,-122.0600266,Microsoft,2013-04-10T15:15:20.780Z,0.77,,,,,,,,concord,False
4ff1c586-78c0-4eb2-a172-00bf094f96d9,Victor McCullough: Financial Professional at Prudential  Advisors,financial_advising,['financial_service'],CA,San Ramon,94583.0,2010 Crow Canyon Pl,37.7792082,-121.9739207,meta,2025-06-02T07:00:00.000Z,0.3376623376623376,d7afef1c-4ae4-4645-a6c4-ef28cb0cb8d8,,commercial,office,OpenStreetMap,2024-08-20T08:30:59.000Z,,concord,False
581acd5b-22d2-41ab-b06e-c5867ce8a4f4,Daniel Adler at Prudential,insurance_agency,['financial_advising'],NY,Syracuse,13204.0,500 Plum St,43.05535,-76.159137,meta,2025-06-02T07:00:00.000Z,0.242152466367713,d2363c96-4d8b-4b87-893f-c0e76dfd5fa6,,commercial,office,OpenStreetMap,2022-03-25T22:43:11.000Z,,syracuse,True
3e8deef5-d894-4ede-aaf5-4353eb0014f8,Prudential,insurance_agency,['real_estate'],NY,De Witt,13214.0,"Widewaters Group, 5786 Widewaters Pkwy",43.0474775,-76.0621301,meta,2025-06-02T07:00:00.000Z,0.9300613496932516,,,,,,,,syracuse,False
ea638026-291a-4b52-b776-5a72e5c68683,Prudential Ambassador Real Estate,real_estate,['real_estate_agent'],NE,Omaha,68154.0,13340 California St,41.2665712,-96.1228145,meta,2025-06-02T07:00:00.000Z,0.909823677581864,59b0c39d-526b-465b-a623-66a125e5379c,Prudential Ambassador Real Estate,commercial,office,OpenStreetMap,2012-08-30T00:07:28.000Z,,omaha,True
20fbc95d-3da6-447a-8932-4e1d46597966,Prudential,professional_services,['insurance_agency'],OR,Lake Oswego,97035.0,5500 Meadows Rd,45.417164,-122.734443,meta,2025-06-02T07:00:00.000Z,0.4929396662387676,9cbf5dce-662d-47e3-af92-94f1eec3e02f,5500 Building,,,OpenStreetMap,2018-08-30T19:38:55.000Z,,portland,False
4e089411-391e-4c4e-9827-23b5db07e051,Prudential NW Properties,real_estate_agent,"['real_estate_service', 'corporate_office', 'private_establishments_and_corporates']",OR,Portland,97225.0,9600 SW Barnes Rd Ste 100,45.508241680594,-122.775049209595,Microsoft,2012-06-26T11:24:07.967Z,0.77,96d95f6c-9321-4fb0-82ad-f0de3f2d80c2,,,,OpenStreetMap,2015-02-01T05:44:09.000Z,,portland,True
b5898b74-3f32-49ca-ae0d-b04d72f11495,"Dan Bartholomew, Realtor, Prudential Patt, White Real Estate",real_estate_agent,"['real_estate', 'real_estate_service']",PA,Macungie,18062.0,3261 Route 100,40.519761,-75.567122,meta,2025-06-02T07:00:00.000Z,0.2456896551724137,777d6dcd-7c73-4d6c-ba5c-aa9e6304f69d,,commercial,commercial,OpenStreetMap,2025-01-16T14:02:15.000Z,,allentown-bethlehem,False
34cef4f0-0d06-4153-b199-00678b0948ec,Prudential Cleanroom Services,clothing_store,"['uniform_store', 'childrens_clothing_store']",ID,Boise,83705.0,1830 W Airport Way,43.5664432,-116.2052473,meta,2025-06-02T07:00:00.000Z,0.8831168831168831,7582fe9f-2a43-4c86-9153-80535cc84106,,,,OpenStreetMap,2019-04-03T15:41:47.000Z,,boise-city,False
4b70a8b6-5427-44ae-9672-40fe8571edf2,Prudential Cleanroom Services,uniform_store,['retail'],ID,Boise,83705.0,517 W Mcgregor Ct,43.5649015,-116.18841367,Microsoft,2019-10-14T16:07:10.927Z,0.77,25154a9b-adb9-417e-9712-4ccd80390829,,,,OpenStreetMap,2019-04-03T15:41:48.000Z,,boise-city,False
633a9386-2ba6-4c4c-9da4-30fc8414a023,Prudential Sierra Nevada Properties,real_estate_agent,"['commercial_real_estate', 'real_estate']",NV,Reno,89509.0,6990 S McCarran Blvd,39.4761958,-119.8070876,meta,2025-06-02T07:00:00.000Z,0.242152466367713,2c836f23-a86d-450c-9e62-e24babc5f1ab,,,,OpenStreetMap,2009-07-27T01:21:22.000Z,,reno,False
26d30bca-55d2-4c89-9b53-e5fa952c8124,Prudential Great Lakes Realty - Grand Blanc,real_estate_agent,"['real_estate', 'property_management']",MI,Grand Blanc,48439.0,536 Perry Rd,42.924613,-83.620358,meta,2025-06-02T07:00:00.000Z,0.3961437335670464,2567d441-5e1e-4d81-a9a4-f38439405987,,,,Microsoft ML Buildings,2000-01-01T00:00:00.000Z,,flint,False
4ed9ed97-f5f8-47f0-ba81-e889f9cf573b,Prudential Contact Corporation Realtors,property_management,"['real_estate', 'financial_service']",WA,Puyallup,98373.0,507 31st Ave SW,47.162042,-122.298987,meta,2025-06-02T07:00:00.000Z,0.4929396662387676,986028ab-3791-4741-8cfc-e91a0485e02b,,,,OpenStreetMap,2023-06-28T02:34:11.000Z,,seattle,True
f2447f92-1b44-431e-944e-1c8d4c34bde0,Prudential Northwest Realty,real_estate_agent,"['real_estate', 'property_management']",WA,Federal Way,98003.0,622 S 320th St,47.315488,-122.326347,meta,2025-06-02T07:00:00.000Z,0.296943231441048,9884356b-ac78-4443-92e3-098bd42be7af,,,,OpenStreetMap,2024-03-27T23:06:31.000Z,,seattle,False
648f1ba5-47c5-4e53-82e6-fca2dcc6127b,Ben Bear at Prudential,financial_service,"['investing', 'insurance_agency']",WA,Bellevue,98004.0,11400 SE 8th St,47.6022672,-122.1887413,meta,2025-06-02T07:00:00.000Z,0.9415384615384615,,,,,,,,seattle,False
42aa70db-fecc-48f5-a46c-ae0613a6ba0c,Prudential Signature Property,real_estate_agent,['real_estate'],WA,Seattle,98125.0,13301 Lake City Way NE,47.7249305,-122.2927465,meta,2025-06-02T07:00:00.000Z,0.8860580325548478,,,,,,,,seattle,False
418d539e-28ba-42a1-a2a1-6247095a965f,Prudential Overall Supply,uniform_store,['retail'],NM,Albuquerque,87113.0,8409 Washington St NE,35.179918,-106.59581,Microsoft,2019-10-14T16:28:04.453Z,0.77,eb7e1afb-2af4-45e2-907b-daa4705fb874,,commercial,commercial,OpenStreetMap,2016-11-17T16:07:02.000Z,,albuquerque,False
41ac8a0c-5538-4089-9975-c3f0879196a3,Prudential,insurance_agency,['real_estate_agent'],MA,Natick,1760.0,313 Speen St,42.301611,-71.379688,meta,2025-06-02T07:00:00.000Z,0.3376623376623376,31bf742e-1b48-4630-b2ed-2517a08e323b,,,,OpenStreetMap,2019-05-13T19:24:08.000Z,,boston,False
834312e5-337c-4c88-bc91-b04b07a88747,Prudential Town and Country Real Estate,real_estate_agent,['real_estate_service'],MA,Wellesley,2481.0,239 Washington St,42.313628,-71.273149,Microsoft,2013-01-29T00:42:00.077Z,0.77,,,,,,,,boston,False
