id_left,primary_name_left,primary_category,alternate_category,region,locality,zipcode,address,latitude,longitude,plc_source_dataset,plc_source_update_time,plc_source_confidence,id_right,primary_name_right,subtype,class,bldg_dataset,bldg_update_time,bldg_confidence,source_city,is_office_by_pipeline
e443c5d5-b281-4dba-a21b-d9858b50da80,Robert Half Recruiters & Employment Agency,employment_agencies,,TN,Chattanooga,37402.0,"537 Market St, Suite 200",35.049893356305375,-85.31009510514207,Microsoft,2025-04-30T00:29:03.620Z,0.77,4fa36b53-be12-4c59-aafa-71456a8b6252,,,,OpenStreetMap,2012-07-31T14:17:58.000Z,,chattanooga,False
2e74df27-6288-4a76-952f-e52d97728dad,Robert Half,employment_agencies,"['business', 'professional_services']",TN,Chattanooga,37402.0,537 Market St,35.0499073,-85.3098268,meta,2025-06-02T07:00:00.000Z,0.9415384615384615,4fa36b53-be12-4c59-aafa-71456a8b6252,,,,OpenStreetMap,2012-07-31T14:17:58.000Z,,chattanooga,False
654e7e9a-8996-499b-b6ca-50a7d0be2072,Robert Half,employment_agencies,"['business', 'professional_services']",NC,Greensboro,27409.0,101 Centreport Dr,36.0852223,-79.9638325,meta,2025-06-02T07:00:00.000Z,0.9297091412742382,34088841-2135-4256-9fab-5b534825f93c,,,,OpenStreetMap,2015-01-21T03:43:28.000Z,,greensboro,False
8dcf7c16-7b9e-4bec-8fcc-b39d5efa7aa4,Robert Half Recruiters & Employment Agency,employment_agencies,,NC,Greensboro,27409.0,101 Centreport Dr Ste 240,36.0852966,-79.9631014,Microsoft,2025-04-30T00:29:30.630Z,0.77,,,,,,,,greensboro,False
49a32460-2685-4eed-b19c-dc271cbb0f7d,Robert Half,employment_agencies,"['business', 'professional_services']",NY,Syracuse,13202.0,300 S State St,43.0483209,-76.1476445,meta,2025-06-02T07:00:00.000Z,0.9415384615384615,67ddad64-92a6-45e1-aef6-3ac37e642f91,One Park Place,,,OpenStreetMap,2013-06-19T21:59:32.000Z,,syracuse,False
fd97666e-dd55-4742-ac30-48bd59426488,Robert Half,employment_agencies,"['professional_services', 'mortgage_broker']",CA,Visalia,93291.0,100 Willow Plz,36.3284509,-119.2931244,meta,2025-06-02T07:00:00.000Z,0.9459263554653524,6ef13858-aeeb-4a38-9f39-b7003939b099,Willow Plaza,,,OpenStreetMap,2024-10-07T19:08:55.000Z,,visalia,False
6916fa08-79d7-413f-b0b1-39fbc0ef08e9,Robert Half Recruiters & Employment Agency,employment_agencies,,CA,Visalia,93291.0,100 W Willow Ave Ste 401,36.32788502,-119.28975613,Microsoft,2025-04-30T00:29:03.620Z,0.77,c566a8bf-e6b3-4c34-b4c4-b13adc3f9c15,,commercial,commercial,OpenStreetMap,2024-10-06T05:24:15.000Z,,visalia,False
55a83aab-e7e3-4b18-aebf-9acdab8f7eae,Robert Half,employment_agencies,"['business', 'professional_services']",LA,Baton Rouge,70816.0,4000 S Sherwood Forest Blvd,30.4171034,-91.0518443,meta,2025-06-02T07:00:00.000Z,0.9784508333782836,,,,,,,,baton-rouge,False
a54b9a71-39ca-454f-82f9-4ce5b6bcc765,Robert Half Recruiters & Employment Agency,employment_agencies,,LA,Baton Rouge,70816.0,4000 S Sherwood Forest Blvd Ste 300,30.4254082,-91.05206256,Microsoft,2025-04-30T00:29:03.620Z,0.77,,,,,,,,baton-rouge,False
0aec3bc8-5b15-42c0-a5be-edf4522cec78,Robert Half,employment_agencies,"['business', 'professional_services']",GA,Atlanta,30354.0,100 Hartsfield Center Pkwy,33.6552237,-84.4286148,meta,2025-06-02T07:00:00.000Z,0.9415384615384615,970aa9ea-fa7d-4f23-90e2-ad70389a0772,,,,OpenStreetMap,2014-05-03T19:51:10.000Z,,atlanta,False
74d5c76e-ced9-4ff3-82e0-c523289f3fa7,Robert Half,employment_agencies,"['business', 'professional_services']",GA,Atlanta,30339.0,400 Galleria Pkwy SE,33.8850346,-84.4632345,meta,2025-06-02T07:00:00.000Z,0.9459263554653524,,,,,,,,atlanta,False
f89da4d5-9069-4f1d-993c-4d05ea358a52,Robert Half Recruiters & Employment Agency,employment_agencies,,GA,Atlanta,30339.0,400 Galleria Pkwy SE Ste 940,33.8863203,-84.4610887,Microsoft,2025-04-30T00:29:30.630Z,0.77,,,,,,,,atlanta,False
dbbee665-b2d9-437d-8e44-e47c697e540b,Robert Half Finance & Accounting,employment_agencies,,GA,Atlanta,30326.0,3343 Peachtree Rd NE Ste 600,33.847172,-84.366842,Microsoft,2018-07-24T02:11:36.330Z,0.77,84861c9b-e4ab-452b-b3c3-851ab7308bfe,"Atlanta Financial Center, North Tower",commercial,commercial,OpenStreetMap,2017-10-29T22:37:07.000Z,,atlanta,False
f49c4aa4-68ac-4b85-8cb0-c2f4ca088e13,Robert Half Finance & Accounting,employment_agencies,,GA,Atlanta,30326.0,3343 Peachtree Rd NE Ste 600,33.849834,-84.362568,Microsoft,2017-01-12T19:31:42.667Z,0.77,,,,,,,,atlanta,False
a8699190-d0bd-46e3-a8b6-38a7633b8ca2,Robert Half,employment_agencies,"['business', 'financial_service']",GA,Alpharetta,30005.0,3480 Preston Ridge Rd,34.0730385,-84.2580183,meta,2025-06-02T07:00:00.000Z,0.9415384615384615,fbfc6208-114a-472a-bfb2-6415d9d0c0bd,,,,OpenStreetMap,2025-02-02T02:42:14.000Z,,atlanta,False
1de3e996-a3dc-4272-9c22-009937dd26fe,Robert Half,employment_agencies,"['business', 'professional_services']",GA,Duluth,30097.0,2170 Satellite Blvd,33.9844557,-84.0913866,meta,2025-06-02T07:00:00.000Z,0.9784508333782836,,,,,,,,atlanta,False
9ea5bd38-275a-4b59-aa70-9c259e9a79bf,Robert Half Recruiters & Employment Agency,employment_agencies,,UT,Salt Lake City,84101.0,26 S Rio Grande St Ste 2072,40.7684,-111.9040769,Microsoft,2025-04-30T00:29:30.630Z,0.77,,,,,,,,salt-lake-city,False
7ac9df3b-d9a6-4fa7-99c5-019270757c3d,Robert Half,employment_agencies,['professional_services'],UT,Salt Lake City,84111.0,111 E Broadway,40.763261,-111.887685,meta,2025-06-02T07:00:00.000Z,0.3961437335670464,e1223b1e-3a23-4fcc-acb8-c7cc66b464f3,Broadway Centre,commercial,commercial,OpenStreetMap,2024-09-03T20:17:55.000Z,,salt-lake-city,False
d2e8d665-4f67-4a16-a2fe-aa4f540a28b0,Robert Half Recruiters & Employment Agency,employment_agencies,,CT,Hartford,6103.0,"185 Asylum Street, City Place I, Suite 2701, 27th Floor",41.76685569943848,-72.67616432007816,Microsoft,2025-04-30T00:29:40.387Z,0.77,414f2f98-e610-45fe-9a88-88098ec9f1f5,,commercial,office,OpenStreetMap,2022-05-20T23:36:13.000Z,,hartford,False
19c7ea11-042b-4dad-9d46-7c10d65ad1cf,Robert Half,employment_agencies,['professional_services'],CT,Hartford,6103.0,100 Pearl St,41.7665248,-72.6750131,meta,2025-06-02T07:00:00.000Z,0.3376623376623376,ec2fc24c-522d-4aac-be52-3b530a466653,,commercial,office,OpenStreetMap,2022-02-22T00:38:08.000Z,,hartford,False
19c7ea11-042b-4dad-9d46-7c10d65ad1cf,Robert Half,employment_agencies,['professional_services'],CT,Hartford,6103.0,100 Pearl St,41.7665248,-72.6750131,meta,2025-06-02T07:00:00.000Z,0.3376623376623376,c4ae3456-8988-49fa-94d4-8f516d0364f3,,,,OpenStreetMap,2021-03-11T06:50:40.000Z,,hartford,False
19871235-a24e-4d7e-aa7c-242bd11298df,Robert Half Recruiters & Employment Agency,employment_agencies,,OH,Canfield,44406.0,6715 Tippecanoe Rd Ste 101 Bldg A,41.0225013,-80.7112682,Microsoft,2025-04-30T00:29:03.620Z,0.77,,,,,,,,youngstown,False
73dc59e4-24d0-4bc2-bd21-3163a6679001,Robert Half,employment_agencies,"['business', 'professional_services']",OH,Canfield,44406.0,6715 Tippecanoe Rd,41.0226549,-80.7102529,meta,2025-06-02T07:00:00.000Z,0.9784508333782836,,,,,,,,youngstown,False
04664a73-59b1-4cda-afe3-ed1b65fed113,Robert Half Recruiters & Employment Agency,employment_agencies,,TX,San Antonio,78230.0,"8000 IH-10 W, Suite 1008",29.513448668331726,-98.55476201719664,Microsoft,2025-04-30T00:29:03.620Z,0.77,13c43d9c-ca2d-407e-af50-9f08dd888d98,,commercial,retail,OpenStreetMap,2020-01-17T20:11:05.000Z,,san-antonio,False
c5ba58df-8198-40e5-a17d-a6e80b5fa36b,Robert Half,employment_agencies,['professional_services'],TX,San Antonio,78230.0,8000 W Interstate 10,29.5136489,-98.5547925,meta,2025-06-02T07:00:00.000Z,0.9415384615384615,,,,,,,,san-antonio,False
2ccc6a68-86e7-46c6-94b6-c41bb2a2fa45,Robert Half Recruiters & Employment Agency,employment_agencies,,SC,Greenville,29601.0,75 Beattie Pl Ste 930,34.8526958,-82.3946711,Microsoft,2025-04-30T00:29:03.620Z,0.77,,,,,,,,greenville,False
6b5ff177-e17c-489c-86c0-549f909b20a0,Robert Half,employment_agencies,"['professional_services', 'business']",SC,Greenville,29601.0,75 Beattie Pl,34.8529968,-82.3942226,meta,2025-06-02T07:00:00.000Z,0.9415384615384615,0036c990-b106-4028-b5f9-30109f791bbb,Two Liberty Square,,,OpenStreetMap,2018-03-27T19:23:04.000Z,,greenville,False
a8372373-14d4-4351-ac14-7411c6068120,Robert Half,employment_agencies,"['software_development', 'professional_services']",FL,Tampa,33607.0,4221 W Boy Scout Blvd,27.9655925,-82.5145236,meta,2025-06-02T07:00:00.000Z,0.9459263554653524,c5c87b81-e0ed-45b3-ae41-63f69dfbd261,,,,OpenStreetMap,2017-09-13T07:13:52.000Z,,tampa,False
4d23c166-255f-4456-bacf-8e58bc6a0bb8,Robert Half Recruiters & Employment Agency,employment_agencies,,FL,Tampa,33607.0,4221 W Boy Scout Blvd Ste 450,27.9652824,-82.5141024,Microsoft,2025-04-30T00:29:03.620Z,0.77,,,,,,,,tampa,False
cdd28306-4a2f-436d-9e5f-56cfa9ce741c,Robert Half Recruiters & Employment Agency,employment_agencies,,FL,Tampa,33610.0,10150 Highland Manor Dr Ste 125,27.9832678,-82.3327401,Microsoft,2025-04-30T00:29:03.620Z,0.77,,,,,,,,tampa,False
667cdbff-70e4-456a-bcbd-853e5fbb9ee3,Robert Half,employment_agencies,['professional_services'],FL,Tampa,33610.0,10150 Highland Manor Dr,27.9838076,-82.3327347,meta,2025-06-02T07:00:00.000Z,0.9297091412742382,7f696e26-339f-4097-be2a-a210b6c812dd,,,,OpenStreetMap,2017-09-11T22:08:46.000Z,,tampa,False
0ee25b02-1b47-487f-9ec6-c907dfa0aed0,Robert Half,employment_agencies,"['business', 'financial_service']",SC,Columbia,29201.0,1441 Main St,34.0048739,-81.035366,meta,2025-06-02T07:00:00.000Z,0.9300613496932516,6087bde9-2660-416e-a3e7-f998a84a210e,1441 Main,commercial,commercial,OpenStreetMap,2024-12-17T21:48:40.000Z,,columbia-south-carolina,False
af39dfb3-fa28-476e-a559-c95ceaadd93e,Robert Half Recruiters & Employment Agency,employment_agencies,,SC,Columbia,29201.0,1441 Main St Ste 750,34.0049325,-81.0351993,Microsoft,2025-04-30T00:29:03.620Z,0.77,,,,,,,,columbia-south-carolina,False
28f0ef35-ca5e-4262-84f6-68d7f4789b07,Robert Half,employment_agencies,"['business', 'public_service_and_government']",CA,Menlo Park,94025.0,2884 Sand Hill Rd,37.421974,-122.2152982,meta,2025-06-02T07:00:00.000Z,0.9300613496932516,53b73e19-12f9-4138-9197-37482ae3bdff,Robert Half International,,,OpenStreetMap,2015-06-04T16:47:47.000Z,,san-jose,False
3c1aac76-6c69-4a60-9295-2cc8ece996d2,Robert Half,employment_agencies,,CA,San Jose,95113.0,10 Almaden Blvd Ste 900,37.3339156,-121.8940761,Microsoft,2019-06-13T19:10:17.960Z,0.77,8e5064a0-21f9-493c-954e-cb6814393101,Ten Almaden,commercial,commercial,OpenStreetMap,2022-07-10T05:20:22.000Z,,san-jose,False
cc07d8e4-b7d0-4c15-a4e9-9995c28608b4,Robert Half Recruiters & Employment Agency,employment_agencies,['professional_services'],CA,San Jose,95113.0,225 W Santa Clara St,37.3346242,-121.8943033,meta,2025-06-02T07:00:00.000Z,0.9297091412742382,1f2aee12-9290-4460-994e-bf6629242a76,Opus Center San Jose,commercial,commercial,OpenStreetMap,2022-05-18T00:31:40.000Z,,san-jose,False
f68baf25-bfb6-454d-9a06-affa9246093f,Robert Half Recruiters & Employment Agency,employment_agencies,"['corporate_office', 'private_establishments_and_corporates']",CA,San Jose,95113.0,"225 West Santa Clara St., Suite 1450",37.33479169198347,-121.89455353284202,Microsoft,2025-04-30T00:29:30.630Z,0.77,1f2aee12-9290-4460-994e-bf6629242a76,Opus Center San Jose,commercial,commercial,OpenStreetMap,2022-05-18T00:31:40.000Z,,san-jose,True
856d337f-6a7e-41b6-b3ed-9b0f9098c07b,Robert Half,employment_agencies,,CA,Santa Clara,95054.0,2350 Mission College Blvd Ste 800,37.3870582,-121.9668869,Microsoft,2019-06-13T19:10:17.960Z,0.77,a7790737-efdb-4c2c-94b3-9659abd06cd6,Mission City Center,,,OpenStreetMap,2024-09-17T01:59:14.000Z,,san-jose,False
61006159-ffd6-49c0-be9c-1ceb5c23d305,Robert Half,employment_agencies,"['professional_services', 'fashion_accessories_store']",CA,Fremont,94538.0,39141 Civic Center Dr,37.5540262,-121.9769205,meta,2025-06-02T07:00:00.000Z,0.9297091412742382,f139ba20-6d7a-485f-a7ce-ac6b8d9da31d,Civic Center Place,commercial,office,OpenStreetMap,2025-04-29T16:10:18.000Z,,san-jose,False
a5227dfb-5876-4816-8353-2db695ad4c58,Robert Half Recruiters & Employment Agency,employment_agencies,"['business', 'professional_services']",WI,Milwaukee,53202.0,411 E Wisconsin Ave,43.038426,-87.905926,meta,2025-06-02T07:00:00.000Z,0.5662921348314607,406378e6-e4f9-429f-b814-eb53b97e85f8,411 East Wisconsin Center,commercial,commercial,OpenStreetMap,2019-07-11T14:23:38.000Z,,milwaukee,False
37a725af-3a88-4407-9472-b8f5e69fb0f8,Robert Half Recruiters and Employment Agency,employment_agencies,['professional_services'],TX,El Paso,79902.0,4100 Rio Bravo Dr,31.7937432,-106.5166113,meta,2025-06-02T07:00:00.000Z,0.9415384615384615,701f1f16-acd5-49d3-8fbd-3da8207860ca,,,,OpenStreetMap,2019-12-10T22:47:57.000Z,,el-paso,False
aeaabf0d-e5bf-46b7-9947-61e0f13a9ffc,Robert Half Recruiters & Employment Agency,employment_agencies,,MA,Springfield,1144.0,"1 Monarch Pl, Suite 1820",42.1019933,-72.5905375,Microsoft,2025-04-30T00:29:30.630Z,0.77,51cfe4ca-f593-4d02-b00d-b3a013ec74d1,Monarch Place,,,OpenStreetMap,2025-04-05T06:09:29.000Z,,springfield-massachusett-connecticut,False
305354f7-05f7-418d-ad43-0b1e7f2cf267,Robert Half,employment_agencies,"['business', 'professional_services']",MA,Springfield,1144.0,1 Monarch Pl,42.1018911,-72.5903755,meta,2025-06-02T07:00:00.000Z,0.9300613496932516,51cfe4ca-f593-4d02-b00d-b3a013ec74d1,Monarch Place,,,OpenStreetMap,2025-04-05T06:09:29.000Z,,springfield-massachusett-connecticut,False
bf959acc-0758-4a7e-a7e3-e4c155950d51,Robert Half Recruiters & Employment Agency,employment_agencies,,FL,Saint Petersburg,33701.0,150 2nd Ave N Ste 1120,27.7734864,-82.6350772,Microsoft,2025-04-30T00:29:30.630Z,0.77,,,,,,,,st-petersburg,False
389c271f-411a-4d91-b5f0-ffa0ab1bc6be,Robert Half,employment_agencies,['professional_services'],FL,St Petersburg,33702.0,877 Executive Center Dr W,27.8606395,-82.645916,meta,2025-06-02T07:00:00.000Z,0.9297091412742382,f3dd13cc-2d23-4e4c-8569-77a5f371789f,Baypoint Commerce Center,,,OpenStreetMap,2021-09-30T00:38:48.000Z,,st-petersburg,False
389c271f-411a-4d91-b5f0-ffa0ab1bc6be,Robert Half,employment_agencies,['professional_services'],FL,St Petersburg,33702.0,877 Executive Center Dr W,27.8606395,-82.645916,meta,2025-06-02T07:00:00.000Z,0.9297091412742382,1113a86c-b509-4249-bce5-9aba5abedd03,ITT Technical Institute,education,school,OpenStreetMap,2018-07-05T07:00:11.000Z,,st-petersburg,False
28ef43b9-0389-4db4-9b7f-03ed5dfcd382,Robert Half,employment_agencies,"['business', 'professional_services']",CA,Sacramento,95815.0,2180 Harvard St,38.6055546,-121.4347929,meta,2025-06-02T07:00:00.000Z,0.9459263554653524,99d2c0d9-50d8-4e56-89c4-2c502f349239,,,,OpenStreetMap,2020-05-31T18:02:10.000Z,,sacramento,False
ac862264-21a5-4f04-ab59-5c022613bb85,Robert Half Recruiters & Employment Agency,employment_agencies,,CA,Sacramento,95815.0,"2180 Harvard St, Suite 250",38.60569123172173,-121.43462684061431,Microsoft,2025-04-30T00:29:40.387Z,0.77,99d2c0d9-50d8-4e56-89c4-2c502f349239,,,,OpenStreetMap,2020-05-31T18:02:10.000Z,,sacramento,False
8d3adf3b-90be-43ed-8735-032d2e523bd3,Robert Half,employment_agencies,['professional_services'],CA,Rancho Cordova,95670.0,3100 Zinfandel Dr,38.5865224,-121.2875236,meta,2025-06-02T07:00:00.000Z,0.9297091412742382,39414c4d-78dc-4eee-9fb8-67391f7eddbe,,,,Microsoft ML Buildings,2022-04-24T00:00:00.000Z,,sacramento,False
84d9da12-1f56-421c-89c1-fc5b5bc71c0f,Robert Half Recruiters & Employment Agency,employment_agencies,['professional_services'],CA,Fresno,93704.0,5250 N Palm Ave,36.8128935,-119.80656,meta,2025-06-02T07:00:00.000Z,0.9459263554653524,846d44c3-6859-4475-b3ce-2403b2e363c8,,commercial,commercial,OpenStreetMap,2024-04-23T06:17:22.000Z,,fresno,False
477dcd0d-bc4f-4651-af36-a86e4d012454,Robert Half Recruiters & Employment Agency,employment_agencies,,CA,Fresno,93704.0,5250 N Palm Ave Ste 225,36.8133335,-119.806495,Microsoft,2025-04-30T00:29:30.630Z,0.77,,,,,,,,fresno,False
1a11747e-1a76-4bca-839d-ed7fc7f51c03,Robert Half Recruiters & Employment Agency,employment_agencies,,FL,Orlando,32801.0,301 E Pine St Ste 200,28.5413339,-81.3741003,Microsoft,2025-04-30T00:29:03.620Z,0.77,,,,,,,,orlando,False
c7449513-4e2c-4585-9ed8-72a7f884705c,Robert Half,employment_agencies,"['business', 'professional_services']",FL,Orlando,32801.0,301 E Pine St,28.5415527,-81.3741126,meta,2025-06-02T07:00:00.000Z,0.9300613496932516,,,,,,,,orlando,False
3144f7bc-099e-4f33-ba62-5c1583836810,Robert Half,employment_agencies,"['business', 'professional_services']",FL,Lake Mary,32746.0,300 Colonial Center Pkwy,28.7909068,-81.3549399,meta,2025-06-02T07:00:00.000Z,0.9297091412742382,d8263297-8045-4485-a51f-2ceff5db613e,,,,OpenStreetMap,2019-07-03T19:52:13.000Z,,orlando,False
0242b452-feb5-4510-9572-347e882c614a,Robert Half Recruiters & Employment Agency,employment_agencies,,FL,Lake Mary,32746.0,300 Colonial Center Pkwy Ste 140,28.790912,-81.354215,Microsoft,2025-04-30T00:29:30.630Z,0.77,,,,,,,,orlando,False
bbc16d10-c32a-450a-832c-2b9edd130e7a,Robert Half,employment_agencies,['professional_services'],CA,Indian Wells,92210.0,74760 Highway 111,33.7224006,-116.3603387,meta,2025-06-02T07:00:00.000Z,0.9784508333782836,83d578f8-2913-4313-b6eb-3b4cb1289b54,,,,Microsoft ML Buildings,2022-05-28T00:00:00.000Z,,indio,False
23b0411d-2b37-4be9-a184-79939d20ddc8,Robert Half,employment_agencies,,TX,Houston,77042.0,10370 Richmond Ave Ste 100,29.7277296,-95.5564059,Microsoft,2018-07-24T02:11:36.330Z,0.77,,,,,,,,houston,False
b3370a8f-a08f-4ae6-9e9d-acf17956027a,Robert Half,employment_agencies,['professional_services'],TX,Houston,77079.0,11700 Katy Fwy,29.7859293,-95.5908373,meta,2025-06-02T07:00:00.000Z,0.9459263554653524,91856038-5f27-45e5-84fd-5662aa70dd7f,Energy Tower I,commercial,commercial,OpenStreetMap,2022-10-28T20:38:01.000Z,,houston,False
eb0293ac-2b03-4964-bc5b-6cd622153d77,Robert Half,professional_services,"['pub', 'business']",TX,Houston,77056.0,1980 Post Oak Blvd,29.74626,-95.4618509,meta,2025-06-02T07:00:00.000Z,0.4929396662387676,a71399e0-5144-4455-8355-0ef08f9d9e51,,,,OpenStreetMap,2021-05-20T20:40:46.000Z,,houston,False
cd3246c9-e80a-4119-a707-97c224312860,Robert Half,employment_agencies,,TX,Houston,77056.0,1980 Post Oak Blvd Ste 1475,29.7530781,-95.4602995,Microsoft,2019-06-13T19:10:17.960Z,0.77,b38d54b1-fd26-4ee7-8a4d-7481c94c03b6,Wells Fargo Tower,commercial,commercial,OpenStreetMap,2019-05-16T03:22:21.000Z,,houston,False
20a316fd-2d66-45ec-b0b3-54f9abf69f61,Robert Half Legal,employment_agencies,,TX,Houston,77002.0,711 Louisiana St 12th Fl Ste 1200,29.757196,-95.371643,Microsoft,2017-01-12T19:31:42.667Z,0.77,3862f226-58b4-40b2-98a2-1052afe724c4,Three Allen Center,commercial,commercial,OpenStreetMap,2015-08-24T16:10:02.000Z,,houston,False
fe2e7f46-2dd4-4784-bd58-72e02534f74c,Robert Half,employment_agencies,,TX,Houston,77058.0,17225 El Camino Real Ste 260,29.5521089,-95.1146314,Microsoft,2019-06-13T19:10:17.960Z,0.77,a781cacd-0c82-463d-869f-4661661c3f5e,Merrill Lynch,,,OpenStreetMap,2023-05-30T21:20:56.000Z,,houston,False
389f226b-6fe1-49e1-8000-3d8c3e415ff5,Robert Half,employment_agencies,"['business', 'professional_services']",TX,The Woodlands,77380.0,1780 Hughes Landing Blvd,30.1736539,-95.4694911,meta,2025-06-02T07:00:00.000Z,0.9297091412742382,e5c52a4e-7dfd-4515-8de7-49aeebba0fce,,commercial,commercial,OpenStreetMap,2025-05-06T20:54:09.000Z,,houston,False
eff08fa0-5b19-4fb0-833d-d32fddf888fb,Robert Half Recruiters & Employment Agency,employment_agencies,,TX,The Woodlands,77380.0,1780 Hughes Landing Blvd Ste 975,30.1736626,-95.4692991,Microsoft,2025-04-30T00:29:30.630Z,0.77,,,,,,,,houston,False
6774cb21-1aa4-4d85-9a63-867bc6a56c21,Robert Half Management Resources,employment_agencies,,KY,Louisville,40222.0,9300 Shelbyville Rd Ste 920,38.245768,-85.578749,Microsoft,2017-01-12T19:31:42.667Z,0.77,,,,,,,,louisville,False
5e4e8f35-cd1d-45da-bc4f-d498592db1f0,Robert Half,employment_agencies,"['business', 'professional_services']",KY,Louisville,40222.0,9300 Shelbyville Rd,38.2458527,-85.5787579,meta,2025-06-02T07:00:00.000Z,0.9297091412742382,c4f420e8-ba4f-4371-8c0a-baea85c04a83,Hurstbourne Place Building,,,OpenStreetMap,2015-04-08T00:38:34.000Z,,louisville,False
4bdfeac6-6a2d-4281-a10b-72acb17db6aa,Robert Half,employment_agencies,"['business', 'professional_services']",CA,San Francisco,94111.0,50 California St,37.7938589,-122.3974869,meta,2025-06-02T07:00:00.000Z,0.9459263554653524,817b9eea-3ff1-4b60-a5c8-e70a3c5b6ee8,50 California Street,commercial,commercial,OpenStreetMap,2021-05-18T03:24:44.000Z,,san-francisco,False
1af6e68f-f102-4f7f-97b1-caf7e5d05b0f,Robert Half Recruiters & Employment Agency,employment_agencies,,CA,San Francisco,94111.0,50 California St 10th Fl,37.7936069,-122.3972797,Microsoft,2025-04-30T00:29:30.630Z,0.77,,,,,,,,san-francisco,False
d029985b-0652-4f27-bf36-8449faa9cd0b,Robert Half International,employment_agencies,"['professional_services', 'financial_service']",CA,San Mateo,94403.0,2929 Campus Dr,37.537146,-122.327885,meta,2025-06-02T07:00:00.000Z,0.242152466367713,a59b19ae-0274-41e8-b83b-1f1ce70a6d5a,,,,OpenStreetMap,2016-01-19T12:54:49.000Z,,san-francisco,False
1b2c660d-39be-4b77-bc08-abc5fd4842de,Robert Half,employment_agencies,"['professional_services', 'event_planning']",CA,San Mateo,94404.0,1850 Gateway Dr,37.556705,-122.2800817,meta,2025-06-02T07:00:00.000Z,0.4929396662387676,274e5d00-e3b8-4f2b-89a8-37488784ead9,,commercial,office,OpenStreetMap,2022-04-19T10:49:18.000Z,,san-francisco,True
6ef73808-4f64-46da-a002-8ade3d0e1777,Robert Half Recruiters & Employment Agency,employment_agencies,,CA,Foster City,94404.0,919 E Hillsdale Blvd Ste 275,37.5552578,-122.2761768,Microsoft,2025-04-30T00:29:03.620Z,0.77,,,,,,,,san-francisco,False
fb5a7008-4dc5-446f-a8d0-cc9629000087,Robert Half,employment_agencies,"['professional_services', 'accountant']",CA,Oakland,94612.0,1999 Harrison St,37.8079586,-122.2648084,meta,2025-06-02T07:00:00.000Z,0.9459263554653524,7c4b6a6a-a3ef-44da-8268-2b13a163702b,Lake Merritt Plaza Building,,,OpenStreetMap,2024-06-05T16:32:47.000Z,,san-francisco,False
adee57fa-d8a5-4494-beda-463427d3c573,Robert Half Recruiters & Employment Agency,employment_agencies,"['corporate_office', 'private_establishments_and_corporates']",CA,Oakland,94612.0,1999 Harrison St Ste 1950,37.8075592,-122.2647271,Microsoft,2025-04-30T00:29:30.630Z,0.77,,,,,,,,san-francisco,True
d71a2cc3-80eb-40b3-a186-f51a9abee804,Robert Half,employment_agencies,"['business', 'professional_services']",VA,Richmond,23219.0,1051 E Cary St,37.5360644,-77.4354724,meta,2025-06-02T07:00:00.000Z,0.9784508333782836,68204c9d-7396-4f82-b357-3865123b4004,James Center,commercial,office,OpenStreetMap,2022-07-12T11:33:22.000Z,,richmond,False
03c51cd0-21d8-4ce1-8160-dafa99d13d82,Robert Half Recruiters & Employment Agency,employment_agencies,,VA,Richmond,23219.0,1051 E Cary St Ste 607,37.5362452,-77.4352391,Microsoft,2025-04-30T00:29:30.630Z,0.77,,,,,,,,richmond,False
a241571b-ee38-4aae-abe1-3c10ecffd110,Robert Half,employment_agencies,"['business', 'professional_services']",NY,Albany,12211.0,20 Corporate Woods Blvd,42.6800227,-73.764634,meta,2025-06-02T07:00:00.000Z,0.9415384615384615,9ca9fc49-213f-467c-b67c-e15aa9923003,,,,OpenStreetMap,2018-11-02T16:16:57.000Z,,albany,False
b58b3088-5a1e-401c-b265-e0ee78678e88,Robert Half,employment_agencies,"['business', 'professional_services']",CA,Modesto,95354.0,1020 10th St,37.6413365,-121.0011794,meta,2025-06-02T07:00:00.000Z,0.9459263554653524,abdc2ba8-6ad8-47d4-9424-62f3e6da3e49,,,,OpenStreetMap,2024-05-17T16:13:59.000Z,,modesto,False
f5a487a8-9235-4ee3-bff2-1ab379223cdc,Robert Half Recruiters & Employment Agency,employment_agencies,,CA,Modesto,95354.0,"1020 10th St, Suite 303",37.64137955210476,-121.00110910371166,Microsoft,2025-04-30T00:29:30.630Z,0.77,abdc2ba8-6ad8-47d4-9424-62f3e6da3e49,,,,OpenStreetMap,2024-05-17T16:13:59.000Z,,modesto,False
8f334a93-f510-426c-ac9b-4fd18982f7e3,Robert Half,professional_services,"['employment_agencies', 'business']",TX,Fort Worth,76107.0,1751 River Run,32.7267946,-97.3600371,meta,2025-06-02T07:00:00.000Z,0.9459263554653524,ae3a9339-e135-490a-8cf7-df46720c6954,,,,OpenStreetMap,2021-11-30T01:54:59.000Z,,fort-worth,False
843433fb-926d-424b-9af4-832277143638,Robert Half Recruiters & Employment Agency,employment_agencies,,TX,Fort Worth,76107.0,1751 River Run Ste 305,32.7269382,-97.3606795,Microsoft,2025-04-30T00:29:40.387Z,0.77,,,,,,,,fort-worth,False
6ed829bc-8191-4349-a535-7d87e605e17a,Robert Half Technology,employment_agencies,"['corporate_office', 'private_establishments_and_corporates']",TX,Fort Worth,76102.0,1300 Summit Ave Ste 512,32.745553,-97.342243,Microsoft,2018-07-24T02:11:36.330Z,0.77,ec0ee12b-720a-4c8a-8a22-181ad85e73fd,,commercial,office,OpenStreetMap,2018-12-14T23:43:38.000Z,,fort-worth,True
e2af1c0a-b862-4e2f-8641-77dafd648031,Robert Half Technology,employment_agencies,"['corporate_office', 'private_establishments_and_corporates']",TX,Fort Worth,76102.0,1300 Summit Ave Ste 512,32.746397,-97.341602,Microsoft,2017-01-12T19:31:42.667Z,0.77,,,,,,,,fort-worth,True
daf418d9-4f4c-4f9c-84d3-9dab298dbe83,Robert Half,employment_agencies,,TX,Arlington,76006.0,2000 E Lamar Blvd Ste 260,32.762857,-97.077688,Microsoft,2019-03-13T18:01:26.750Z,0.77,,,,,,,,fort-worth,False
854b606e-3ef5-4459-94ad-9479814e369e,Robert Half Recruiters & Employment Agency,employment_agencies,,AL,Birmingham,35243.0,3535 Grandview Pkwy Ste 340,33.439207,-86.723327,Microsoft,2025-04-30T00:29:03.620Z,0.77,,,,,,,,birmingham,False
0bc007cb-e94f-4d3d-a96b-facb19015592,Robert Half,employment_agencies,"['business', 'financial_advising']",AL,Birmingham,35243.0,3535 Grandview Pkwy,33.4390393,-86.7223899,meta,2025-06-02T07:00:00.000Z,0.9459263554653524,03a12319-98bc-4832-8d8c-6386aea79caf,Grandview I,commercial,office,OpenStreetMap,2023-09-14T01:42:47.000Z,,birmingham,False
6fa088d2-6653-4e7c-9df0-53465a492171,Robert Half,employment_agencies,"['business', 'professional_services']",FL,Miami,33126.0,6505 Waterford District Dr,25.7832039,-80.3025195,meta,2025-06-02T07:00:00.000Z,0.9459263554653524,f0f91ed5-b5bb-4267-a4c9-85fd2fc5a175,,,,OpenStreetMap,2018-05-20T15:09:39.000Z,,miami,False
107662e2-4bda-45a1-9450-3d33ff5f5ce0,Robert Half Recruiters & Employment Agency,employment_agencies,,FL,Miami,33126.0,6505 Waterford District Dr Ste 440 uite 445,25.7832148,-80.2994546,Microsoft,2025-04-30T00:29:30.630Z,0.77,,,,,,,,miami,False
61574fb5-7b9f-4468-ac4d-d4194437d25f,Robert Half Recruiters & Employment Agency,employment_agencies,,FL,Miami,33131.0,1221 Brickell Ave Ste 860,25.7614501,-80.1918502,Microsoft,2025-04-30T00:29:30.630Z,0.77,,,,,,,,miami,False
836e184e-dc1c-432c-92c9-328c707db0a7,Robert Half,employment_agencies,"['business', 'professional_services']",FL,Miami,33131.0,1221 Brickell Ave,25.7610945,-80.1911271,meta,2025-06-02T07:00:00.000Z,0.9415384615384615,09acdf5b-69f6-4e96-9ffe-a72d30de2520,1221 Brickell,commercial,commercial,OpenStreetMap,2019-05-07T16:55:21.000Z,,miami,False
3e767b9c-d6dc-4334-bf26-a6178225020d,Robert Half,employment_agencies,"['employment_law', 'doctor']",FL,Miami,33131.0,"One Brickell Square, 801 Brickell Ave",25.7654453,-80.1899453,meta,2025-06-02T07:00:00.000Z,0.3376623376623376,56734f13-ede6-4470-8aae-056190d589aa,,transportation,parking,OpenStreetMap,2020-06-29T21:32:36.000Z,,miami,False
1f191719-1e06-4e8e-a3a8-2cdd15fa2d7a,Robert Half,employment_agencies,"['business', 'professional_services']",FL,Fort Lauderdale,33301.0,200 E Broward Blvd,26.1219117,-80.1408646,meta,2025-06-02T07:00:00.000Z,0.9415384615384615,828033e2-2190-462b-9ebf-557871e29b2d,,,,OpenStreetMap,2018-07-26T13:26:30.000Z,,miami,False
086b2a91-de38-46f9-bf04-8e2a99f4490d,Robert Half,employment_agencies,"['business', 'professional_services']",FL,Boca Raton,33431.0,2600 N Military Trl,26.3748511,-80.1200893,meta,2025-06-02T07:00:00.000Z,0.9204819277108434,5a971d66-b25b-479c-9c71-fe73978f31f0,,,,OpenStreetMap,2015-10-22T20:00:52.000Z,,miami,False
93bd71a4-118a-4a63-9600-ef23df6e8278,Robert Half Recruiters & Employment Agency,coworking_space,"['employment_agencies', 'business_to_business_services', 'business_to_business']",FL,Boca Raton,33431.0,2600 N Military Trl Ste 125,26.3749594,-80.1200307,Microsoft,2025-04-30T00:29:03.620Z,0.77,,,,,,,,miami,True
595b3b32-8edf-4f07-9fe6-9ec9b8bfead6,Robert Half Recruiters & Employment Agency,employment_agencies,['professional_services'],FL,West Palm Beach,33401.0,250 S Australian Ave,26.7127376,-80.0644756,meta,2025-06-02T07:00:00.000Z,0.9204819277108434,3aee979f-b8b1-471c-bd3e-32edef1fe609,,,,OpenStreetMap,2023-07-04T12:02:57.000Z,,miami,False
0c5d7630-f5fb-4b1b-96e1-22d97795e1d1,Robert Half Management Resources,employment_agencies,,CA,Walnut Creek,94597.0,1255 Treat Blvd Ste 200,37.9275199,-122.060013,Microsoft,2018-07-24T02:11:36.330Z,0.77,,,,,,,,concord,False
af153080-03cf-45b3-9040-9ed04aa7cbd4,Robert Half Recruiters & Employment Agency,employment_agencies,,CA,Walnut Creek,94597.0,"3003 Oak Rd, Suite 415",37.92920340269187,-122.05839364968548,Microsoft,2025-04-30T00:29:30.630Z,0.77,8bd2b34c-592a-4f47-bd95-1c04d74636b8,,,,OpenStreetMap,2018-11-23T19:44:04.000Z,,concord,False
82ba10d0-a8e7-41c1-b9c1-0b0089ca2db8,Robert Half,employment_agencies,['professional_services'],CA,Walnut Creek,94597.0,3003 Oak Rd,37.9292624,-122.0582504,meta,2025-06-02T07:00:00.000Z,0.9459263554653524,8bd2b34c-592a-4f47-bd95-1c04d74636b8,,,,OpenStreetMap,2018-11-23T19:44:04.000Z,,concord,False
0b3c0cd7-ef06-4a24-9280-db5641ab5fde,Robert Half International,employment_agencies,['professional_services'],CA,Pleasanton,94588.0,5720 Stoneridge Dr,37.690782,-121.893494,meta,2025-06-02T07:00:00.000Z,0.3961437335670464,2534cc20-5952-421f-8d31-a426089a8ce3,,,,OpenStreetMap,2020-09-18T20:13:28.000Z,,concord,False
25842043-ffae-48f2-bce0-8c4c2a7d36d2,Robert Half Recruiters & Employment Agency,employment_agencies,,CA,San Ramon,94583.0,2603 Camino Ramon Ste 100,37.7686092,-121.9609459,Microsoft,2025-04-30T00:29:03.620Z,0.77,,,,,,,,concord,False
999209ff-fa45-4ea1-bb8b-254624336d40,Robert Half,employment_agencies,"['public_service_and_government', 'business']",CA,San Ramon,94583.0,2603 Camino Ramon,37.7691419,-121.9600894,meta,2025-06-02T07:00:00.000Z,0.9784508333782836,a34cb239-0dac-4e14-9aea-74dff71affb8,,commercial,office,OpenStreetMap,2022-09-11T10:21:48.000Z,,concord,False
1008538b-48f9-4618-9a48-92ebd1a00e14,Robert Half (RHT Managed Services),employment_agencies,,CA,San Ramon,94583.0,2613 Camino Ramon,37.7685205,-121.9586813,Microsoft,2016-10-13T01:48:20.227Z,0.77,,,,,,,,concord,False
ebd79807-99e6-493f-a024-1d0e9aaf7f47,Robert Half,employment_agencies,['professional_services'],MN,Bloomington,55437.0,8500 Normandale Lake Blvd,44.8534214,-93.3564788,meta,2025-06-02T07:00:00.000Z,0.9204819277108434,de691a84-a3b6-4d67-a557-f82d8493f50b,8500 Tower,,,OpenStreetMap,2017-09-24T19:12:19.000Z,,minneapolis,False
cb7abc66-2cd7-4f2e-ab3c-0e00f5e7955e,Robert Half Recruiters & Employment Agency,employment_agencies,"['corporate_office', 'private_establishments_and_corporates']",MN,Bloomington,55437.0,8500 Normandale Lake Blvd Ste 1010,44.8534298,-93.356183,Microsoft,2025-04-30T00:29:03.620Z,0.77,,,,,,,,minneapolis,True
16e3a372-2c84-484a-84bb-782c120c9f31,Robert Half Recruiters & Employment Agency,employment_agencies,,MN,Minnetonka,55305.0,601 Carlson Pkwy Ste 1200,44.9731284,-93.4660553,Microsoft,2025-04-30T00:29:03.620Z,0.77,,,,,,,,minneapolis,False
0936f8b7-17d5-4537-b9d0-a4903613703c,Robert Half,employment_agencies,"['business', 'professional_services']",MN,Minnetonka,55305.0,601 Carlson Pkwy,44.9732712,-93.4658746,meta,2025-06-02T07:00:00.000Z,0.9459263554653524,0bae232c-c141-4fc7-800d-b08c98b52d4c,,,,OpenStreetMap,2014-08-20T18:28:12.000Z,,minneapolis,False
c7e85a50-ca3d-49dd-8980-053cfc9424bf,Robert Half,employment_agencies,"['business', 'professional_services']",MN,Minneapolis,55402.0,800 Nicollet Mall,44.9755075,-93.2736784,meta,2025-06-02T07:00:00.000Z,0.9459263554653524,11f189d6-d964-43a9-82ca-e137d2d5b5ed,US Bancorp Center,commercial,office,OpenStreetMap,2025-03-01T21:41:28.000Z,,minneapolis,False
ff4bc353-336b-4ee4-a20b-d79c971ae07e,Robert Half,employment_agencies,"['business', 'professional_services']",MN,St Paul,55101.0,30 7th St E,44.9478969,-93.0954875,meta,2025-06-02T07:00:00.000Z,0.9415384615384615,22531157-1883-4cef-9f2f-f4b2e5340eaf,Wells Fargo Place,commercial,office,OpenStreetMap,2025-05-14T16:27:24.000Z,,minneapolis,False
32e0254b-d2d1-43e1-8e8a-bb4489375455,Robert Half,employment_agencies,,CA,Irvine,92612.0,18200 Von Karman Ave Ste 800,33.6777058,-117.8514527,Microsoft,2019-06-13T19:10:17.960Z,0.77,179a636d-6ebd-4dee-b111-d6c9fb45e9f5,,,,OpenStreetMap,2023-12-21T00:39:27.000Z,,los-angeles,False
eb98d67b-3e17-4b31-bda1-80e86ba023ef,Robert Half Recruiters & Employment Agency,employment_agencies,,CA,Irvine,92614.0,1920 Main St Ste 550,33.6849858,-117.8524488,Microsoft,2025-04-30T00:29:30.630Z,0.77,,,,,,,,los-angeles,False
b6e135b6-e9eb-49b9-872e-9c1c0116e2bd,Robert Half Recruiters & Employment Agency,employment_agencies,,CA,El Segundo,90245.0,300 Continental Blvd Ste 415,33.9200419,-118.3907688,Microsoft,2025-04-30T00:29:03.620Z,0.77,,,,,,,,los-angeles,False
cf9c901c-a699-41b2-81a1-1f8764b92747,Robert Half,employment_agencies,['professional_services'],CA,El Segundo,90245.0,300 Continental Blvd,33.9198143,-118.3898795,meta,2025-06-02T07:00:00.000Z,0.9415384615384615,1e310000-e14d-46f5-825f-c41ad96722e8,,commercial,commercial,OpenStreetMap,2024-03-28T19:04:48.000Z,,los-angeles,False
2f27ef28-846b-4928-bcdc-5c37dc367076,Robert Half,employment_agencies,"['business', 'professional_services']",CA,Long Beach,90802.0,100 Oceangate,33.7668357,-118.1989539,meta,2025-06-02T07:00:00.000Z,0.9297091412742382,74461053-e92d-4d87-9c85-30b156450e7c,,commercial,commercial,OpenStreetMap,2016-09-08T17:34:25.000Z,,los-angeles,False
9b6b866a-961e-434e-bf13-ac7b086958b0,Robert Half Finance & Accounting,employment_agencies,,CA,Torrance,90502.0,990 W 190th St Ste 290,33.856566,-118.294651,Microsoft,2017-01-12T19:31:42.667Z,0.77,f8bc3524-2a9e-4e3e-ad2a-858f975dfd66,,commercial,commercial,OpenStreetMap,2016-04-09T08:28:49.000Z,,los-angeles,False
8f701a9f-e7b2-4841-90d3-c29186f8d477,Robert Half Finance & Accounting,employment_agencies,,CA,Torrance,90502.0,990 W 190th St Ste 290,33.8583253,-118.2949434,Microsoft,2018-07-24T02:11:36.330Z,0.77,,,,,,,,los-angeles,False
b96cad23-2e94-4f24-856f-b68bedfb7eb3,Robert Half,employment_agencies,"['business', 'financial_service']",CA,Torrance,90502.0,970 W 190th St,33.8577151,-118.2930135,meta,2025-06-02T07:00:00.000Z,0.9415384615384615,e00133f2-b7ed-42bc-b308-2d79a8ff29f6,,commercial,commercial,OpenStreetMap,2016-04-09T08:29:18.000Z,,los-angeles,False
f4309569-a879-4388-959c-eeddccff104f,Robert Half,employment_agencies,['professional_services'],CA,Los Angeles,90024.0,10960 Wilshire Blvd,34.0580189,-118.4460991,meta,2025-06-02T07:00:00.000Z,0.9459263554653524,ca6cdabd-fe9b-43a8-aa98-00a15fd79cbc,UCLA Extension (UNEX) Admin,commercial,office,OpenStreetMap,2021-07-16T08:17:24.000Z,,los-angeles,False
11103930-3168-484d-b98e-b8c1cfbd67ff,Robert Half,employment_agencies,"['business', 'professional_services']",CA,Los Angeles,90017.0,865 S Figueroa St,34.046855,-118.262922,meta,2025-06-02T07:00:00.000Z,0.242152466367713,a9ad49ee-ee61-4461-9839-a71b778f6fe0,Manulife Investment Management,commercial,commercial,OpenStreetMap,2024-06-05T15:10:39.000Z,,los-angeles,False
00be9394-f067-4bf2-aa82-567cc4dd5593,Robert Half Recruiters & Employment Agency,employment_agencies,,CA,Los Angeles,90071.0,515 Flower St Floor 6 Ste #650,34.0512258,-118.2564948,Microsoft,2025-05-07T03:33:48.053Z,0.77,,,,,,,,los-angeles,False
cf469092-00d9-44de-967d-57a0e84312e9,Robert Half Recruiters & Employment Agency,employment_agencies,"['business', 'public_service_and_government']",CA,Woodland Hills,91367.0,21800 Burbank Blvd,34.1723627,-118.6022482,meta,2025-06-02T07:00:00.000Z,0.9459263554653524,ff07d336-b672-4a72-837f-3bfa0033bd59,,commercial,commercial,OpenStreetMap,2016-07-21T05:30:48.000Z,,los-angeles,False
4c4b79bd-c1d3-432e-86e7-c69b5eb344cf,Robert Half Recruiters & Employment Agency,employment_agencies,,CA,Woodland Hills,91367.0,21800 Burbank Blvd Ste 225,34.172894,-118.6026409,Microsoft,2025-04-30T00:29:03.620Z,0.77,,,,,,,,los-angeles,False
676109f9-b13f-46d3-a0de-a5f200aac0be,Robert Half,employment_agencies,"['business', 'professional_services']",CA,Burbank,91502.0,101 S 1st St,34.1790655,-118.3100432,meta,2025-06-02T07:00:00.000Z,0.9784508333782836,,,,,,,,los-angeles,False
b2d9f9b4-8800-4144-b9a9-05f66ddae4bb,Robert Half Recruiters & Employment Agency,employment_agencies,,CA,Burbank,91502.0,101 S 1st St Ste 304,34.1794172,-118.3096243,Microsoft,2025-04-30T00:29:03.620Z,0.77,,,,,,,,los-angeles,False
17c9ba3f-1d3d-40c8-ac6d-2ee91b370f4a,Robert Half,employment_agencies,['professional_services'],CA,Pasadena,91101.0,790 E Colorado Blvd,34.1454446,-118.1340238,meta,2025-06-02T07:00:00.000Z,0.9297091412742382,a19c8ba7-e9e7-4ecc-a465-21cdf9acf8d2,,,,OpenStreetMap,2014-11-12T17:36:20.000Z,,los-angeles,False
4c128dff-9226-4c1b-bd75-e51e1f301ca2,Robert Half,employment_agencies,"['business', 'public_service_and_government']",CA,Cerritos,90703.0,17871 Park Plaza Dr,33.8692822,-118.0630218,meta,2025-06-02T07:00:00.000Z,0.9300613496932516,a03c88e2-1eff-44dc-915b-f289cab0c41e,,commercial,commercial,OpenStreetMap,2024-07-27T06:11:42.000Z,,los-angeles,False
ef1b4c1a-430f-4787-84dc-04b5527003c2,Robert Half Recruiters & Employment Agency,employment_agencies,,CA,Cerritos,90703.0,17871 Park Plaza Dr Ste 280,33.8692607,-118.0629009,Microsoft,2025-04-30T00:29:03.620Z,0.77,,,,,,,,los-angeles,False
d0975fe3-e1a4-4cd1-b089-de7d9cb58636,Robert Half,employment_agencies,"['professional_services', 'financial_service']",CA,Orange,92868.0,1 City Blvd W,33.7806433,-117.8931369,meta,2025-06-02T07:00:00.000Z,0.9415384615384615,,,,,,,,los-angeles,False
4f079e7a-066c-4323-a4e0-c5b6ba51dd2e,Robert Half Management Resources,employment_agencies,,CA,City Of Industry,91746.0,13181 Crossroads Pkwy N Ste 110,34.0296197,-118.0154679,Microsoft,2018-07-24T02:11:36.330Z,0.77,,,,,,,,los-angeles,False
6d9fcc1d-8f4a-4c44-a798-660fbd42f4e2,Robert Half,employment_agencies,"['business', 'financial_service']",CA,City of Industry,91746.0,13181 Crossroads Pkwy N,34.0300936,-118.0155781,meta,2025-06-02T07:00:00.000Z,0.9459263554653524,1101452b-6032-48bf-aeb1-073408d9329a,,,,OpenStreetMap,2019-06-30T18:07:44.000Z,,los-angeles,False
c7b00831-edc7-42f0-bffe-23b0041ad1ea,Robert Half Recruiters & Employment Agency,employment_agencies,,CA,City of Industry,91746.0,"13181 Crossroads Pkwy N, Suite 110",34.030157402388056,-118.01538686255697,Microsoft,2025-04-30T00:29:30.630Z,0.77,1101452b-6032-48bf-aeb1-073408d9329a,,,,OpenStreetMap,2019-06-30T18:07:44.000Z,,los-angeles,False
002469f3-dd73-443a-8f33-fcf342416ad7,Robert Half Management Resources,employment_agencies,,CA,City Of Industry,91746.0,13181 Crossroads Pkwy N Ste 110,34.030257,-118.015,Microsoft,2017-01-12T19:31:42.667Z,0.77,1101452b-6032-48bf-aeb1-073408d9329a,,,,OpenStreetMap,2019-06-30T18:07:44.000Z,,los-angeles,False
b9b8213b-bb8e-4758-bac8-624992c7768e,Robert Half Recruiters & Employment Agency,employment_agencies,"['business', 'professional_services']",NY,Rochester,14604.0,255 East Ave,43.1557958,-77.5981522,meta,2025-06-02T07:00:00.000Z,0.9459263554653524,e5f658dc-7afc-492d-9585-cd0bb40d0bf0,,,,OpenStreetMap,2021-05-31T14:05:55.000Z,,rochester,False
7ec861d3-c6ad-43d0-98a8-47381c65d6e9,Robert Half Recruiters & Employment Agency,employment_agencies,,TX,Coppell,75019.0,3121 Olympus Blvd Ste 200,32.9359729,-96.9838945,Microsoft,2025-04-30T00:29:03.620Z,0.77,,,,,,,,denton-lewisville,False
22900903-0dd8-446f-a28b-3dc82a80ef18,Robert Half,employment_agencies,"['business', 'professional_services']",TX,Dallas,75240.0,13727 Noel Rd,32.9347301,-96.8197087,meta,2025-06-02T07:00:00.000Z,0.9297091412742382,88e1d586-4861-4c6b-be51-708b538deabf,,commercial,office,OpenStreetMap,2019-07-24T14:56:03.000Z,,denton-lewisville,False
ad3d6f62-21c6-4e1b-9812-aff0415d673c,Robert Half Recruiters & Employment Agency,employment_agencies,"['corporate_office', 'private_establishments_and_corporates']",TX,Dallas,75240.0,13727 Noel Rd Ste 800,32.9347804,-96.8194776,Microsoft,2025-04-30T00:29:30.630Z,0.77,,,,,,,,denton-lewisville,True
b74b56c4-17a4-445e-86a5-5a5375939a81,Robert Half,employment_agencies,"['business', 'professional_services']",TX,Dallas,75254.0,14951 Dallas Pkwy,32.9521913,-96.8235217,meta,2025-06-02T07:00:00.000Z,0.9784508333782836,a09afc70-d538-421c-ba29-ca47f4ac0cf2,The Addison,commercial,office,OpenStreetMap,2025-02-19T21:36:54.000Z,,denton-lewisville,False
6e7b1329-4782-45ed-895d-e9a2c00b42d0,Robert Half,employment_agencies,,TX,Plano,75024.0,6900 Dallas Pkwy Ste 150,33.0727387,-96.8236666,Microsoft,2019-06-13T19:10:17.960Z,0.77,dce5c11d-94eb-4571-987c-aee42f72b6b8,,commercial,office,OpenStreetMap,2023-08-07T18:52:34.000Z,,denton-lewisville,False
4b4a2ef6-6d74-4b9c-aa96-7ccdc73e7209,Robert Half Recruiters & Employment Agency,employment_agencies,,GA,Savannah,31405.0,"6001 Chatham Center Drive, Suite 270",32.07178822564981,-81.15109454546781,Microsoft,2025-04-30T00:29:03.620Z,0.77,74d2ed2c-f0e9-41d8-b922-8e335d51e5a2,,,,OpenStreetMap,2021-05-18T15:24:17.000Z,,savannah,False
eca90706-1f14-40fd-97b4-d8b89ca70008,Robert Half,employment_agencies,['professional_services'],GA,Savannah,31401.0,2 E Bryan St,32.0803246,-81.0911623,meta,2025-06-02T07:00:00.000Z,0.4929396662387676,e007d3ac-a785-47a8-a728-14d673fcdb03,Johnson Square Business Center,,,OpenStreetMap,2025-01-17T15:59:31.000Z,,savannah,False
c8c4946f-e95a-4128-9b9b-50917ba87a87,Robert Half Recruiters & Employment Agency,employment_agencies,,MA,Framingham,1701.0,161 Worcester Rd Ste 203,42.2986922,-71.401509,Microsoft,2025-04-30T00:29:03.620Z,0.77,,,,,,,,boston,False
f0c919e3-f709-4975-b031-1d723e82eeae,Robert Half,employment_agencies,['professional_services'],MA,Framingham,1701.0,161 Worcester Rd,42.2990888,-71.4015955,meta,2025-06-02T07:00:00.000Z,0.9297091412742382,2d2c2697-5a92-453e-b0ab-a2bd740d2058,,,,OpenStreetMap,2019-05-11T21:53:16.000Z,,boston,False
81416aad-6297-44ad-a67f-01c8c22ec0ae,Robert Half,employment_agencies,"['business', 'professional_services']",MA,Quincy,2169.0,4 Batterymarch Park,42.2299746,-71.0245251,meta,2025-06-02T07:00:00.000Z,0.9415384615384615,84297275-5bda-4ecd-9f86-909f13308cd9,4 Batterymarch Park,,,OpenStreetMap,2018-01-09T22:12:32.000Z,,boston,False
542e9ec6-8815-4168-8b1b-d93f09731a33,Robert Half Recruiters & Employment Agency,employment_agencies,,MA,Boston,2110.0,125 High St 17th Fl,42.3553411,-71.0539214,Microsoft,2025-04-30T00:29:30.630Z,0.77,,,,,,,,boston,False
b91851c6-0e7b-43c0-b9b4-93e5eb38725f,Robert Half,employment_agencies,"['business', 'professional_services']",MA,Boston,2110.0,125 High St,42.3558517,-71.0531693,meta,2025-06-02T07:00:00.000Z,0.242152466367713,72e5e563-c7f7-4957-a0f5-839ce54e5a26,Oliver Street Tower,commercial,commercial,OpenStreetMap,2020-07-30T18:42:17.000Z,,boston,False
35f2812c-1849-45fb-a17a-d38b6b25dd57,Robert Half Finance & Accounting,employment_agencies,,MA,Burlington,1803.0,77 S Bedford St Ste 201,42.4852171,-71.198726,Microsoft,2018-07-24T02:11:36.330Z,0.77,,,,,,,,boston,False
57c445a8-5c8d-4da7-8c2f-c5a352a3a915,Robert Half,employment_agencies,['professional_services'],MA,Cambridge,2140.0,125 Cambridge Park Dr,42.3951939,-71.1457431,meta,2025-06-02T07:00:00.000Z,0.9415384615384615,fbda29ec-41af-444a-aa71-ea220b05ef9b,,commercial,office,OpenStreetMap,2024-05-13T18:02:25.000Z,,boston,False
c3e291c2-b092-47cc-8493-4705d889b613,Robert Half Recruiters and Employment Agency,employment_agencies,"['business', 'professional_services']",MA,Burlington,1803.0,25 Corporate Dr,42.4948007,-71.1896778,meta,2025-06-02T07:00:00.000Z,0.9415384615384615,1875c319-e45f-4df3-bb13-f30c75670f11,,,,OpenStreetMap,2016-10-12T23:08:41.000Z,,boston,False
84a580a8-2c54-4786-96cc-26d13ce15e24,Robert Half,employment_agencies,"['business', 'professional_services']",MA,Danvers,1923.0,222 Rosewood Dr,42.563764,-70.9836336,meta,2025-06-02T07:00:00.000Z,0.9415384615384615,e8f9ca92-f4be-4e11-b37b-26e69aef13e9,The Tower,commercial,office,OpenStreetMap,2022-04-13T06:13:16.000Z,,boston,False
096ab974-2b06-4e8a-9500-10d3dd1d1de6,Robert Half,employment_agencies,['professional_services'],DE,Wilmington,19801.0,500 Delaware Ave,39.7476593,-75.5522346,meta,2025-06-02T07:00:00.000Z,0.242152466367713,8fa5ba15-0456-4cda-8b3d-5212bb504e8a,Gateway Plaza,,,OpenStreetMap,2018-06-29T15:05:48.000Z,,philadelphia,False
c1ba2416-c895-4fce-a937-0863757c2417,Robert Half Recruiters & Employment Agency,employment_agencies,,DE,Wilmington,19803.0,"2 Righter Parkway, Delaware Corporate Center II, Ste 310",39.8133737,-75.5507244,Microsoft,2025-04-30T00:29:03.620Z,0.77,,,,,,,,philadelphia,False
4489d7a9-911b-48e7-9718-d40921d1966c,Robert Half Recruiters & Employment Agency,employment_agencies,,PA,Wayne,19087.0,460 E Swedesford Rd Ste 3020,40.0758471,-75.4234468,Microsoft,2025-04-30T00:29:03.620Z,0.77,,,,,,,,philadelphia,False
2efea421-bd21-4359-bce6-395112f95167,Robert Half,employment_agencies,"['business', 'professional_services']",PA,Wayne,19087.0,460 E Swedesford Rd,40.0755478,-75.4230251,meta,2025-06-02T07:00:00.000Z,0.9459263554653524,,,,,,,,philadelphia,False
93348ad3-5bcb-42ac-93db-cb9647d0ec97,Robert Half Recruiters & Employment Agency,employment_agencies,"['corporate_office', 'private_establishments_and_corporates']",PA,Philadelphia,19103.0,1735 Market St 25th Fl,39.9531381,-75.1696274,Microsoft,2025-04-30T00:29:40.387Z,0.77,,,,,,,,philadelphia,True
5906158d-3b13-408f-9875-23ddfbc1a29f,Robert Half,employment_agencies,"['business', 'professional_services']",PA,Philadelphia,19103.0,1735 Market St,39.9539189,-75.1695205,meta,2025-06-02T07:00:00.000Z,0.9204819277108434,3939ef6d-7522-48bd-802c-a168f2ff8bfd,BNY Mellon Center,commercial,commercial,OpenStreetMap,2023-07-01T16:47:38.000Z,,philadelphia,False
c85d962e-7106-42cf-99bd-523cdda0aa0e,Robert Half Technology,temp_agency,"['employment_agencies', 'corporate_office', 'private_establishments_and_corporates']",NJ,Moorestown,8057.0,308 Harper Dr Ste 300,39.945859,-74.955758,Microsoft,2017-01-12T19:31:42.667Z,0.77,,,,,,,,philadelphia,True
c8b2fa87-d481-44a3-9fe5-3de9c4565c7a,Robert Half Management Resources,financial_service,"['accountant', 'employment_agencies']",NJ,Mt Laurel,8054.0,307 Fellowship Rd,39.9469639,-74.9508035,meta,2025-06-02T07:00:00.000Z,0.3961437335670464,4d517a61-952c-4eb6-a483-3d016f0e6fb9,,,,OpenStreetMap,2009-01-20T02:17:16.000Z,,philadelphia,False
72653753-beee-4e8a-9762-664f7d5954ab,Robert Half Recruiters & Employment Agency,employment_agencies,,NJ,Mount Laurel,8054.0,303 Fellowship Rd Ste 210,39.9465814,-74.9504217,Microsoft,2025-04-30T00:29:03.620Z,0.77,,,,,,,,philadelphia,False
152bf11a-5f52-4259-87cf-74ae57474598,Robert Half,employment_agencies,"['business', 'professional_services']",NJ,Mt Laurel,8054.0,303 Fellowship Rd,39.9470986,-74.9509961,meta,2025-06-02T07:00:00.000Z,0.9297091412742382,4d517a61-952c-4eb6-a483-3d016f0e6fb9,,,,OpenStreetMap,2009-01-20T02:17:16.000Z,,philadelphia,False
dd8241e0-7da0-44b0-82d8-3006e84b0f15,Robert Half Finance & Accounting,employment_agencies,,PA,Wayne,19087.0,656 E Swedesford Rd Ste 210,40.078698,-75.416548,Microsoft,2017-01-12T19:31:42.667Z,0.77,,,,,,,,philadelphia,False
d7dc7d16-dc75-4d4e-8b06-85e4d681557d,Robert Half Management Resources,employment_agencies,,PA,Wayne,19087.0,656 E Swedesford Rd Ste 210,40.078698,-75.416548,Microsoft,2017-01-12T19:31:42.667Z,0.77,,,,,,,,philadelphia,False
1e0226d2-ddd2-4dcb-9099-060f0ff595a4,Robert Half Management Resources,employment_agencies,,PA,Wayne,19087.0,656 E Swedesford Rd Ste 210,40.0795037,-75.4148272,Microsoft,2018-07-24T02:11:36.330Z,0.77,,,,,,,,philadelphia,False
0756c2a2-eddf-4c0c-b7c2-b39041597261,Robert Half Finance & Accounting,employment_agencies,,PA,Wayne,19087.0,656 E Swedesford Rd Ste 210,40.0795037,-75.4148272,Microsoft,2018-07-24T02:11:36.330Z,0.77,,,,,,,,philadelphia,False
5e1c4cfd-aafe-496f-95a9-d2c13a95b964,Robert Half,employment_agencies,"['business', 'professional_services']",PA,Bensalem Twp,19053.0,7 Neshaminy Interplex Dr,40.1223888,-74.9805255,meta,2025-06-02T07:00:00.000Z,0.9300613496932516,86b7c1d8-81a3-40ab-b47a-08e7859a9f5c,,commercial,office,OpenStreetMap,2017-07-27T20:25:30.000Z,,philadelphia,False
eeee8b84-52a5-4a9b-9249-898e75d36442,Robert Half Recruiters & Employment Agency,employment_agencies,,PA,Trevose,19053.0,7 Neshaminy Interplex Dr Ste 201,40.1222713,-74.98013,Microsoft,2025-04-30T00:29:03.620Z,0.77,,,,,,,,philadelphia,False
bbbc4625-4c94-4ad8-bb1d-0d7fd442bfaf,Robert Half,employment_agencies,"['business', 'professional_services']",OH,North Olmsted,44070.0,25050 Country Club Blvd,41.4160712,-81.8997571,meta,2025-06-02T07:00:00.000Z,0.9784508333782836,bb8b1ee4-158e-49a4-a5e1-a0e47b54b690,,,,OpenStreetMap,2021-07-26T19:11:02.000Z,,cleveland,False
488c4f84-7aae-4c69-8060-044240c93201,Robert Half Recruiters & Employment Agency,employment_agencies,,OH,North Olmsted,44070.0,25050 Country Club Blvd Ste 150,41.416606,-81.899502,Microsoft,2025-04-30T00:29:30.630Z,0.77,,,,,,,,cleveland,False
9a926b99-e3ee-40f4-ac21-ba128ab67ab3,Robert Half Management Resources,employment_agencies,,OH,Cleveland,44114.0,1001 Lakeside Ave E Ste 1320,41.504313,-81.69088,Microsoft,2018-07-24T02:11:36.330Z,0.77,7caada8d-08b7-4f1b-87ad-3e7bcf6c74cb,AECOM Building,,,OpenStreetMap,2024-08-11T18:23:26.000Z,,cleveland,False
55834d8c-65b3-498a-aa80-ada90550d5f7,Robert Half Recruiters & Employment Agency,employment_agencies,,OH,Cleveland,44114.0,"1001 Lakeside Avenue East, Suite 1320",41.5067954566906,-81.69080213662147,Microsoft,2025-04-30T00:29:30.630Z,0.77,3d325cee-2301-4890-83d3-42f0e0427e7c,North Point Office Complex,commercial,commercial,OpenStreetMap,2017-02-01T19:12:51.000Z,,cleveland,False
d087b9f1-5c2c-4af5-9e85-5c492349663e,Robert Half Recruiters & Employment Agency,employment_agencies,"['business', 'professional_services']",OH,Cleveland,44114.0,1001 Lakeside Ave E,41.5067609,-81.690719,meta,2025-06-02T07:00:00.000Z,0.909823677581864,3d325cee-2301-4890-83d3-42f0e0427e7c,North Point Office Complex,commercial,commercial,OpenStreetMap,2017-02-01T19:12:51.000Z,,cleveland,False
9335fd13-b8a1-4e4c-a135-1d55fda31a67,Robert Half,employment_agencies,"['business', 'professional_services']",OH,Beachwood,44122.0,25101 Chagrin Blvd,41.4653035,-81.5020853,meta,2025-06-02T07:00:00.000Z,0.9459263554653524,e90a41bf-4a84-471f-9c03-67864c5a0afa,,,,OpenStreetMap,2024-09-05T18:23:42.000Z,,cleveland,False
0ef5337a-3a9a-4ff4-8262-a9dca6b6bcec,Robert Half Recruiters & Employment Agency,employment_agencies,,KS,Overland Park,66210.0,10851 Mastin St Ste 870,38.9319391,-94.7023188,Microsoft,2025-04-30T00:29:30.630Z,0.77,,,,,,,,kansas-city,False
75727c4c-baa7-4441-8657-911e7bdcd846,Robert Half,employment_agencies,"['business', 'professional_services']",KS,Overland Park,66210.0,10851 Mastin St,38.9317669,-94.7020971,meta,2025-06-02T07:00:00.000Z,0.9300613496932516,5ac9ec07-72ab-4f51-a8e9-3fba178bbec7,,commercial,office,OpenStreetMap,2018-05-01T03:22:56.000Z,,kansas-city,False
cd664731-7b89-41f0-9860-adb2b58e9b58,Robert Half,employment_agencies,,KS,Overland Park,66210.0,7400 College Blvd Ste 200,38.9283601,-94.6718019,Microsoft,2019-06-13T19:10:17.960Z,0.77,,,,,,,,kansas-city,False
196d3165-b7f5-446e-a49b-fc131dfdc426,Robert Half Recruiters & Employment Agency,employment_agencies,,NC,Charlotte,28277.0,3440 Toringdon Way Ste 201,35.0682095,-80.8413707,Microsoft,2025-04-30T00:29:40.387Z,0.77,,,,,,,,charlotte,False
a745659c-772f-4fc8-82b1-6fdccabb003b,Robert Half,employment_agencies,['professional_services'],NC,Charlotte,28244.0,201 S College St,35.2250144,-80.8434589,meta,2025-06-02T07:00:00.000Z,0.9415384615384615,f5184195-6e4a-411d-9cbb-7d941df8ed44,Charlotte Plaza,commercial,office,OpenStreetMap,2023-11-18T17:21:09.000Z,,charlotte,False
ea611017-55fe-4762-aba8-175d5fdf3de5,Robert Half,employment_agencies,"['professional_services', 'financial_service']",CT,Shelton,6484.0,2 Corporate Dr,41.2754894,-73.1291709,meta,2025-06-02T07:00:00.000Z,0.9784508333782836,c6508149-6409-429d-b5e9-4a7478131835,,,,OpenStreetMap,2025-01-20T00:49:40.000Z,,new-haven,False
d9d112d8-bba0-4747-a0d2-9b378050e627,Robert Half,employment_agencies,,CT,Shelton,6484.0,2 Corporate Dr Ste 750,41.2761009,-73.1282595,Microsoft,2019-06-13T19:10:17.960Z,0.77,f3c018d3-343e-4d00-b086-455bfcbd6da1,,,,OpenStreetMap,2022-02-16T18:00:15.000Z,,new-haven,False
ae25b23c-a818-4681-8ad6-438283418eee,Robert Half Recruiters & Employment Agency,employment_agencies,,CT,New Haven,6511.0,555 Long Wharf Dr Ste 9A,41.2982876,-72.9125775,Microsoft,2025-04-30T00:29:40.387Z,0.77,,,,,,,,new-haven,False
4609be2f-77dc-472d-99e1-ef785460a9e3,Robert Half,employment_agencies,['professional_services'],CT,New Haven,6511.0,555 Long Wharf Dr,41.2976789,-72.9120206,meta,2025-06-02T07:00:00.000Z,0.9297091412742382,972d382d-c767-4837-9af1-a144ed94813a,Long Wharf Maritime Center,,,OpenStreetMap,2023-12-19T13:46:58.000Z,,new-haven,False
4bdfeac6-6a2d-4281-a10b-72acb17db6aa,Robert Half,employment_agencies,"['business', 'professional_services']",CA,San Francisco,94111.0,50 California St,37.7938589,-122.3974869,meta,2025-06-02T07:00:00.000Z,0.9459263554653524,817b9eea-3ff1-4b60-a5c8-e70a3c5b6ee8,50 California Street,commercial,commercial,OpenStreetMap,2021-05-18T03:24:44.000Z,,oakland,False
1af6e68f-f102-4f7f-97b1-caf7e5d05b0f,Robert Half Recruiters & Employment Agency,employment_agencies,,CA,San Francisco,94111.0,50 California St 10th Fl,37.7936069,-122.3972797,Microsoft,2025-04-30T00:29:30.630Z,0.77,,,,,,,,oakland,False
fb5a7008-4dc5-446f-a8d0-cc9629000087,Robert Half,employment_agencies,"['professional_services', 'accountant']",CA,Oakland,94612.0,1999 Harrison St,37.8079586,-122.2648084,meta,2025-06-02T07:00:00.000Z,0.9459263554653524,7c4b6a6a-a3ef-44da-8268-2b13a163702b,Lake Merritt Plaza Building,,,OpenStreetMap,2024-06-05T16:32:47.000Z,,oakland,False
adee57fa-d8a5-4494-beda-463427d3c573,Robert Half Recruiters & Employment Agency,employment_agencies,"['corporate_office', 'private_establishments_and_corporates']",CA,Oakland,94612.0,1999 Harrison St Ste 1950,37.8075592,-122.2647271,Microsoft,2025-04-30T00:29:30.630Z,0.77,,,,,,,,oakland,True
8bafed45-3e17-4752-b5ca-328b4a6fcee8,Robert Half International,employment_agencies,"['mortgage_broker', 'professional_services']",CA,Oakland,94611.0,2885 Harrison St,37.816072,-122.258872,meta,2025-06-02T07:00:00.000Z,0.296943231441048,454489fb-15ae-4dbc-b513-d9e0f862641f,,residential,residential,OpenStreetMap,2020-09-18T20:47:46.000Z,,oakland,False
0c5d7630-f5fb-4b1b-96e1-22d97795e1d1,Robert Half Management Resources,employment_agencies,,CA,Walnut Creek,94597.0,1255 Treat Blvd Ste 200,37.9275199,-122.060013,Microsoft,2018-07-24T02:11:36.330Z,0.77,,,,,,,,oakland,False
af153080-03cf-45b3-9040-9ed04aa7cbd4,Robert Half Recruiters & Employment Agency,employment_agencies,,CA,Walnut Creek,94597.0,"3003 Oak Rd, Suite 415",37.92920340269187,-122.05839364968548,Microsoft,2025-04-30T00:29:30.630Z,0.77,8bd2b34c-592a-4f47-bd95-1c04d74636b8,,,,OpenStreetMap,2018-11-23T19:44:04.000Z,,oakland,False
82ba10d0-a8e7-41c1-b9c1-0b0089ca2db8,Robert Half,employment_agencies,['professional_services'],CA,Walnut Creek,94597.0,3003 Oak Rd,37.9292624,-122.0582504,meta,2025-06-02T07:00:00.000Z,0.9459263554653524,8bd2b34c-592a-4f47-bd95-1c04d74636b8,,,,OpenStreetMap,2018-11-23T19:44:04.000Z,,oakland,False
798553de-8e8e-4546-9dbb-f0d9adcac2ae,Robert Half Recruiters & Employment Agency,employment_agencies,,TN,Nashville,37203.0,500 11th Ave N Ste 750,36.1637617,-86.7915304,Microsoft,2025-04-30T00:29:30.630Z,0.77,,,,,,,,nashville-davidson,False
c6fbcc6b-2b38-4d54-9d47-c0bda9080897,Robert Half,employment_agencies,['professional_services'],TN,Nashville,37201.0,315 Deaderick St,36.165874,-86.779595,meta,2025-06-02T07:00:00.000Z,0.242152466367713,5166c0d8-5233-4cce-be3c-31af49359900,UBS Tower,,,OpenStreetMap,2019-10-15T18:44:17.000Z,,nashville-davidson,False
129e98bb-6cbb-4f27-b2d2-72c77a14aa1c,Robert Half Recruiters & Employment Agency,employment_agencies,"['business', 'professional_services']",NV,Reno,89519.0,4755 Caughlin Pkwy,39.4844544,-119.8569436,meta,2025-06-02T07:00:00.000Z,0.9415384615384615,d8d5f11c-2d93-406f-9ac3-0cb22b4d6c78,,commercial,office,OpenStreetMap,2024-10-02T23:54:29.000Z,,reno,False
965a8cf3-15f0-4353-8d62-443dc6619e4e,Robert Half Recruiters & Employment Agency,employment_agencies,"['business', 'professional_services']",NV,Reno,89502.0,5190 Neil Rd,39.4761092,-119.7792745,meta,2025-06-02T07:00:00.000Z,0.9459263554653524,23e03dee-fc64-46ff-b0b8-f0ecdd64fe8b,,commercial,office,OpenStreetMap,2024-11-05T08:53:15.000Z,,reno,False
b5b65cbe-8fe0-4353-9b8d-67722c463416,Robert Half Recruiters & Employment Agency,employment_agencies,,IN,Indianapolis,46204.0,135 N Pennsylvania St Ste 1700,39.7694657,-86.156167,Microsoft,2025-04-30T00:29:40.387Z,0.77,,,,,,,,indianapolis,False
6ff6b332-0ebd-44ca-b7fd-f4ad4d82b0af,Robert Half,employment_agencies,"['business', 'professional_services']",IN,Indianapolis,46204.0,135 N Pennsylvania St,39.7696843,-86.1557355,meta,2025-06-02T07:00:00.000Z,0.9459263554653524,781d722f-e908-4139-9981-cc8f0d1bc11a,BMO Plaza,commercial,office,OpenStreetMap,2022-06-28T18:32:22.000Z,,indianapolis,False
4b9fd6d0-6db3-4ff9-b631-c9e35a47f53d,Robert Half Recruiters and Employment Agency,employment_agencies,"['business', 'professional_services']",IN,Carmel,46032.0,11590 N Meridian St,39.955273,-86.1608145,meta,2025-06-02T07:00:00.000Z,0.9415384615384615,c6f28645-1524-4693-93da-473f699a210b,Riley Physicians Pediatrics - Meridian Crossing,medical,hospital,OpenStreetMap,2018-01-17T19:59:08.000Z,,indianapolis,False
e3dfa115-0fa6-47c6-bcc5-64ebcda96478,Robert Half Recruiters & Employment Agency,employment_agencies,,IN,Fishers,46037.0,11313 Usa Pkwy Ste B206,39.9513124,-86.003873,Microsoft,2025-04-30T00:29:03.620Z,0.77,,,,,,,,indianapolis,False
fc88c6fc-1056-404a-b64a-3d111f59fac2,Robert Half,employment_agencies,"['business', 'professional_services']",IN,Fishers,46037.0,11313 USA Pkwy,39.9516001,-86.0027779,meta,2025-06-02T07:00:00.000Z,0.9415384615384615,7c39bef6-122c-4fc1-ad62-966361450ca4,Forum Conference Center,,,OpenStreetMap,2017-07-24T03:20:34.000Z,,indianapolis,False
b9221240-3833-477f-ae4b-9196fefb9efb,Robert Half,employment_agencies,,FL,Port Saint Lucie,34986.0,1860 SW Fountainview Blvd Ste 320,27.309472,-80.41152,Microsoft,2018-09-11T17:37:57.170Z,0.77,f75116a3-824d-4d90-9db3-ef2dd7001631,,,,OpenStreetMap,2020-02-20T00:18:54.000Z,,port-st-lucie,False
8fafa6c8-daa6-45f9-a543-bd17c9b02b6e,Robert Half Recruiters & Employment Agency,employment_agencies,,VA,Norfolk,23510.0,150 W Main St Ste 1850,36.8466515,-76.2934142,Microsoft,2025-04-30T00:29:30.630Z,0.77,ed8452e2-bf33-42eb-9b65-d244639dd8c2,World Trade Center,commercial,commercial,OpenStreetMap,2020-08-04T17:22:34.000Z,,virginia-beach,False
6878fef4-17e8-4137-921c-19f00359b105,Robert Half,employment_agencies,"['business', 'accountant']",VA,Norfolk,23510.0,150 W Main St,36.8472701,-76.2931736,meta,2025-06-02T07:00:00.000Z,0.9784508333782836,400654b9-3b23-464b-8bfd-3e42f70a0bcf,Truist Building,commercial,commercial,OpenStreetMap,2023-10-13T16:42:14.000Z,,virginia-beach,False
6878fef4-17e8-4137-921c-19f00359b105,Robert Half,employment_agencies,"['business', 'accountant']",VA,Norfolk,23510.0,150 W Main St,36.8472701,-76.2931736,meta,2025-06-02T07:00:00.000Z,0.9784508333782836,cbce244c-88ce-4800-a8ae-dead8f2cea3f,T. Parker Host,,,OpenStreetMap,2020-04-02T08:08:00.000Z,,virginia-beach,False
edafb22e-b817-4e58-89eb-3a8027720690,Robert Half,employment_agencies,"['business', 'professional_services']",CO,Colorado Springs,80919.0,5575 Tech Center Dr,38.913724,-104.826346,meta,2025-06-02T07:00:00.000Z,0.3376623376623376,70fe1acc-48fe-4779-9e83-c0bf1beaea42,,,,OpenStreetMap,2024-08-04T02:23:45.000Z,,colorado-springs,False
ddb8d0d2-2edc-4efb-bb32-83d9ab02f58c,Robert Half Recruiters & Employment Agency,employment_agencies,,CO,Colorado Springs,80920.0,"1755 Telstar, Ste 107",38.9596987,-104.7962144,Microsoft,2025-04-30T00:29:30.630Z,0.77,,,,,,,,colorado-springs,False
bc02c959-7180-40a0-b2b2-6c5b4fc2bfe6,Robert Half Recruiters & Employment Agency,employment_agencies,,AZ,Chandler,85226.0,3075 W Ray Rd Ste 101,33.3189795,-111.8958584,Microsoft,2025-04-30T00:29:03.620Z,0.77,,,,,,,,phoenix,False
5c965b12-69d5-4bc8-9391-f582ab9f0fe8,Robert Half Recruiters and Employment Agency,employment_agencies,"['business', 'professional_services']",AZ,Chandler,85226.0,3075 W Ray Rd,33.3191441,-111.8956637,meta,2025-06-02T07:00:00.000Z,0.9784508333782836,a0903413-bbf1-4bd1-8c01-282246bd2e43,,,,OpenStreetMap,2021-09-11T03:13:15.000Z,,phoenix,False
7bd91317-a013-487d-9152-cd3d579e031e,Robert Half,employment_agencies,"['business', 'professional_services']",AZ,Phoenix,85016.0,2375 E Camelback Rd,33.5085789,-112.0306653,meta,2025-06-02T07:00:00.000Z,0.9784508333782836,d448eb88-3ed3-4296-be09-128dce2cd926,,,,OpenStreetMap,2022-07-11T06:59:18.000Z,,phoenix,False
551188c6-ea06-4196-9334-006e8b21449e,Robert Half Recruiters & Employment Agency,employment_agencies,"['corporate_office', 'private_establishments_and_corporates']",AZ,Phoenix,85016.0,2375 E Camelback Rd Ste 290,33.5092382,-112.0308152,Microsoft,2025-04-30T00:29:03.620Z,0.77,,,,,,,,phoenix,True
6281043d-7698-4193-aa88-8831b3c1e802,Robert Half,employment_agencies,['professional_services'],AZ,Phoenix,85029.0,10835 N 25th Ave,33.5852031,-112.1148461,meta,2025-06-02T07:00:00.000Z,0.9415384615384615,,,,,,,,phoenix,False
13e951b0-d2a7-471b-95de-120a7d69bc27,Robert Half,employment_agencies,"['business', 'professional_services']",IN,Merrillville,46410.0,8001 Broadway,41.4730054,-87.3345593,meta,2025-06-02T07:00:00.000Z,0.9459263554653524,8c9e80a5-a084-497a-94c5-4655579a302f,,,,OpenStreetMap,2025-04-20T00:38:38.000Z,,chicago,False
32685a5a-4b0f-461d-9615-b2bba43da450,Robert Half Recruiters & Employment Agency,employment_agencies,,IN,Merrillville,46410.0,8001 Broadway Ste 301,41.4730686,-87.3346236,Microsoft,2025-04-30T00:29:30.630Z,0.77,,,,,,,,chicago,False
c31e4aaf-2df8-4ea8-89b1-b7fae30792f0,Robert Half,employment_agencies,"['business', 'professional_services']",IL,Warrenville,60555.0,4320 Winfield Rd,41.8085853,-88.1688387,meta,2025-06-02T07:00:00.000Z,0.9459263554653524,f521ffaa-b1cb-4576-803d-c2f21247dbd1,,commercial,office,OpenStreetMap,2014-05-02T23:59:42.000Z,,chicago,False
85097918-e8a6-4f0e-b2b9-ad897ea7f9f1,Robert Half Recruiters & Employment Agency,employment_agencies,,IL,Warrenville,60555.0,4320 Winfield Rd Ste 150,41.808931,-88.168655,Microsoft,2025-04-30T00:29:30.630Z,0.77,,,,,,,,chicago,False
df8f9833-c5a4-409b-bf38-0ddae8d75bc8,Robert Half,employment_agencies,"['business', 'professional_services']",IL,Oakbrook Terrace,60181.0,2 Mid America Plz,41.8483944,-87.9585496,meta,2025-06-02T07:00:00.000Z,0.9415384615384615,,,,,,,,chicago,False
258aa1fd-ba0c-448b-a694-981a22d908ed,Robert Half Recruiters & Employment Agency,employment_agencies,,IL,Hoffman Estates,60169.0,2800 W Higgins Rd Ste 305,42.0646687,-88.1489693,Microsoft,2025-04-30T00:29:30.630Z,0.77,,,,,,,,chicago,False
4b058a6b-5fa7-4735-8084-b866842cd969,Robert Half,employment_agencies,"['business', 'professional_services']",IL,Hoffman Estates,60169.0,2800 W Higgins Rd,42.0643324,-88.1484807,meta,2025-06-02T07:00:00.000Z,0.9459263554653524,,,,,,,,chicago,False
252a8ba8-6ab8-42c7-9e7f-f7d808b038e8,Robert Half International,employment_agencies,['professional_services'],IL,Deer Park,60010.0,21925 W Field Pkwy,42.1565906,-88.060848,meta,2025-06-02T07:00:00.000Z,0.9784508333782836,5f0b2b31-021b-44fa-a5da-188c043d0530,Continental Automovite,commercial,commercial,OpenStreetMap,2017-07-12T03:05:08.000Z,,chicago,False
47c2453c-f401-43c1-bc86-ddf19597a794,Robert Half Recruiters & Employment Agency,employment_agencies,,IL,Orland Park,60467.0,"10100 Orland Parkway, Suite 100",41.5571789,-87.8826241,Microsoft,2025-04-30T00:29:03.620Z,0.77,,,,,,,,chicago,False
36293bdc-7968-46e6-85df-de18b4bd8cc4,Robert Half,employment_agencies,"['financial_service', 'financial_advising']",IL,Tinley Park,60477.0,18401 Maple Creek Dr,41.556476,-87.793394,meta,2025-06-02T07:00:00.000Z,0.242152466367713,9fc516df-a5ca-4cc8-ae73-940d2ce70052,,commercial,commercial,OpenStreetMap,2022-04-05T19:22:35.000Z,,chicago,False
17eaabc1-539c-4883-bc20-4183f7ca919e,Robert Half,employment_agencies,"['business', 'professional_services']",IL,Rosemont,60018.0,6250 N River Rd,41.9936285,-87.8614315,meta,2025-06-02T07:00:00.000Z,0.9297091412742382,515bf8f2-ce62-4c5c-9569-0cc9052c178a,One O'Hare Center,commercial,office,OpenStreetMap,2020-04-22T08:44:51.000Z,,chicago,False
4d9458a5-ad01-4261-b5fc-c2f9c323565f,Robert Half Recruiters & Employment Agency,employment_agencies,,IL,Rosemont,60018.0,6250 N River Rd 6th Fl,41.9937946,-87.8610133,Microsoft,2025-04-30T00:29:03.620Z,0.77,,,,,,,,chicago,False
f0035903-f3ca-49ee-828a-75ec3ad32012,Robert Half Executive Search,employment_agencies,,IL,Chicago,60603.0,120 S La Salle St Ste 2200,41.879869,-87.632774,Microsoft,2014-02-27T19:27:34.567Z,0.77,22b5ab87-58b2-4a3f-a94d-ec3dd09adb1f,190 South Lasalle,commercial,office,OpenStreetMap,2025-06-02T21:34:37.000Z,,chicago,False
39ab158d-3b4f-4834-b9ce-8a75456eb1c8,Robert Half Executive Search,employment_agencies,,IL,Chicago,60603.0,120 S La Salle St Ste 2200,41.87983478,-87.63232429,Microsoft,2018-07-24T02:11:36.330Z,0.77,,,,,,,,chicago,False
03b088f7-f3eb-4bc5-b74f-ba2bea0e47ba,Robert Half Recruiters & Employment Agency,employment_agencies,,IL,Chicago,60606.0,10 S Riverside Plz Ste 2050,41.8812346,-87.6393842,Microsoft,2025-04-30T00:29:03.620Z,0.77,4e40060d-d686-4ce9-8c21-4d05ca88bf74,10 South Riverside Plaza,commercial,office,OpenStreetMap,2024-10-31T22:15:46.000Z,,chicago,False
3a2a0414-5a40-4803-9cff-0561c36d80db,Robert Half,employment_agencies,"['business', 'professional_services']",IL,Chicago,60601.0,205 N Michigan Ave,41.8863533,-87.6237284,meta,2025-06-02T07:00:00.000Z,0.9415384615384615,17d696fd-4335-490b-b977-913ed380b380,Michigan Plaza North,commercial,commercial,OpenStreetMap,2024-08-23T11:09:30.000Z,,chicago,False
4ed2b820-436b-4f16-8ed7-c2136a04bc11,Robert Half Recruiters & Employment Agency,employment_agencies,"['business', 'public_service_and_government']",IL,Northbrook,60062.0,5 Revere Dr,42.1518189,-87.8051028,meta,2025-06-02T07:00:00.000Z,0.9300613496932516,6cdfbc2d-5368-469f-a246-7aac65cfd7a5,,commercial,office,OpenStreetMap,2024-09-13T01:52:14.000Z,,chicago,False
bdb373d1-769e-4139-89fa-e0bd8ed574ba,Robert Half,employment_agencies,,IL,Gurnee,60031.0,505 N Riverside Dr Ste 101,42.368559,-87.92452,Microsoft,2019-06-13T19:10:17.960Z,0.77,fa928532-9ab8-422f-9682-56168ad09f56,,,,Esri Community Maps,2024-10-15T00:00:00.000Z,,chicago,False
fee15283-2183-4f49-bde2-f062b057220d,Robert Half,employment_agencies,,OH,Dayton,45402.0,1 S Main St Ste 300,39.7590506,-84.1922464,Microsoft,2019-06-13T19:10:17.960Z,0.77,3b6198e3-3a2e-4a5e-a164-631b5c3aaf3a,,,,OpenStreetMap,2019-12-15T19:35:46.000Z,,dayton,False
fee15283-2183-4f49-bde2-f062b057220d,Robert Half,employment_agencies,,OH,Dayton,45402.0,1 S Main St Ste 300,39.7590506,-84.1922464,Microsoft,2019-06-13T19:10:17.960Z,0.77,2ca12d45-32fa-4c2c-a7ac-f227e625850f,Fifth Third Center,commercial,office,OpenStreetMap,2023-06-03T19:47:15.000Z,,dayton,False
72d669ca-57d3-4769-9760-37f36167d550,Robert Half,employment_agencies,['professional_services'],OH,Dayton,45402.0,1 S Main St,39.7591132,-84.192261,meta,2025-06-02T07:00:00.000Z,0.4929396662387676,2ca12d45-32fa-4c2c-a7ac-f227e625850f,Fifth Third Center,commercial,office,OpenStreetMap,2023-06-03T19:47:15.000Z,,dayton,False
8f3cf0d2-5dee-45b2-b38a-b3af66610a58,Robert Half Recruiters & Employment Agency,employment_agencies,,OH,Dayton,45402.0,312 N Patterson Blvd Ste 260,39.7645757,-84.1877094,Microsoft,2025-04-30T00:29:30.630Z,0.77,,,,,,,,dayton,False
c7d6693d-9d2e-4270-b9c0-e4295fa7143d,Robert Half,employment_agencies,"['business', 'professional_services']",PA,Mechanicsburg,17055.0,4999 Louise Dr,40.2017544,-76.9592051,meta,2025-06-02T07:00:00.000Z,0.9784508333782836,e618564c-228a-45b1-ab05-fa4145b01fba,,,,OpenStreetMap,2020-10-15T15:55:32.000Z,,harrisburg,False
ec035373-0502-4bb7-b8cb-c1b4bdc73b51,Robert Half,professional_services,"['employment_agencies', 'business']",MI,Grand Rapids,49504.0,333 Bridge St NW,42.9711257,-85.6770775,meta,2025-06-02T07:00:00.000Z,0.9415384615384615,5d5fb15d-b2a7-4fef-9a10-250b77036687,,transportation,parking,OpenStreetMap,2021-03-21T00:53:05.000Z,,grand-rapids,False
50f89de5-9a97-4257-ace1-c99162e091fe,Robert Half Recruiters & Employment Agency,employment_agencies,,MI,Grand Rapids,49504.0,333 Bridge St NW Ste 910,42.9705179,-85.6766973,Microsoft,2025-04-30T00:29:03.620Z,0.77,,,,,,,,grand-rapids,False
aa99bc9c-f6f2-49cd-94e1-4945b22c81e3,Robert Half,employment_agencies,"['business', 'professional_services']",OR,Portland,97223.0,10220 SW Greenburg Rd,45.4454529,-122.7736915,meta,2025-06-02T07:00:00.000Z,0.9784508333782836,0536ee9a-53a8-4b9d-9f20-2c6fd81d55c2,,commercial,office,OpenStreetMap,2021-12-10T18:35:39.000Z,,portland,False
e3f7cf1c-e4f8-460c-8607-474dc5d78e45,Robert Half Recruiters & Employment Agency,employment_agencies,,OR,Portland,97223.0,10220 SW Greenburg Rd Ste 535,45.4457062,-122.774285,Microsoft,2025-04-30T00:29:03.620Z,0.77,,,,,,,,portland,False
0985c2d5-c85e-42d9-a655-b5af69aff760,Robert Half Recruiters and Employment Agency,employment_agencies,"['business', 'professional_services']",OR,Portland,97201.0,222 SW Columbia St,45.5133043,-122.6775583,meta,2025-06-02T07:00:00.000Z,0.9784508333782836,7a1b298d-9fcb-4cbe-addf-4fd1eaf86ece,KOIN Tower,,,OpenStreetMap,2025-02-22T10:53:44.000Z,,portland,False
1eb1baee-f5cf-433c-b869-63b9100b518d,Robert Half,employment_agencies,['professional_services'],WA,Spokane,99201.0,601 W Riverside Ave,47.6574024,-117.4214695,meta,2025-06-02T07:00:00.000Z,0.9459263554653524,ca436fcc-acb1-4911-ade8-22ef5cae60f5,Bank of America Financial Center,commercial,office,OpenStreetMap,2024-10-09T22:08:04.000Z,,spokane,False
1174f0f4-69b6-4578-90df-7aebd52b9a19,Robert Half Recruiters & Employment Agency,employment_agencies,,WA,Spokane,99201.0,601 W Riverside Ave Ste 600,47.6579341,-117.4216045,Microsoft,2025-04-30T00:29:03.620Z,0.77,,,,,,,,spokane,False
46bacd13-480f-44cb-b719-9e97904cf4aa,Robert Half,employment_agencies,"['professional_services', 'accountant']",MD,Columbia,21046.0,6996 Columbia Gateway Dr,39.1774868,-76.8011319,meta,2025-06-02T07:00:00.000Z,0.3376623376623376,2b605609-7ea4-4e05-bf0f-28a0483cd585,UMBC Training Center,commercial,office,OpenStreetMap,2023-01-03T03:00:48.000Z,,baltimore,False
90894b6b-315c-44a2-bbab-e2a8f3c79900,Robert Half Recruiters & Employment Agency,employment_agencies,,MD,Baltimore,21202.0,500 E Pratt St 11th Fl,39.2867146,-76.6081521,Microsoft,2025-04-30T00:29:03.620Z,0.77,,,,,,,,baltimore,False
5697461f-be42-439e-b28f-892efc60efd5,Robert Half,employment_agencies,"['business', 'professional_services']",MD,Baltimore,21202.0,500 E Pratt St,39.286998,-76.6083123,meta,2025-06-02T07:00:00.000Z,0.9784508333782836,aff8350a-6e1a-4354-b703-068321a035ad,500 East Pratt,commercial,retail,OpenStreetMap,2023-01-26T17:56:05.000Z,,baltimore,False
a94feaaf-18ce-4eef-9e02-0b5d3624875d,Robert Half,employment_agencies,"['business', 'professional_services']",MD,Hunt Valley,21031.0,11350 McCormick Rd,39.4935221,-76.660328,meta,2025-06-02T07:00:00.000Z,0.3961437335670464,03406802-c1e1-4e29-8b02-6c253e0bf289,Executive Plaza,commercial,commercial,OpenStreetMap,2024-04-24T01:47:37.000Z,,baltimore,False
0e0fc25e-685d-48ea-a519-83d7f713294e,Robert Half Recruiters & Employment Agency,employment_agencies,,MD,Hunt Valley,21031.0,11311 McCormick Rd Ste 460,39.4924625,-76.6570261,Microsoft,2025-04-30T00:29:03.620Z,0.77,,,,,,,,baltimore,False
749c5a45-f792-413b-9d7d-b365234dc7c0,Robert Half Recruiters & Employment Agency,employment_agencies,,CA,Ontario,91764.0,3633 Inland Empire Blvd Ste 525,34.0694754,-117.5710882,Microsoft,2025-04-30T00:29:03.620Z,0.77,,,,,,,,riverside-san-bernardino,False
13efdac5-be0d-4205-aa9e-4acdb670941c,Robert Half,employment_agencies,"['business', 'professional_services']",CA,Ontario,91764.0,3633 Inland Empire Blvd,34.069871,-117.5704742,meta,2025-06-02T07:00:00.000Z,0.9297091412742382,,,,,,,,riverside-san-bernardino,False
c3242ff5-35b8-4b09-8554-21c7081971f8,Robert Half,employment_agencies,,CA,Riverside,92501.0,2280 Market St Ste 220,33.998672,-117.371831,Microsoft,2019-06-13T19:10:17.960Z,0.77,8568868a-8fbb-4192-b863-017618d59ff8,,,,OpenStreetMap,2013-08-20T20:38:08.000Z,,riverside-san-bernardino,False
777d925a-b9c3-460e-9e59-5f8adbb39003,Robert Half Recruiters & Employment Agency,employment_agencies,,OH,Akron,44308.0,"50 S Main St, Suite 402",41.0839121,-81.5180686,Microsoft,2025-04-30T00:29:30.630Z,0.77,1c9d5d7b-a829-4cc4-b881-ed0ce02592f7,Chase,,,OpenStreetMap,2022-05-02T12:37:16.000Z,,akron,False
7efed96a-9f85-4a8b-8c75-6a9c14925c83,Robert Half,employment_agencies,"['professional_services', 'business']",OH,Akron,44308.0,50 S Main St,41.0838253,-81.5177353,meta,2025-06-02T07:00:00.000Z,0.9297091412742382,1c9d5d7b-a829-4cc4-b881-ed0ce02592f7,Chase,,,OpenStreetMap,2022-05-02T12:37:16.000Z,,akron,False
f848c85e-2189-4ec0-a194-2c965411aef6,Robert Half Finance & Accounting,employment_agencies,,KY,Lexington,40504.0,2343 Alexandria Dr Ste 310,38.0180483,-84.5512422,Microsoft,2018-07-24T02:11:36.330Z,0.77,,,,,,,,lexington-fayette,False
f52cf421-ead7-4aaf-80f8-2c1b681154bc,Robert Half,employment_agencies,"['business', 'professional_services']",KY,Lexington,40504.0,2343 Alexandria Dr,38.0183282,-84.5510765,meta,2025-06-02T07:00:00.000Z,0.9459263554653524,6239081c-da1e-4324-9472-604c21e11124,,,,OpenStreetMap,2016-03-15T02:47:01.000Z,,lexington-fayette,False
a6b138d9-21e5-450b-ab9d-3ddf331e9e99,Robert Half Finance & Accounting,employment_agencies,,KY,Lexington,40504.0,2343 Alexandria Dr Ste 310,38.019151,-84.550112,Microsoft,2017-01-12T19:31:42.667Z,0.77,,,,,,,,lexington-fayette,False
c7bb29c4-6969-47d2-b515-f718917b94c0,Robert Half Recruiters & Employment Agency,employment_agencies,,HI,Honolulu,96813.0,737 Bishop St Ste 2550,21.3073267,-157.8631835,Microsoft,2025-04-30T00:29:03.620Z,0.77,,,,,,,,honolulu,False
03e3b781-28a1-4987-8aba-35d735bc2c9a,Robert Half,employment_agencies,"['business', 'professional_services']",HI,Honolulu,96813.0,737 Bishop St,21.3073937,-157.8629766,meta,2025-06-02T07:00:00.000Z,0.9459263554653524,,,,,,,,honolulu,False
d777d5a2-43ee-44b7-8c34-8505648cb0f8,Robert Half,employment_agencies,"['business', 'professional_services']",OH,Cincinnati,45202.0,201 5th St E,39.101622,-84.5090615,meta,2025-06-02T07:00:00.000Z,0.9415384615384615,17136e70-f939-4c1a-a67d-a0bb6860b987,PNC Center,commercial,office,OpenStreetMap,2021-03-12T18:10:58.000Z,,cincinnati,False
4ef565b1-8341-46a0-a5c6-1666531cd7a6,Robert Half Recruiters & Employment Agency,employment_agencies,['professional_services'],OH,Blue Ash,45242.0,10300 Alliance Rd,39.2497892,-84.3774666,meta,2025-06-02T07:00:00.000Z,0.9297091412742382,4a392a0b-5952-41d1-be85-3859a4fd2bfd,,,,OpenStreetMap,2011-05-22T22:50:11.000Z,,cincinnati,False
3c7845ef-a6cd-4c2d-9221-eef217d91609,Robert Half Recruiters & Employment Agency,employment_agencies,,OH,West Chester,45069.0,9075 Centre Pointe Dr Ste 220,39.3252611,-84.4249727,Microsoft,2025-04-30T00:29:30.630Z,0.77,,,,,,,,cincinnati,False
29683fd3-d597-4132-9445-f3ddef591aec,Robert Half,employment_agencies,"['business', 'professional_services']",OH,West Chester,45069.0,9075 Centre Pointe Dr,39.3256953,-84.4244584,meta,2025-06-02T07:00:00.000Z,0.9204819277108434,bbae3723-04bf-4c96-aca7-78ab6ddfffe1,,,,OpenStreetMap,2014-09-23T05:38:32.000Z,,cincinnati,False
cc1957b4-75f4-4e4a-a623-481c2b570cb9,Robert Half Recruiters & Employment Agency,employment_agencies,,LA,New Orleans,70112.0,909 Poydras St Ste 1150,29.9503603,-90.0738339,Microsoft,2025-04-30T00:29:03.620Z,0.77,,,,,,,,new-orleans,False
9576ee1a-8b60-4b20-95ba-d320e20fda8a,Robert Half,employment_agencies,"['business', 'financial_service']",LA,New Orleans,70112.0,909 Poydras St,29.9504959,-90.0737854,meta,2025-06-02T07:00:00.000Z,0.9204819277108434,,,,,,,,new-orleans,False
32ae5b34-d7e4-4627-be45-b6ad3077453c,Robert Half Recruiters & Employment Agency,employment_agencies,,NJ,Bridgewater,8807.0,1200 Rte 22 1st Fl,40.5911383,-74.65264005,Microsoft,2025-04-30T00:29:30.630Z,0.77,,,,,,,,new-york,False
db18f429-25bb-446d-b28e-10f31094c748,Robert Half,employment_agencies,"['business', 'professional_services']",NJ,Bridgewater,8807.0,1200 US Highway 22,40.5770961,-74.5875004,meta,2025-06-02T07:00:00.000Z,0.9297091412742382,1339f06b-4414-4377-a92d-84a5d30866f7,Regus,,,OpenStreetMap,2024-09-02T20:53:22.000Z,,new-york,False
e5b67131-8452-44c0-a1c7-68acb4614589,Robert Half Recruiters & Employment Agency,employment_agencies,"['professional_services', 'real_estate']",NJ,Woodbridge,7095.0,10 Woodbridge Ctr,40.5467312,-74.2994676,meta,2025-06-02T07:00:00.000Z,0.9415384615384615,6e4626a9-76b8-4d00-97ce-de4772bd00f8,,,,OpenStreetMap,2014-05-25T18:02:00.000Z,,new-york,False
5d42ea45-ce2d-436e-b8c6-a176956efc8f,Robert Half Recruiters & Employment Agency,employment_agencies,,NJ,Woodbridge,7095.0,"10 Woodbridge Center Dr, 9th Floor",40.54666775925669,-74.29928875442823,Microsoft,2025-04-30T00:29:03.620Z,0.77,6e4626a9-76b8-4d00-97ce-de4772bd00f8,,,,OpenStreetMap,2014-05-25T18:02:00.000Z,,new-york,False
6c69c529-aeb4-4adb-a4c9-ebb2489073f1,Robert Half Management Resources,employment_agencies,,NJ,Woodbridge,7095.0,10 Woodbridge Center Dr Fl 3,40.5467671,-74.2996657,Microsoft,2018-07-24T02:11:36.330Z,0.77,,,,,,,,new-york,False
e554beec-0013-438e-b966-45730bc9c0e0,Robert Half Management Resources,employment_agencies,,NJ,Woodbridge,7095.0,10 Woodbridge Center Dr 3rd Fl,40.547477,-74.298256,Microsoft,2017-01-12T19:31:42.667Z,0.77,,,,,,,,new-york,False
6d27704d-e45b-4dcc-b000-511a49d9f980,Robert Half Management Resources,employment_agencies,,NY,New York,10006.0,1 Liberty Plz Ste 4702,40.709613,-74.010953,Microsoft,2017-01-12T19:31:42.667Z,0.77,80d48a16-fde2-4090-9067-20384064724f,One Liberty Plaza,commercial,office,OpenStreetMap,2023-01-02T05:15:20.000Z,,new-york,True
c91785da-504f-4bb2-b6d3-fea560cd1317,Robert Half Recruiters & Employment Agency,employment_agencies,"['accountant', 'professional_services']",NY,New York,10006.0,165 Broadway,40.7097651,-74.0109762,meta,2025-06-02T07:00:00.000Z,0.9784508333782836,80d48a16-fde2-4090-9067-20384064724f,One Liberty Plaza,commercial,office,OpenStreetMap,2023-01-02T05:15:20.000Z,,new-york,False
88064be3-2b16-4bfd-b0d4-d632e53b0f01,Robert Half,employment_agencies,"['business', 'professional_services']",NJ,Jersey City,7302.0,101 Hudson St,40.7161824,-74.0350266,meta,2025-06-02T07:00:00.000Z,0.9459263554653524,d86d9afb-dd34-405f-a58d-e9023723fb2d,101 Hudson Street,commercial,office,OpenStreetMap,2024-03-23T00:20:22.000Z,,new-york,False
26a21820-33c4-4dae-b59f-7ddca0bbc961,Robert Half,employment_agencies,['professional_services'],NY,Brooklyn,11201.0,1 Lawrence St,40.693309,-73.987045,meta,2025-06-02T07:00:00.000Z,0.5662921348314607,027216d9-4c4d-4cc8-b6e6-9fcd79ec45e5,1 MetroTech Center,,,OpenStreetMap,2025-05-27T19:31:38.000Z,,new-york,False
4d966bef-330d-4080-b96e-872b29880ca7,Robert Half,employment_agencies,"['professional_services', 'financial_service']",NY,New York,10017.0,125 Park Ave,40.7518485,-73.9773545,meta,2025-06-02T07:00:00.000Z,0.9300613496932516,61870b83-792c-465f-9386-8771e4d38e18,Pershing Square Building,commercial,commercial,OpenStreetMap,2024-01-10T21:16:43.000Z,,new-york,False
2b519ccf-19c9-41ae-bfd4-8593af56d3bc,Robert Half,employment_agencies,"['corporate_office', 'private_establishments_and_corporates']",NY,New York,10167.0,245 Park Ave Rm 2500,40.7547435,-73.9747178,Microsoft,2018-07-24T02:11:36.330Z,0.77,8f543471-12a0-4d32-a077-f23eb8da3bc3,Grand Central Terminal,transportation,train_station,OpenStreetMap,2023-11-09T20:30:25.000Z,,new-york,True
2b519ccf-19c9-41ae-bfd4-8593af56d3bc,Robert Half,employment_agencies,"['corporate_office', 'private_establishments_and_corporates']",NY,New York,10167.0,245 Park Ave Rm 2500,40.7547435,-73.9747178,Microsoft,2018-07-24T02:11:36.330Z,0.77,319ec459-c135-4107-88e0-0936e9ee1f55,245 Park Avenue,commercial,commercial,OpenStreetMap,2024-09-20T22:01:25.000Z,,new-york,True
71176929-da2f-40ce-8f4a-5a45958b2616,Robert Half,employment_agencies,"['business', 'professional_services']",NY,Kew Gardens,11415.0,80-02 Kew Gardens Rd,40.7137538,-73.8314723,meta,2025-06-02T07:00:00.000Z,0.9415384615384615,8d0ce7e2-781e-4fcf-9fb1-e199c5485c71,,,,OpenStreetMap,2021-09-10T01:27:22.000Z,,new-york,False
0eda468d-4192-4a3c-a748-a381f1ad2f40,Robert Half Recruiters & Employment Agency,employment_agencies,,NY,Kew Gardens,11415.0,8002 Kew Gardens Rd Ste 306,40.713962,-73.8309292,Microsoft,2025-04-30T00:29:03.620Z,0.77,,,,,,,,new-york,False
04438dcb-950a-4f87-9a6d-fa36ce9e45c3,Robert Half,employment_agencies,"['business', 'financial_advising']",NY,Uniondale,11556.0,522 RXR Plz,40.7195883,-73.5835727,meta,2025-06-02T07:00:00.000Z,0.9300613496932516,,,,,,,,new-york,False
d3f17cc7-049b-4d3c-b807-009bf11a4311,Robert Half Technology,employment_agencies,,NJ,Parsippany,7054.0,6 Campus Dr Ste 10,40.8450796,-74.4547937,Microsoft,2018-07-24T02:11:36.330Z,0.77,9a7beb16-ba28-4e63-b456-b31d9e280d1d,,commercial,commercial,OpenStreetMap,2019-01-28T22:44:43.000Z,,new-york,False
d3bc4e97-4a95-446b-bda1-f9b64370e4b6,Robert Half Recruiters & Employment Agency,employment_agencies,,NJ,Parsippany,7054.0,5 Sylvan Way Ste 115,40.8468182,-74.4533971,Microsoft,2025-04-30T00:29:03.620Z,0.77,,,,,,,,new-york,False
85ce1da2-454c-4c3c-89e4-82893c1b4a79,Robert Half Recruiters & Employment Agency,employment_agencies,"['business', 'professional_services']",NJ,Parsippany,7054.0,35 Waterview Blvd,40.8745685,-74.4261576,meta,2025-06-02T07:00:00.000Z,0.5662921348314607,31190015-d0bf-4cc1-b178-bb690cf05003,,commercial,commercial,OpenStreetMap,2022-03-22T22:04:56.000Z,,new-york,False
2068fe75-e468-47d3-8432-8f2345d77605,Robert Half,employment_agencies,['professional_services'],NJ,Rutherford,7070.0,201 State RT 17,40.8172077,-74.1013529,meta,2025-06-02T07:00:00.000Z,0.9300613496932516,35b93dc0-f94f-473c-b4b9-a649c939ea9c,,,,OpenStreetMap,2013-05-18T10:33:52.000Z,,new-york,False
a86e60bd-8f13-430b-b4c9-a5e158b8b1b2,Robert Half,employment_agencies,['professional_services'],NJ,Saddle Brook,7663.0,250 Pehle Ave,40.9050008,-74.1037619,meta,2025-06-02T07:00:00.000Z,0.9415384615384615,c06c0b66-2af7-4446-af63-b165eca6f6b9,,,,OpenStreetMap,2018-12-14T22:29:53.000Z,,new-york,False
5b3c43a3-1923-4390-924a-9d213146a0f6,Robert Half Recruiters & Employment Agency,employment_agencies,,NJ,Saddle Brook,7663.0,250 Pehle Ave 5th Fl,40.905156,-74.102092,Microsoft,2025-04-30T00:29:30.630Z,0.77,,,,,,,,new-york,False
5ba05e3e-e6fe-43d4-b966-d64576aaeb5f,Robert Half Recruiters & Employment Agency,employment_agencies,,NY,Melville,11747.0,"58 South Service Road, 4th Floor",40.78249435666035,-73.44041528952027,Microsoft,2025-04-30T00:29:03.620Z,0.77,edc659d8-b392-4224-8478-9d004e116e43,,commercial,commercial,OpenStreetMap,2021-06-02T13:08:35.000Z,,new-york,False
35d2d1a7-1713-4ce2-8d52-75d5d3749db8,Robert Half,employment_agencies,"['professional_services', 'shopping']",NY,Hauppauge,11788.0,102 Motor Pkwy,40.8072775,-73.2667407,meta,2025-06-02T07:00:00.000Z,0.5662921348314607,5fd7c3c5-a994-4e5e-9006-d126ccf501e8,,commercial,retail,OpenStreetMap,2021-06-02T13:18:58.000Z,,new-york,False
2110772d-39f0-4943-9f4b-d3c32dc06f88,Robert Half Technology,employment_agencies,['professional_services'],OK,Oklahoma City,73104.0,300 Johnny Bench Dr,35.4639805,-97.5076565,meta,2025-06-02T07:00:00.000Z,0.242152466367713,905e7214-e186-48bc-aea7-d9f0736ad305,,commercial,office,OpenStreetMap,2024-05-08T16:34:06.000Z,,oklahoma-city,True
7e0227e4-b22c-4aae-a779-0274cdb4edf7,Robert Half Recruiters & Employment Agency,employment_agencies,,OK,Oklahoma City,73112.0,3817 NW Expressway Ste 790,35.5352907,-97.5863351,Microsoft,2025-04-30T00:29:03.620Z,0.77,,,,,,,,oklahoma-city,False
0b79664f-7462-46bd-8aee-6815b6d83e21,Robert Half,employment_agencies,"['business', 'professional_services']",OK,Oklahoma City,73112.0,3817 Northwest Expy,35.5362308,-97.5857199,meta,2025-06-02T07:00:00.000Z,0.9297091412742382,,,,,,,,oklahoma-city,False
6af70669-2755-44ea-ab7c-de7dac6a4714,Robert Half Recruiters & Employment Agency,employment_agencies,,IA,West Des Moines,50266.0,"1080 Jordan Creek Parkway, 100N",41.5850982666016,-93.8099212646484,Microsoft,2023-10-17T18:14:22.700Z,0.77,77c530cc-08d7-4bdd-8b54-b0c6d02ba411,,,,OpenStreetMap,2023-03-13T04:00:27.000Z,,des-moines,False
85b05ed6-7308-459e-90e2-e409a757e46e,Robert Half,professional_services,['employment_agencies'],IA,Des Moines,50309.0,801 E Grand Ave,41.59141,-93.607,meta,2025-06-02T07:00:00.000Z,0.3376623376623376,,,,,,,,des-moines,False
daf418d9-4f4c-4f9c-84d3-9dab298dbe83,Robert Half,employment_agencies,,TX,Arlington,76006.0,2000 E Lamar Blvd Ste 260,32.762857,-97.077688,Microsoft,2019-03-13T18:01:26.750Z,0.77,,,,,,,,dallas,False
407fa952-44a6-4fdb-a711-849b1398e084,Robert Half,employment_agencies,,TX,Irving,75062.0,105 Decker Ct Ste 400,32.8639044,-96.9436044,Microsoft,2019-06-13T19:10:17.960Z,0.77,dbabf32b-09b4-421a-a577-ebbd714abbb2,,,,OpenStreetMap,2018-11-24T18:46:52.000Z,,dallas,False
14693096-f620-4a10-a3d8-ee1e90bff0c8,Robert Half International,employment_agencies,"['professional_services', 'laboratory_testing']",TX,Dallas,75201.0,2001 Ross Ave,32.787576,-96.799187,meta,2025-06-02T07:00:00.000Z,0.242152466367713,77945dd7-d89f-4a9d-9d55-6a3e20239a88,Trammell Crow Center,commercial,commercial,OpenStreetMap,2022-04-15T19:16:55.000Z,,dallas,False
050daae1-ae7e-4d5c-a968-e2e0f20a8298,Robert Half Legal,employment_agencies,"['corporate_office', 'private_establishments_and_corporates']",TX,Dallas,75201.0,2001 Ross Ave Ste 3500,32.78762,-96.799237,Microsoft,2018-07-24T02:11:36.330Z,0.77,77945dd7-d89f-4a9d-9d55-6a3e20239a88,Trammell Crow Center,commercial,commercial,OpenStreetMap,2022-04-15T19:16:55.000Z,,dallas,True
7ec861d3-c6ad-43d0-98a8-47381c65d6e9,Robert Half Recruiters & Employment Agency,employment_agencies,,TX,Coppell,75019.0,3121 Olympus Blvd Ste 200,32.9359729,-96.9838945,Microsoft,2025-04-30T00:29:03.620Z,0.77,,,,,,,,dallas,False
22900903-0dd8-446f-a28b-3dc82a80ef18,Robert Half,employment_agencies,"['business', 'professional_services']",TX,Dallas,75240.0,13727 Noel Rd,32.9347301,-96.8197087,meta,2025-06-02T07:00:00.000Z,0.9297091412742382,88e1d586-4861-4c6b-be51-708b538deabf,,commercial,office,OpenStreetMap,2019-07-24T14:56:03.000Z,,dallas,False
ad3d6f62-21c6-4e1b-9812-aff0415d673c,Robert Half Recruiters & Employment Agency,employment_agencies,"['corporate_office', 'private_establishments_and_corporates']",TX,Dallas,75240.0,13727 Noel Rd Ste 800,32.9347804,-96.8194776,Microsoft,2025-04-30T00:29:30.630Z,0.77,,,,,,,,dallas,True
b74b56c4-17a4-445e-86a5-5a5375939a81,Robert Half,employment_agencies,"['business', 'professional_services']",TX,Dallas,75254.0,14951 Dallas Pkwy,32.9521913,-96.8235217,meta,2025-06-02T07:00:00.000Z,0.9784508333782836,a09afc70-d538-421c-ba29-ca47f4ac0cf2,The Addison,commercial,office,OpenStreetMap,2025-02-19T21:36:54.000Z,,dallas,False
6e7b1329-4782-45ed-895d-e9a2c00b42d0,Robert Half,employment_agencies,,TX,Plano,75024.0,6900 Dallas Pkwy Ste 150,33.0727387,-96.8236666,Microsoft,2019-06-13T19:10:17.960Z,0.77,dce5c11d-94eb-4571-987c-aee42f72b6b8,,commercial,office,OpenStreetMap,2023-08-07T18:52:34.000Z,,dallas,False
40c44614-69ab-4c30-bfb2-e6a741d2fe7c,Robert Half Management Resources,employment_agencies,,CA,Santa Rosa,95401.0,100 B St Ste 220,38.438046,-122.7144357,Microsoft,2018-07-24T02:11:36.330Z,0.77,,,,,,,,santa-rosa,False
66270205-9c04-46a3-a900-c88f2387c18c,Robert Half,employment_agencies,"['professional_services', 'pub']",CA,Santa Rosa,95404.0,111 Santa Rosa Ave,38.4377113,-122.7126839,meta,2025-06-02T07:00:00.000Z,0.9297091412742382,0d03a603-8001-484e-bb89-0b878b0e812e,,commercial,commercial,OpenStreetMap,2024-03-27T18:59:32.000Z,,santa-rosa,False
29dbcf75-4229-4646-8329-34936ad7a563,Robert Half Recruiters & Employment Agency,employment_agencies,,FL,Jacksonville,32256.0,10751 Deerwood Park Blvd Ste 130,30.2482914,-81.5317888,Microsoft,2025-04-30T00:29:30.630Z,0.77,,,,,,,,jacksonville-florida,False
36e27d84-b102-4c93-992b-42606af5b7eb,Robert Half,employment_agencies,"['business', 'professional_services']",PA,Pittsburgh,15222.0,1001 Liberty Ave,40.4444979,-79.9945382,meta,2025-06-02T07:00:00.000Z,0.9459263554653524,549119c2-2e92-478f-925c-155bbea07027,The Westin Convention Center Pittsburgh,,,OpenStreetMap,2024-01-17T03:39:15.000Z,,pittsburgh,False
32e0254b-d2d1-43e1-8e8a-bb4489375455,Robert Half,employment_agencies,,CA,Irvine,92612.0,18200 Von Karman Ave Ste 800,33.6777058,-117.8514527,Microsoft,2019-06-13T19:10:17.960Z,0.77,179a636d-6ebd-4dee-b111-d6c9fb45e9f5,,,,OpenStreetMap,2023-12-21T00:39:27.000Z,,mission-viejo,False
eb98d67b-3e17-4b31-bda1-80e86ba023ef,Robert Half Recruiters & Employment Agency,employment_agencies,,CA,Irvine,92614.0,1920 Main St Ste 550,33.6849858,-117.8524488,Microsoft,2025-04-30T00:29:30.630Z,0.77,,,,,,,,mission-viejo,False
535f4ba4-8dba-4e05-ad6b-502498329de3,Robert Half Recruiters & Employment Agency,employment_agencies,,CA,Laguna Niguel,92677.0,28202 Cabot Rd Ste 415,33.5531641,-117.6788877,Microsoft,2025-04-30T00:29:03.620Z,0.77,,,,,,,,mission-viejo,False
493f67de-06e8-4f98-8d6e-62ce458db72e,Robert Half,employment_agencies,"['business', 'professional_services']",CA,Laguna Niguel,92677.0,28202 Cabot Rd,33.5528943,-117.6782673,meta,2025-06-02T07:00:00.000Z,0.9415384615384615,c67163f4-4d7c-44d8-81b0-cb9853c68b06,,commercial,commercial,OpenStreetMap,2024-01-30T23:10:38.000Z,,mission-viejo,False
d0975fe3-e1a4-4cd1-b089-de7d9cb58636,Robert Half,employment_agencies,"['professional_services', 'financial_service']",CA,Orange,92868.0,1 City Blvd W,33.7806433,-117.8931369,meta,2025-06-02T07:00:00.000Z,0.9415384615384615,,,,,,,,mission-viejo,False
d79818de-3f9c-4590-90b7-b444f023e8aa,Robert Half,employment_agencies,"['business', 'professional_services']",AZ,Tucson,85711.0,5255 E Williams Cir,32.2208821,-110.881184,meta,2025-06-02T07:00:00.000Z,0.9297091412742382,06df7841-c812-44c5-b09c-1e36befb37de,,transportation,parking,OpenStreetMap,2024-11-14T11:30:41.000Z,,tucson,False
029aa625-358d-4516-84ab-3262fb165f98,Robert Half Recruiters & Employment Agency,employment_agencies,,AZ,Tucson,85711.0,5255 E Williams Cir Ste 6800,32.2205247,-110.8807573,Microsoft,2025-04-30T00:29:03.620Z,0.77,,,,,,,,tucson,False
8c0780f3-9168-432f-919a-23c7166aa44e,Robert Half Recruiters & Employment Agency,employment_agencies,,CO,Lakewood,80228.0,141 Union Blvd Ste 460,39.715882,-105.1343528,Microsoft,2025-04-30T00:29:03.620Z,0.77,,,,,,,,denver,False
da145904-d6a9-485c-825a-384994a79558,Robert Half,employment_agencies,"['business', 'professional_services']",CO,Centennial,80111.0,6300 S Syracuse Way,39.6012552,-104.8979025,meta,2025-06-02T07:00:00.000Z,0.9459263554653524,,,,,,,,denver,False
19fac985-7f6f-4a85-8dad-1ff079f8c69a,Robert Half Recruiters & Employment Agency,employment_agencies,,CO,Centennial,80111.0,6300 S Syracuse Way Ste 645,39.6016275,-104.898501,Microsoft,2025-04-30T00:29:30.630Z,0.77,d3cd15f0-cc3f-4f6a-ad90-059d132a6230,,transportation,parking,OpenStreetMap,2024-06-02T23:51:40.000Z,,denver,False
2ca5574b-7390-4adc-8d4a-fa366901e467,Robert Half Recruiters & Employment Agency,employment_agencies,,CO,Denver,80202.0,1125 17th St Ste 900,39.7492345,-104.995027,Microsoft,2025-04-30T00:29:30.630Z,0.77,,,,,,,,denver,False
b9eb4e26-e655-4e2b-901c-73f5b3191e66,Robert Half,employment_agencies,"['business', 'financial_service']",CO,Denver,80202.0,1125 17th St,39.7498891,-104.9943917,meta,2025-06-02T07:00:00.000Z,0.9784508333782836,fbc0bc48-dcf8-4424-a1ae-276d8fd53a05,1125 17th Street,commercial,commercial,OpenStreetMap,2020-05-28T03:21:45.000Z,,denver,False
08704657-668b-41fa-b747-835f13e83ac3,Robert Half Recruiters & Employment Agency,employment_agencies,,CA,San Diego,92101.0,600 W Broadway Ste 850,32.7157604,-117.1687382,Microsoft,2025-04-30T00:29:30.630Z,0.77,,,,,,,,san-diego,False
a909714e-ead6-4a93-b734-cff2da0b1985,Robert Half,employment_agencies,['professional_services'],CA,San Diego,92101.0,600 W Broadway,32.7165464,-117.1684889,meta,2025-06-02T07:00:00.000Z,0.9300613496932516,517fdd21-9325-4311-a979-7209544bad18,One America Plaza,,,OpenStreetMap,2025-02-06T03:47:02.000Z,,san-diego,False
7e9a292f-01dd-4891-9888-7d6283b1c6a4,Robert Half,employment_agencies,"['business', 'professional_services']",CA,La Jolla,92037.0,4225 Executive Sq,32.8739404,-117.21567,meta,2025-06-02T07:00:00.000Z,0.9784508333782836,410a1238-7052-4432-ad98-c4e77c43b54b,,commercial,office,OpenStreetMap,2023-07-19T17:55:33.000Z,,san-diego,False
b324a5fe-64ee-4f4a-a64c-af6f2a4ba088,Robert Half Recruiters & Employment Agency,employment_agencies,,CA,La Jolla,92037.0,4225 Executive Sq Ste 300,32.8740761,-117.2156825,Microsoft,2025-04-30T00:29:03.620Z,0.77,5348e9ea-73c5-49b0-9944-c3e914b81bc4,,,,OpenStreetMap,2023-07-19T18:03:02.000Z,,san-diego,False
8bb0f67e-8bff-461d-80b7-68902d64f95b,Robert Half,employment_agencies,,CA,San Diego,92128.0,13520 Evening Creek Dr N Ste 420,32.9627757,-117.0935557,Microsoft,2019-06-13T19:10:17.960Z,0.77,34179e94-385a-48f3-ac2c-38d245b94d50,City National Bank,,,OpenStreetMap,2013-04-03T22:07:34.000Z,,san-diego,False
b473b63d-74f7-4467-b821-0c2f85c3c88c,Robert Half Recruiters & Employment Agency,employment_agencies,,MI,Dearborn,48126.0,6 Parklane Blvd Ste 100,42.3244513,-83.2074951,Microsoft,2025-04-30T00:29:03.620Z,0.77,,,,,,,,detroit,False
f4f5094b-6c93-42d8-ba7c-ff65993b176b,Robert Half,employment_agencies,"['business', 'financial_advising']",MI,Dearborn,48126.0,6 Parklane Blvd,42.3244549,-83.206445,meta,2025-06-02T07:00:00.000Z,0.9300613496932516,a0fba51b-5717-4db7-9e8c-baa3bef518fb,Fairlane Office Center,commercial,office,OpenStreetMap,2022-05-06T04:53:27.000Z,,detroit,False
832e16d8-8b9f-45b8-b70d-29527ddd1925,Robert Half,employment_agencies,"['business', 'professional_services']",MI,Southfield,48076.0,1 Towne Sq,42.4834656,-83.25474,meta,2025-06-02T07:00:00.000Z,0.9415384615384615,,,,,,,,detroit,False
ca48bf40-7d48-4830-abf6-5ad43795cf6b,Accountemps/Robert Half Staffing Agency,employment_agencies,"['professional_services', 'financial_service']",MI,Southfield,48076.0,1 Towne Sq,42.483625,-83.253316,meta,2025-06-02T07:00:00.000Z,0.3961437335670464,2464a328-fcf0-4ce2-9532-c7ba7cef8816,,transportation,parking,OpenStreetMap,2016-08-31T10:08:47.000Z,,detroit,False
0cefe181-3fa4-4d33-a2be-93883cb44a46,Robert Half Recruiters & Employment Agency,employment_agencies,,MI,Southfield,48076.0,1 Towne Sq Ste 1050,42.4841016,-83.2529433,Microsoft,2025-04-30T00:29:30.630Z,0.77,,,,,,,,detroit,False
2aa9bf10-3ab2-4494-b07b-7c0691da69df,Robert Half,employment_agencies,,MI,Troy,48098.0,1441 W Long Lake Rd Ste 320,42.5899983,-83.1768089,Microsoft,2019-06-13T19:10:17.960Z,0.77,bee82fe2-6ef2-4f99-89e9-27452bb743fc,,commercial,office,OpenStreetMap,2025-06-03T16:01:34.000Z,,detroit,False
9d2bd4a3-b6c7-4366-921e-c8e242a11f6f,Robert Half,employment_agencies,"['business', 'professional_services']",MI,Troy,48098.0,1441 W Long Lake Rd,42.5902468,-83.1769656,meta,2025-06-02T07:00:00.000Z,0.9415384615384615,,,,,,,,detroit,False
5dffd74a-0c6a-41ac-95cc-5d1caf433e2c,Robert Half Recruiters & Employment Agency,employment_agencies,,MI,Troy,48098.0,1441 W Long Lake Rd Ste 320,42.5907514,-83.1769259,Microsoft,2025-04-30T00:29:30.630Z,0.77,,,,,,,,detroit,False
7c8253b2-5994-47e9-aacf-344f1c36682a,Robert Half,employment_agencies,"['business', 'professional_services']",CA,Stockton,95219.0,10100 Trinity Pkwy,38.0476278,-121.3705643,meta,2025-06-02T07:00:00.000Z,0.9415384615384615,3b8b9df8-b63f-4014-af18-d90de05b0a8f,A.G. Spanos Building,commercial,office,OpenStreetMap,2021-12-13T22:59:44.000Z,,stockton,False
a9e55680-f6f9-4ecc-b399-a3ebb02e5289,Robert Half,employment_agencies,"['professional_services', 'pub']",TN,Memphis,38103.0,22 N Front St,35.1461187,-90.0537418,meta,2025-06-02T07:00:00.000Z,0.9459263554653524,23405133-f5b0-4d35-b064-53b5b01a6958,Falls Building,commercial,commercial,OpenStreetMap,2018-03-21T17:23:39.000Z,,memphis,False
c0069142-a592-47e2-a1ff-f734f5513084,Robert Half,employment_agencies,"['business', 'professional_services']",TN,Memphis,38138.0,6750 Poplar Ave,35.0987024,-89.8381734,meta,2025-06-02T07:00:00.000Z,0.9459263554653524,103b9fee-6fb7-4ceb-b38c-bfca4e000235,,,,OpenStreetMap,2019-01-31T22:46:54.000Z,,memphis,False
77fd8ccc-f98c-4b49-8850-82a4592b32f2,Robert Half,employment_agencies,"['business', 'professional_services']",RI,Providence,2908.0,275 Promenade St,41.8292677,-71.4209811,meta,2025-06-02T07:00:00.000Z,0.9415384615384615,662004d5-23f0-4984-b0d3-5bb7eff7eb9d,The Promenade,residential,apartments,OpenStreetMap,2022-08-01T11:37:30.000Z,,providence,False
12efe27b-a7e5-4b79-b143-d55d27962369,Robert Half Recruiters & Employment Agency,employment_agencies,,VA,Herndon,20170.0,12950 Worldgate Dr Ste 201,38.957009,-77.398993,Microsoft,2025-04-30T00:29:30.630Z,0.77,,,,,,,,washington-dc,False
c00e76a4-b714-402c-b34b-dbda5e37ac7a,Robert Half,employment_agencies,"['business', 'professional_services']",VA,Herndon,20170.0,12950 Worldgate Dr,38.9573624,-77.3988851,meta,2025-06-02T07:00:00.000Z,0.9300613496932516,3dfbfa22-72db-4feb-9bb1-ecabe98d6c5c,,transportation,parking,OpenStreetMap,2020-04-22T13:43:19.000Z,,washington-dc,False
7ef56b99-6552-46ea-aa5b-50d85399e6f4,Robert Half,employment_agencies,,VA,Herndon,20170.0,12950 Worldgate Dr Ste 201,38.9567934,-77.3983899,Microsoft,2019-06-13T19:10:17.960Z,0.77,aab91781-c361-4ab2-bf98-073b0e09d445,,commercial,commercial,OpenStreetMap,2017-12-07T15:14:21.000Z,,washington-dc,False
ab34e13e-c4c3-4773-8f5d-c8520664467a,Robert Half,employment_agencies,['professional_services'],VA,Alexandria,22314.0,225 Reinekers Ln,38.8052037,-77.0599906,meta,2025-06-02T07:00:00.000Z,0.9297091412742382,ad556b79-d8b9-4a1c-b803-ea6f585c0195,,,,OpenStreetMap,2017-10-21T16:14:32.000Z,,washington-dc,False
10d3fed4-a30e-42ce-8682-0fe18435b30c,Robert Half,employment_agencies,"['business', 'professional_services']",VA,McLean,22102.0,1751 Pinnacle Dr,38.9210872,-77.2287662,meta,2025-06-02T07:00:00.000Z,0.9459263554653524,,,,,,,,washington-dc,False
a69c97d0-cb6b-4252-92d1-5188d9925d3c,Robert Half Recruiters & Employment Agency,employment_agencies,,VA,McLean,22102.0,1751 Pinnacle Dr Ste 1600,38.9212482,-77.2292429,Microsoft,2025-04-30T00:29:03.620Z,0.77,,,,,,,,washington-dc,False
c38d0f02-4baf-4844-9066-528f7b6daef6,Robert Half Legal,employment_agencies,,DC,Washington,20036.0,1900 L St NW Ste 850,38.903473,-77.043978,Microsoft,2018-07-24T02:11:36.330Z,0.77,0b80fe9c-4162-40e6-b986-06aafd638fce,,commercial,office,OpenStreetMap,2023-07-23T14:24:11.000Z,,washington-dc,False
fb7285d5-45a7-4c57-a003-c93d18d1edb0,Robert Half Recruiters & Employment Agency,employment_agencies,,DC,Washington,20005.0,1401 I St NW Ste 400,38.9013231,-77.0324109,Microsoft,2025-04-30T00:29:30.630Z,0.77,,,,,,,,washington-dc,False
5baa1eca-49ba-481e-9aee-97f86f075bad,Robert Half,employment_agencies,"['financial_service', 'professional_services']",DC,Washington,20005.0,1401 I St NW,38.9014786,-77.0324279,meta,2025-06-02T07:00:00.000Z,0.9415384615384615,75a2d4a4-4aea-4705-ba37-7e0dfe3765f6,Franklin Tower,,,OpenStreetMap,2019-02-23T15:35:18.000Z,,washington-dc,False
9eaf4b03-51f3-4ca1-b604-4cb38999457c,Robert Half,employment_agencies,"['business', 'public_service_and_government']",MD,Greenbelt,20770.0,7500 Greenway Center Dr,38.99215,-76.8813933,meta,2025-06-02T07:00:00.000Z,0.9300613496932516,7fd209a3-dfe8-4ec4-bf85-925f5c2039a9,,,,OpenStreetMap,2011-02-17T05:05:39.000Z,,washington-dc,False
