id_left,primary_name_left,primary_category,alternate_category,region,locality,zipcode,address,latitude,longitude,plc_source_dataset,plc_source_update_time,plc_source_confidence,id_right,primary_name_right,subtype,class,bldg_dataset,bldg_update_time,bldg_confidence,source_city,is_office_by_pipeline
e75b3572-a69c-4fe8-bb6b-45d074f406aa,Orkin Pest Control,pest_control_service,['home_improvement_store'],CT,East Berlin,6023.0,105 Clark Dr,41.6216813,-72.7227371,meta,2025-06-02T07:00:00.000Z,0.9415384615384615,1876ed43-82a0-4b75-b0fb-eb1af997ee8d,,,,OpenStreetMap,2021-07-05T22:13:41.000Z,,hartford,False
830dceb0-736e-4da4-934c-c13cb5dbc32b,Orkin Pest Control,pest_control_service,['home_improvement_store'],OH,Holland,43528.0,6537 Angola Rd,41.6237094,-83.69732,meta,2025-06-02T07:00:00.000Z,0.9415384615384615,1da40d90-e7f8-434e-abfe-3ac6d17cfef4,Great Heartland Buddhist Temple of Toledo,religious,,OpenStreetMap,2016-07-12T10:29:44.000Z,,toledo,False
c6b33b93-ed08-4aeb-a32f-19c768edbb01,Orkin,pest_control_service,,OH,Holland,43528.0,6537 Angola Rd,41.6144359,-83.6116029,Microsoft,2024-04-06T05:29:28.067Z,0.77,7d7ebe1c-0383-413d-a13d-025ac3f6b41a,,,,OpenStreetMap,2019-12-05T22:57:06.000Z,,toledo,False
bd0bca5e-bc5a-47f2-9e9e-4a1d74dea1e4,Rebecca Rollins Interiors,interior_design,['home_improvement_store'],CA,Santa Clarita,91355.0,25030 Avenue Tibbitts,34.4307573,-118.5700835,meta,2025-06-02T07:00:00.000Z,0.9415384615384615,b0ae6f07-5941-4947-bd2b-b9865997ed76,,industrial,industrial,OpenStreetMap,2017-02-06T11:04:06.000Z,,santa-clarita,False
9f5845ca-6e0c-46d8-886d-9e1b35203b02,Orkin Pest Control,pest_control_service,['professional_services'],CA,Costa Mesa,92626.0,1580 Corporate Dr,33.6979735,-117.9242597,meta,2025-06-02T07:00:00.000Z,0.9415384615384615,ffcbd897-aa25-4e5a-bd84-a909b72a6ff0,,,,OpenStreetMap,2020-11-03T20:43:51.000Z,,mission-viejo,False
67c208b3-199f-4cd5-91ef-00420056070f,Orkin,pest_control_service,,CA,Costa Mesa,92626.0,1580 Corporate Dr Ste 123,33.676449,-117.879653,Microsoft,2024-04-06T05:29:28.067Z,0.77,6fcc25e0-df9f-4ee8-b9ee-f6055aa122f5,,,,OpenStreetMap,2022-12-12T21:35:49.000Z,,mission-viejo,False
02506e3a-378b-4e4c-8124-2c590ee120d4,Orkin Pest Control,pest_control_service,['professional_services'],CA,Irvine,92618.0,15520 Rockfield Blvd,33.639411,-117.7237102,meta,2025-06-02T07:00:00.000Z,0.9300613496932516,e1ca1384-d702-4456-a0a7-e9e6e463c15d,,commercial,commercial,OpenStreetMap,2020-09-15T17:53:12.000Z,,mission-viejo,False
37eddf35-9d46-4dcf-808c-21a51957d901,Orkin,pest_control_service,,CA,Lake Forest,92630.0,21084 Bake Pkwy Ste 108,33.6557711,-117.7004106,Microsoft,2025-05-17T21:28:17.950Z,0.77,5390a67e-c6f3-44e7-b3a9-70a13f8c4793,,commercial,commercial,OpenStreetMap,2020-09-20T20:45:02.000Z,,mission-viejo,False
ffc7bd21-e000-4983-a205-835ac1858147,Orkin Pest Control,pest_control_service,['professional_services'],CA,Lake Forest,92630.0,21084 Bake Pkwy,33.6559912,-117.7001373,meta,2025-06-02T07:00:00.000Z,0.9297091412742382,5390a67e-c6f3-44e7-b3a9-70a13f8c4793,,commercial,commercial,OpenStreetMap,2020-09-20T20:45:02.000Z,,mission-viejo,False
b6cc07f2-b011-45fe-ac47-7ca8dcdc8489,Orkin Pest Control,pest_control_service,['home_improvement_store'],MN,Eden Prairie,55344.0,9927 Valley View Rd,44.8720074,-93.4012855,meta,2025-06-02T07:00:00.000Z,0.9297091412742382,,,,,,,,minneapolis,False
ba68876b-63bb-43cd-ba35-4316c09bb4aa,Nicholas Rollins Agency,insurance_agency,,MN,Eden Prairie,55344.0,9755 Hamilton Rd,44.8804339,-93.40187,meta,2025-06-02T07:00:00.000Z,0.9297091412742382,00f2a7f2-7d27-450c-8d88-427a7b0bf33c,NuSource Financial,,,OpenStreetMap,2019-02-12T02:08:13.000Z,,minneapolis,False
77ed46f1-c844-4e81-8375-b0b7605b229a,Orkin Pest Control,pest_control_service,['home_improvement_store'],MN,St Paul,55117.0,235 Roselawn Ave E,45.0003284,-93.0910189,meta,2025-06-02T07:00:00.000Z,0.9297091412742382,143184d7-9848-4834-94ec-8376f8043fd5,,,,OpenStreetMap,2020-03-25T14:17:12.000Z,,minneapolis,False
2453de20-bc43-4f83-831a-462323d64db8,Orkin,pest_control_service,"['professional_services', 'home_improvement_store']",MN,White Bear Lake,55110.0,1861 Buerkle Rd,45.0398644,-93.0275566,meta,2025-06-02T07:00:00.000Z,0.9300613496932516,875b2903-ff96-4209-b5bc-63678c85df53,,,,OpenStreetMap,2024-07-19T17:03:39.000Z,,minneapolis,False
b4524502-692f-4825-87b4-e9392a6df365,Orkin Pest Control,pest_control_service,['professional_services'],CA,Bakersfield,93313.0,7440 District Blvd,35.3133513,-119.0842221,meta,2025-06-02T07:00:00.000Z,0.9784508333782836,,,,,,,,bakersfield,False
06ff252d-fff6-411c-b40f-bbd8eff6e6eb,Orkin Pest Control,pest_control_service,"['professional_services', 'home_improvement_store']",VA,Richmond,23235.0,10813 Midlothian Tpke,37.506262,-77.5967657,meta,2025-06-02T07:00:00.000Z,0.9459263554653524,7872d83e-513b-48dd-aa74-e1c848dce4f9,,,,OpenStreetMap,2019-08-29T02:45:58.000Z,,richmond,False
d22c26d4-6abe-4aba-b9c9-fa1498fddc01,Rollins Accounting & Inventory Services,accountant,"['financial_service', 'lawyer']",VA,Richmond,23236.0,9011 Arboretum Pkwy,37.4919603,-77.5672954,meta,2025-06-02T07:00:00.000Z,0.9297091412742382,04fb3d41-5a9f-4704-8c84-8840ec2d615f,,,,OpenStreetMap,2019-08-29T02:45:58.000Z,,richmond,False
2f3c8d60-2af6-4034-b302-f01d7aebfe98,"Kent L. Rollins, MD",urologist,"['doctor', 'public_health_clinic', 'health_and_medical']",VA,Richmond,23235.0,9105 Stony Point Dr,37.5478959,-77.5649206,Microsoft,2025-05-20T05:14:59.897Z,0.77,,,,,,,,richmond,False
8a256739-6787-4755-8b23-c6e4ff932a61,Orkin,pest_control_service,['home_improvement_store'],AL,Huntsville,35806.0,6767 Old Madison Pike NW,34.7122504,-86.6739711,meta,2025-06-02T07:00:00.000Z,0.9415384615384615,,,,,,,,huntsville,False
5fabecd6-423e-4891-9738-d721b684a758,Rollins Air Conditioning Company,hvac_services,"['contractor', 'airport']",AL,Huntsville,35810.0,4302 Lakeview Dr NW,34.78391,-86.59115,meta,2025-06-02T07:00:00.000Z,0.242152466367713,6f812eb3-1dde-400b-b335-1333dbe2dc02,,,,Microsoft ML Buildings,2021-12-02T00:00:00.000Z,,huntsville,False
ad19c151-f047-473d-9947-2e388b983e73,Orkin Pest Control,pest_control_service,['professional_services'],TX,Carrollton,75006.0,3330 Keller Springs Rd,32.9685194,-96.8428522,meta,2025-06-02T07:00:00.000Z,0.9300613496932516,f6306ba2-861f-4106-bf40-e9983f882060,,,,OpenStreetMap,2016-06-14T23:49:05.000Z,,denton-lewisville,False
49d72ba2-68ea-427d-a239-a6bdb3a0952a,Orkin Pest Control,pest_control_service,"['home_improvement_store', 'professional_services']",TX,Carrollton,75006.0,2820 Trinity Square Dr,32.9831594,-96.8528201,meta,2025-06-02T07:00:00.000Z,0.9459263554653524,,,,,,,,denton-lewisville,False
9aff82bb-18d4-4fcb-9a14-d3a58a57cd04,Orkin Pest Control,pest_control_service,"['gardener', 'landscaping']",FL,Tampa,33619.0,9629 Palm River Rd,27.9403999,-82.3466939,meta,2025-06-02T07:00:00.000Z,0.9415384615384615,c10adf80-e266-4ee8-bc66-5fed172767f1,,,,OpenStreetMap,2017-09-11T21:57:22.000Z,,tampa,False
78ba4176-0b51-4bae-8dc6-8b75eacdeae2,Orkin Pest Control,pest_control_service,['professional_services'],FL,Tampa,33634.0,5031 Savarese Cir,28.0236618,-82.5325036,meta,2025-06-02T07:00:00.000Z,0.9459263554653524,85f2e3e7-8489-4121-865e-1f80a62530c8,,,,OpenStreetMap,2017-09-12T06:29:29.000Z,,tampa,False
4baf3d32-0656-4c43-b09c-a69d5a6b4a30,Orkin Pest Control,pest_control_service,['professional_services'],KY,Erlanger,41018.0,1455 Jamike Ave,39.0429735,-84.6305017,meta,2025-06-02T07:00:00.000Z,0.9459263554653524,2902e822-4354-4a9a-be9a-69ca569d1047,,,,OpenStreetMap,2011-06-20T04:34:26.000Z,,cincinnati,False
2bfc3a7a-a98f-48e0-9cd0-108a9c78a1f9,Orkin Pest & Termite Control,pest_control_service,,KY,Erlanger,41018.0,1455 Jamike Ave,39.043523,-84.630742,Microsoft,2025-05-15T15:38:54.930Z,0.77,,,,,,,,cincinnati,False
5c6fb6e6-c592-4e1f-805e-0b58f2368977,Orkin,pest_control_service,,OH,Cincinnati,45240.0,1320 Kemper Meadow Dr Ste 200,39.2452536,-84.4735658,Microsoft,2025-05-16T00:43:58.843Z,0.77,ff1b1fa5-34bc-4c92-a672-e8f32ee9dd9a,,,,OpenStreetMap,2010-06-26T09:07:26.000Z,,cincinnati,False
8e4eeaa9-6a13-4d87-b6f0-5e794d6eb738,Orkin Pest Control,pest_control_service,['home_improvement_store'],OH,Cincinnati,45240.0,1320 Kemper Meadow Dr,39.2937243,-84.5295891,meta,2025-06-02T07:00:00.000Z,0.9415384615384615,238da27f-19af-40bb-adec-8eaf28a2e67b,,,,OpenStreetMap,2010-03-24T09:56:40.000Z,,cincinnati,False
03c7810f-7ffe-4e2d-ad17-a2c5996570d5,"Amy Rollins, Trademark Lawyer",lawyer,"['ip_and_internet_law', 'professional_services']",IN,Indianapolis,46204.0,47 S Meridian St,39.767417,-86.155998,meta,2025-06-02T07:00:00.000Z,0.242152466367713,5f0c053d-e07a-4bfb-a96b-e25c4059dfc7,One North Penn,commercial,office,OpenStreetMap,2019-12-31T16:29:32.000Z,,indianapolis,False
bf12b3fb-c4d9-447a-b779-61ca791b411d,Orkin Pest Control,pest_control_service,['home_improvement_store'],IN,Indianapolis,46278.0,7034 Corporate Dr,39.8806802,-86.2658193,meta,2025-06-02T07:00:00.000Z,0.9415384615384615,,,,,,,,indianapolis,False
554e7359-aeff-4565-84b7-d25a6ec21eea,Orkin Pest Control,pest_control_service,['home_improvement_store'],IN,Indianapolis,46268.0,8727 Commerce Park Pl,39.9133389,-86.2326764,meta,2025-06-02T07:00:00.000Z,0.9459263554653524,,,,,,,,indianapolis,False
f5caacbe-3afe-4c01-8fbf-a51dddf6b641,Orkin,pest_control_service,['home_improvement_store'],IN,Indianapolis,46226.0,3932 Pendleton Way,39.8288513,-86.0348215,meta,2025-06-02T07:00:00.000Z,0.9415384615384615,,,,,,,,indianapolis,False
15864ea6-cf7a-4e75-8b8d-91c140bb838f,Orkin,pest_control_service,,IN,Fishers,46037.0,9742 Olympia Dr,39.9290815,-85.9827522,Microsoft,2019-12-04T15:54:05.833Z,0.77,,,,,,,,indianapolis,False
9fb6f23f-a115-4b82-a30b-25606692b808,Rollins Law Group,business_consulting,,IN,Fishers,46038.0,8500 E 116th St Unit 448,39.9578811,-86.0186345,Microsoft,2025-04-19T08:16:33.933Z,0.77,,,,,,,,indianapolis,False
5d625bf3-f7fe-4e16-90e4-82076c9dcf58,Rollins Law Group LLC,lawyer,"['legal_services', 'real_estate']",IN,Fishers,46038.0,12175 Visionary Way,39.9666599,-86.0089201,meta,2025-06-02T07:00:00.000Z,0.9459263554653524,26ad09fd-86dd-40b9-84c7-868e908b57a7,Launch Fishers,industrial,industrial,OpenStreetMap,2022-12-08T03:19:06.000Z,,indianapolis,False
906fba49-16ae-4123-b087-235d6a447e06,Orkin,pest_control_service,,MO,Eureka,63025.0,72 E North St,38.509774,-90.6256098,Microsoft,2019-12-04T15:54:05.833Z,0.77,,,,,,,,st-louis,False
030c599c-d024-4c6a-ad16-53d94065d6a5,Orkin Pest Control,pest_control_service,"['professional_services', 'home_improvement_store']",MO,Fenton,63026.0,1528 Fenpark Dr,38.5338399,-90.4486221,meta,2025-06-02T07:00:00.000Z,0.9459263554653524,17ee040c-3856-4043-8ffd-cfec027da199,,,,OpenStreetMap,2013-08-28T21:28:57.000Z,,st-louis,False
4b3aabb4-d31d-490c-b6cd-fa47f133cee3,Greg Rollins,insurance_agency,['financial_service'],MO,Manchester,63088.0,17 Stonegate Ctr,38.5666586,-90.4947418,meta,2025-06-02T07:00:00.000Z,0.9879256218304756,4a1d0976-1b4d-4238-845c-ea90225bdb52,,commercial,retail,OpenStreetMap,2018-01-11T20:14:54.000Z,,st-louis,False
f714ef02-21af-4f51-926f-e018eaecdb09,"Amber Rollins, RE/MAX Results",real_estate_agent,['real_estate'],MO,Chesterfield,63005.0,"Credit Union 1, 17151 Chesterfield Airport Rd",38.6123363,-90.3359269,meta,2025-06-02T07:00:00.000Z,0.9459263554653524,bafbb024-0231-4ec6-91bb-936dcf8db8c0,,,,OpenStreetMap,2020-11-10T16:28:18.000Z,,st-louis,False
88290ae0-93cb-461a-a47f-331813d72a2b,Orkin,pest_control_service,"['automation_services', 'home_inspector']",MO,Weldon Spring,63304.0,855 Westwood Industrial Park Dr,38.7254555,-90.670413,meta,2025-06-02T07:00:00.000Z,0.9459263554653524,daf2e073-8de0-4363-a910-cd1bfc019f72,,,,Microsoft ML Buildings,2022-08-25T00:00:00.000Z,,st-louis,False
e24a6f02-56a6-411e-8c1f-908dba0b7160,Orkin Pest & Termite Control,pest_control_service,,MO,Weldon-Spring,63304.0,855 Westwood Industrial Park Dr,38.724948,-90.669686,Microsoft,2025-05-15T16:48:30.940Z,0.77,51b3f91b-0a6d-4d6a-bbe3-8e3864fc8479,,,,Microsoft ML Buildings,2022-08-25T00:00:00.000Z,,st-louis,False
961efbbc-04d6-41af-8afe-b92e72df1f32,Orkin,pest_control_service,,MO,Weldon Spring,63304.0,855 Westwood Industrial Park Dr,38.725312,-90.669716,Microsoft,2025-05-17T21:27:51.987Z,0.77,,,,,,,,st-louis,False
f657d3a0-66cf-45f8-b661-0684353fc016,Rollins Plant Stand,gardener,,IL,Granite City,62040.0,2561 Boyle Ave,38.73341,-90.09826,meta,2025-06-02T07:00:00.000Z,0.242152466367713,50436894-d9f3-42cc-ab8a-19cc3bf45357,,,,Microsoft ML Buildings,2022-08-25T00:00:00.000Z,,st-louis,False
c2b1a991-1b53-4ca6-a4c1-3f39b3905c96,Orkin Pest Control,pest_control_service,['professional_services'],PA,Harrisburg,17111.0,4450 Paxton St,40.253704,-76.8058012,meta,2025-06-02T07:00:00.000Z,0.9415384615384615,95cc0580-77da-491c-8239-96b6890be072,,,,OpenStreetMap,2020-10-29T15:19:52.000Z,,harrisburg,False
d5262356-592a-488b-9e9a-a8152036ab09,Orkin Pest Control,pest_control_service,['home_improvement_store'],CA,Fresno,93727.0,5830 E Shields Ave,36.7792299,-119.6900245,meta,2025-06-02T07:00:00.000Z,0.9459263554653524,,,,,,,,fresno,False
a0991fd8-497c-4ec4-b9a4-85b511d41ea8,Orkin Pest Control,pest_control_service,['professional_services'],WA,Spokane Valley,99212.0,111 N Vista Rd,47.6580244,-117.2979399,meta,2025-06-02T07:00:00.000Z,0.9415384615384615,616514df-6ac4-4a5f-a28f-558b4e98fb71,,,,OpenStreetMap,2022-06-13T20:53:53.000Z,,spokane,False
fa1e08f1-9685-49b2-a185-9deca8ada5ac,Orkin Pest Control,pest_control_service,['professional_services'],TN,Knoxville,37922.0,211 Center Park Dr,35.9076204,-84.1217072,meta,2025-06-02T07:00:00.000Z,0.9300613496932516,19a6fea3-f7d1-4d8e-a778-d2f20947bf0e,,,,OpenStreetMap,2023-12-26T02:32:33.000Z,,knoxville,False
c4de3e35-cb7c-4d01-a553-dd6683e5e029,Orkin,pest_control_service,,TN,Knoxville,37922.0,110 Perimeter Park Rd,35.9073218,-84.1116423,Microsoft,2019-12-04T15:54:05.833Z,0.77,,,,,,,,knoxville,False
364abb96-bcad-4ed1-ba7e-500bbe0e7c61,Orkin Pest Control,pest_control_service,['home_improvement_store'],TN,Knoxville,37909.0,4333 Papermill Dr NW,35.9536148,-83.9827612,meta,2025-06-02T07:00:00.000Z,0.9300613496932516,80b9ed4b-fa6b-42aa-85bb-1c49f85ea8bc,,,,OpenStreetMap,2024-12-23T03:39:00.000Z,,knoxville,False
249f971a-ac82-4c8f-96f9-36361ed424fd,Orkin Pest Control,pest_control_service,['professional_services'],LA,Baton Rouge,70809.0,12030 Lakeland Park Blvd,30.3877299,-91.0451201,meta,2025-06-02T07:00:00.000Z,0.9459263554653524,b97541e6-de87-46e0-a3ad-f6786cdb4978,,,,OpenStreetMap,2023-03-05T05:35:54.000Z,,baton-rouge,False
22de32a2-df36-4ff8-869d-e5780e77e78f,Orkin Pest Control,pest_control_service,['home_improvement_store'],CA,Burlingame,94010.0,819 Cowan Rd,37.6022617,-122.374203,meta,2025-06-02T07:00:00.000Z,0.9459263554653524,9918131e-69ca-4cd1-9e94-662d86b1f19e,,commercial,office,OpenStreetMap,2021-05-26T01:23:39.000Z,,oakland,False
9d0628b4-0334-46c3-84e8-dd7abea79d9f,Orkin Pest Control,pest_control_service,"['home_improvement_store', 'professional_services']",CA,Hayward,94545.0,2385 Lincoln Ave,37.6496597,-122.1370344,meta,2025-06-02T07:00:00.000Z,0.9415384615384615,,,,,,,,oakland,False
c4ae441c-b5f6-4752-8d25-e3e1e020fb75,Orkin,pest_control_service,,CA,Concord,94520.0,4070 Nelson Ave,38.0105621,-122.0425918,Microsoft,2019-12-04T15:54:05.833Z,0.77,1a3afa15-3e7d-4255-a931-8f18fb008778,,,,OpenStreetMap,2018-06-28T15:01:56.000Z,,oakland,False
10db0143-3fed-4680-9c4e-beba2ffdf313,Orkin,pest_control_service,,KS,Wichita,67203.0,3015 W Central Ave,37.69443,-97.37783,meta,2025-06-02T07:00:00.000Z,0.296943231441048,1ba7a32b-1210-4c83-ac5c-2d0e672ed27e,,,,OpenStreetMap,2020-10-01T19:01:50.000Z,,wichita,False
1b4c6ef1-1e36-4a7f-8fc7-fd13095a870c,Orkin Pest Control,pest_control_service,['home_improvement_store'],KS,Wichita,67214.0,1555 E 2nd St N,37.689601,-97.3197351,meta,2025-06-02T07:00:00.000Z,0.9415384615384615,,,,,,,,wichita,False
425b1579-1fb9-4856-aa60-14d73dbc9b93,Orkin Pest Control,pest_control_service,['professional_services'],CA,Huntington Beach,92649.0,5932 Bolsa Ave,33.7434333,-118.0254469,meta,2025-06-02T07:00:00.000Z,0.9459263554653524,97af5dff-0a32-45d8-b800-c70fac4443a2,,commercial,commercial,OpenStreetMap,2021-09-20T20:13:42.000Z,,los-angeles,False
9f5845ca-6e0c-46d8-886d-9e1b35203b02,Orkin Pest Control,pest_control_service,['professional_services'],CA,Costa Mesa,92626.0,1580 Corporate Dr,33.6979735,-117.9242597,meta,2025-06-02T07:00:00.000Z,0.9415384615384615,ffcbd897-aa25-4e5a-bd84-a909b72a6ff0,,,,OpenStreetMap,2020-11-03T20:43:51.000Z,,los-angeles,False
67c208b3-199f-4cd5-91ef-00420056070f,Orkin,pest_control_service,,CA,Costa Mesa,92626.0,1580 Corporate Dr Ste 123,33.676449,-117.879653,Microsoft,2024-04-06T05:29:28.067Z,0.77,6fcc25e0-df9f-4ee8-b9ee-f6055aa122f5,,,,OpenStreetMap,2022-12-12T21:35:49.000Z,,los-angeles,False
02506e3a-378b-4e4c-8124-2c590ee120d4,Orkin Pest Control,pest_control_service,['professional_services'],CA,Irvine,92618.0,15520 Rockfield Blvd,33.639411,-117.7237102,meta,2025-06-02T07:00:00.000Z,0.9300613496932516,e1ca1384-d702-4456-a0a7-e9e6e463c15d,,commercial,commercial,OpenStreetMap,2020-09-15T17:53:12.000Z,,los-angeles,False
37eddf35-9d46-4dcf-808c-21a51957d901,Orkin,pest_control_service,,CA,Lake Forest,92630.0,21084 Bake Pkwy Ste 108,33.6557711,-117.7004106,Microsoft,2025-05-17T21:28:17.950Z,0.77,5390a67e-c6f3-44e7-b3a9-70a13f8c4793,,commercial,commercial,OpenStreetMap,2020-09-20T20:45:02.000Z,,los-angeles,False
ffc7bd21-e000-4983-a205-835ac1858147,Orkin Pest Control,pest_control_service,['professional_services'],CA,Lake Forest,92630.0,21084 Bake Pkwy,33.6559912,-117.7001373,meta,2025-06-02T07:00:00.000Z,0.9297091412742382,5390a67e-c6f3-44e7-b3a9-70a13f8c4793,,commercial,commercial,OpenStreetMap,2020-09-20T20:45:02.000Z,,los-angeles,False
9c25e505-7e85-4ad3-9327-9dc8686552b7,Rollins Law Group,lawyer,"['criminal_defense_law', 'divorce_and_family_law']",CA,El Segundo,90245.0,426 Main St,33.9216898,-118.4158051,meta,2025-06-02T07:00:00.000Z,0.9784508333782836,8ca924f7-f342-4473-9e9e-d1757eb28d35,,commercial,retail,OpenStreetMap,2020-05-31T05:07:30.000Z,,los-angeles,False
9c25e505-7e85-4ad3-9327-9dc8686552b7,Rollins Law Group,lawyer,"['criminal_defense_law', 'divorce_and_family_law']",CA,El Segundo,90245.0,426 Main St,33.9216898,-118.4158051,meta,2025-06-02T07:00:00.000Z,0.9784508333782836,adece6e6-0bbb-4a6b-9854-89163472bf7d,,commercial,retail,OpenStreetMap,2020-05-31T05:07:30.000Z,,los-angeles,False
5a539b49-8898-4b86-a12d-8ef0187372ab,Orkin Pest Control,pest_control_service,['professional_services'],CA,Torrance,90501.0,375 Van Ness Ave,33.8449352,-118.3193346,meta,2025-06-02T07:00:00.000Z,0.9415384615384615,638a4025-5a71-4715-8280-f5ad58c59895,,commercial,warehouse,OpenStreetMap,2016-04-10T02:28:07.000Z,,los-angeles,False
f819b561-a33b-4f76-a37c-690d327dcce5,Orkin Pest Control,pest_control_service,['professional_services'],CA,Long Beach,90810.0,1950 E 220th St,33.8275157,-118.2399433,meta,2025-06-02T07:00:00.000Z,0.9297091412742382,a171d6f9-8158-40a1-91e4-69f33054d299,,industrial,industrial,OpenStreetMap,2016-09-08T16:28:08.000Z,,los-angeles,False
a7744970-991f-4eb4-96af-ea1992d96d4f,Orkin,pest_control_service,['home_improvement_store'],CA,Signal Hill,90755.0,2601 E 28th St,33.80821,-118.161,meta,2025-06-02T07:00:00.000Z,0.3376623376623376,f6e3fc95-c043-4f3c-81f4-455f7dd2072d,,industrial,industrial,OpenStreetMap,2016-09-06T21:40:37.000Z,,los-angeles,False
7340276f-fdae-4892-b02c-04e2bf86ae33,Orkin Pest Control,pest_control_service,['professional_services'],CA,Gardena,90248.0,419 Walnut St,33.8741782,-118.2807457,meta,2025-06-02T07:00:00.000Z,0.9300613496932516,e9a3b860-b020-4433-942e-ef3492c2dfdc,,industrial,industrial,OpenStreetMap,2016-04-02T23:07:54.000Z,,los-angeles,False
591e6af1-6580-481a-ab7a-1b87aa137451,Raquel Rollins MA LMFT,counseling_and_mental_health,"['hospital', 'medical_service_organizations']",CA,Lakewood,90712.0,5150 Candlewood St,33.853591,-118.132659,meta,2025-06-02T07:00:00.000Z,0.9459263554653524,3acb44b5-497c-4586-9fce-18e4fd9cf8f9,The Village,commercial,commercial,OpenStreetMap,2016-09-08T16:30:02.000Z,,los-angeles,False
9dd22de3-4da7-4e79-9d7c-f139bb9a8316,Anthony Rollins Group,real_estate_agent,"['real_estate_service', 'professional_services']",CA,Santa Monica,90405.0,2701 Ocean Park Blvd,34.018471,-118.4569254,meta,2025-06-02T07:00:00.000Z,0.3313953488372093,45f7831b-c986-4892-84c5-fe1abce2035b,Ocean Park Plaza,commercial,commercial,OpenStreetMap,2023-01-29T20:11:56.000Z,,los-angeles,False
d7393d8d-6330-4c0e-8463-2974be7e31b2,Orkin Pest Control,pest_control_service,['professional_services'],CA,Los Angeles,90019.0,1053 Crenshaw Blvd,34.0533689,-118.3239646,meta,2025-06-02T07:00:00.000Z,0.9459263554653524,b9489bb7-0e39-4927-b689-4a5b8a9f2482,,commercial,commercial,OpenStreetMap,2019-09-23T10:45:32.000Z,,los-angeles,False
96bd9fdd-95b2-4d62-a680-baa5a5e4cc6e,Orkin Pest Control,pest_control_service,"['home_improvement_store', 'professional_services']",CA,Commerce,90040.0,2585 Commerce Way,33.999421,-118.1560993,meta,2025-06-02T07:00:00.000Z,0.9415384615384615,614ed5e5-3fad-4ebf-a1a8-0dab217aa35d,,industrial,industrial,OpenStreetMap,2016-11-25T20:19:39.000Z,,los-angeles,False
63907e05-457e-4f0f-b2d9-7297e5ff102e,"Melissa Beth Orkin, MD | Kaiser Permanente",pediatrician,"['doctor', 'medical_center', 'health_and_medical']",CA,Woodland Hls,91367.0,20940 Burbank Blvd,34.170993,-118.589741,Microsoft,2025-05-03T23:56:36.477Z,0.77,,,,,,,,los-angeles,False
04d206a8-37c0-45a4-9107-8ce8fe3c5f92,Melissa B Orkin M.D. - Kaiser Permanente,pediatrician,"['doctor', 'medical_center', 'health_and_medical']",CA,Woodland Hills,91367.0,20940 Burbank Blvd,34.182844,-118.595268,Microsoft,2015-06-19T21:26:28.167Z,0.77,,,,,,,,los-angeles,False
03764302-9b4b-4e10-835a-2c75d8aec2c7,Orkin Pest Control,pest_control_service,"['home_improvement_store', 'professional_services']",CA,North Hills,91343.0,16663 Roscoe Blvd,34.2205337,-118.4959102,meta,2025-06-02T07:00:00.000Z,0.9459263554653524,72ceba34-c025-4666-9780-1fc3dea5dcbc,,commercial,commercial,OpenStreetMap,2017-07-17T05:00:17.000Z,,los-angeles,False
49a4cce0-957b-4de8-81d6-ed6bafb5d1e1,Orkin Pest Control,pest_control_service,['professional_services'],CA,North Hollywood,91605.0,7244 Bellaire Ave,34.2020589,-118.4086506,meta,2025-06-02T07:00:00.000Z,0.9784508333782836,34c462c1-7b84-4819-bf4e-1d63f5699c22,,commercial,retail,OpenStreetMap,2016-07-18T11:38:33.000Z,,los-angeles,False
9d2d4d63-7551-4c90-9884-51b01f2ca509,"Jessica Leigh Orkin, MD | Kaiser Permanente",pediatrician,"['doctor', 'health_and_medical']",CA,Panorama City,91402.0,8001 Ventura Canyon Ave,34.2175482,-118.4293529,Microsoft,2025-04-19T19:19:56.580Z,0.77,486fe4f3-4b2e-4663-a61e-80fe0d8bc5b7,Urgent Care - Building 6,medical,,OpenStreetMap,2024-01-31T00:21:09.000Z,,los-angeles,False
ac96c564-fbcb-4569-88a0-ddd48955a76e,Orkin,pest_control_service,,CA,Pacoima,91331.0,12701 Van Nuys Blvd Ste B2,34.2764278,-118.4107691,Microsoft,2023-12-06T07:22:35.053Z,0.77,93849156-163e-4ad9-8e47-e041f11f8726,,industrial,industrial,OpenStreetMap,2016-08-01T20:24:43.000Z,,los-angeles,False
d1a9dab9-e167-4fdc-85ce-3b42663da874,Orkin Pest & Termite Control,pest_control_service,,CA,Pacoima,91331.0,12701 Van Nuys Blvd,34.275463,-118.409507,Microsoft,2025-01-16T07:29:53.620Z,0.77,,,,,,,,los-angeles,False
25e7c5d0-28ad-4367-9af1-664873886e90,Orkin,pest_control_service,,CA,Pacoima,91331.0,12701 Van Nuys Blvd,34.2761708,-118.4102084,Microsoft,2019-12-04T15:54:05.833Z,0.77,,,,,,,,los-angeles,False
62e51d59-9fa9-4c48-9be5-3cce76524a45,Rollins Andrew Interiors,interior_design,['professional_services'],CA,Pasadena,91105.0,850 S Arroyo Blvd,34.1312133,-118.1650503,meta,2025-06-02T07:00:00.000Z,0.8831168831168831,,,,,,,,los-angeles,False
c47d4b9c-33ac-4826-a286-37ccd00849e2,Orkin Pest Control,pest_control_service,"['home_improvement_store', 'professional_services']",CA,Anaheim,92801.0,2373 W La Palma Ave,33.847228,-117.9667933,meta,2025-06-02T07:00:00.000Z,0.9297091412742382,c7da271e-fc64-456f-a452-df1e13165ef2,,,,OpenStreetMap,2022-07-22T02:02:42.000Z,,los-angeles,False
2f5555fc-116b-4ac9-9d91-3477c13453a3,Orkin,pest_control_service,,CA,Brea,92821.0,555 W Lambert Rd Ste G,33.924685,-117.9042106,Microsoft,2025-05-17T15:53:08.903Z,0.77,,,,,,,,los-angeles,False
525c481a-7efa-4f67-bf67-a364e02594b2,Orkin Pest Control,pest_control_service,['home_improvement_store'],CA,Brea,92821.0,555 W Lambert Rd,33.9255388,-117.9042698,meta,2025-06-02T07:00:00.000Z,0.9415384615384615,c280656b-a984-4dcb-810d-b1e6794e6759,,commercial,commercial,OpenStreetMap,2014-07-27T21:11:16.000Z,,los-angeles,False
40d6dac7-2b46-464a-adc3-236b515f7ca4,Orkin Pest & Termite Control,pest_control_service,,CA,Brea,92821.0,555 W Lambert Rd,33.924831,-117.903789,Microsoft,2025-05-15T16:46:08.903Z,0.77,,,,,,,,los-angeles,False
f42cde6e-5188-4d14-99c1-32f2a6f8ebaa,Orkin,pest_control_service,['professional_services'],CA,Anaheim,92807.0,4420 E Miraloma Ave,33.8613944,-117.8200636,meta,2025-06-02T07:00:00.000Z,0.9459263554653524,0a8204bb-de82-4dc1-8ac5-cfac14c9d093,,,,OpenStreetMap,2022-07-22T01:28:39.000Z,,los-angeles,False
83378cda-09ce-46f4-a131-574f5e3581d2,Orkin Pest Control,pest_control_service,['professional_services'],CA,Covina,91724.0,845 S Oak Park Rd,34.0736334,-117.864492,meta,2025-06-02T07:00:00.000Z,0.9459263554653524,02e00d13-501f-4594-9d78-4fa8a57a0f9d,,commercial,commercial,OpenStreetMap,2017-02-01T10:26:16.000Z,,los-angeles,False
85201229-eb70-4ffd-b420-74cc3db878de,Orkin Pest Control,pest_control_service,"['home_improvement_store', 'professional_services']",CA,San Dimas,91773.0,357 E Arrow Hwy,34.1034448,-117.8008099,meta,2025-06-02T07:00:00.000Z,0.9297091412742382,3106dbe3-d1f3-4502-8b93-ab67ba50c8da,,commercial,warehouse,OpenStreetMap,2017-02-02T16:09:22.000Z,,los-angeles,False
1d3a0cd2-7b05-48d0-b6b9-2dad3c890b6b,Rollins Construction,patio_covers,"['awning_supplier', 'exterior_design']",CA,Upland,91786.0,1232 Monte Vista Ave Ste 1,34.1085824292505,-117.698292026847,Microsoft,2018-04-13T20:32:37.617Z,0.77,,,,,,,,los-angeles,False
56d38747-7f2f-413e-9264-2efd0da7aab3,Rollins Patios and Sunrooms,patio_covers,['construction_services'],CA,Upland,91786.0,1232 Monte Vista Ave,34.1096516,-117.6979337,meta,2025-06-02T07:00:00.000Z,0.9300613496932516,cbe0bb06-2146-48ba-bc61-f7393655b1b1,,,,OpenStreetMap,2021-12-14T10:56:26.000Z,,los-angeles,False
57b92869-e6e0-4433-8d44-6960b68d7bdc,Rollins Center for Entrepreneurship and Technology,education,"['campus_building', 'college_university']",UT,Provo,84606.0,735 N 500 E,40.24329,-111.65023,meta,2025-06-02T07:00:00.000Z,0.9459263554653524,db6fbe35-bbcd-41a2-97dc-fd96c44f841c,South Campus Office Building,education,university,OpenStreetMap,2025-01-12T05:01:34.000Z,,provo,False
c803e1b5-8082-4ae6-88a9-432999fb41ab,Orkin Steel Supply Inc.,building_supply_store,"['metals', 'business_to_business', 'retail']",PA,Slatington,18080.0,375 Cherry St,40.746893,-75.601748,Microsoft,2020-01-14T17:22:36.580Z,0.77,d1c9f44b-ebd0-41d1-93c8-e6b2780024e3,,commercial,commercial,Esri Community Maps,2024-10-15T00:00:00.000Z,,allentown-bethlehem,True
b2c21786-76d6-46f8-a0cf-38dd1eabfd9a,Orkin Pest Control,pest_control_service,"['gardener', 'landscaping']",CA,Thousand Palms,92276.0,31210 Plantation Dr,33.82218,-116.4002094,meta,2025-06-02T07:00:00.000Z,0.9415384615384615,97325e02-01d0-4fc6-b8b1-85673b2dcf68,,,,Microsoft ML Buildings,2000-01-01T00:00:00.000Z,,indio,False
3e841ae3-bcc1-43cf-abfe-b1eaa21a5961,Orkin,pest_control_service,,CT,Trumbull,6611.0,35 Nutmeg Dr,41.239228,-73.150315,Microsoft,2019-12-04T15:54:05.833Z,0.77,,,,,,,,new-haven,False
10f0a7f7-60fb-496e-a05d-520a19015e6d,Orkin Pest Control,pest_control_service,['home_improvement_store'],CT,Monroe,6468.0,200 Main St,41.3088173,-73.2549003,meta,2025-06-02T07:00:00.000Z,0.9459263554653524,32f4dd21-06b3-42bc-aea7-354e33d0e18d,,commercial,commercial,OpenStreetMap,2021-04-03T01:00:06.000Z,,new-haven,False
a14bed6a-7935-4dd1-a778-1c6a08bacdd2,Rollins Printing,printing_services,"['screen_printing_t_shirt_printing', 'sign_making']",CT,Hamden,6518.0,3281 Whitney Ave,41.4141213,-72.9020247,meta,2025-06-02T07:00:00.000Z,0.9784508333782836,,,,,,,,new-haven,False
eede3fe2-b482-45a9-b231-348f368ff766,Orkin Pest Control,pest_control_service,['home_improvement_store'],TX,Arlington,76018.0,4360 Beltway Pl,32.6742246,-97.1064669,meta,2025-06-02T07:00:00.000Z,0.9415384615384615,27a81166-81ce-44df-875f-476e99535b48,,commercial,office,OpenStreetMap,2018-12-29T22:16:50.000Z,,fort-worth,False
f86aac70-bb07-41dd-bfbf-0950d22d00b6,Orkin Pest Control,pest_control_service,['home_improvement_store'],TX,Fort Worth,76137.0,3601 NE Loop 820,32.8405427,-97.2957607,meta,2025-06-02T07:00:00.000Z,0.9415384615384615,1b2dd439-3d4f-4205-832e-5cf69f7c7c12,,,,OpenStreetMap,2017-06-02T16:26:27.000Z,,fort-worth,False
bf9295bd-e8fa-4c11-82b5-69cd1c46af03,Orkin,pest_control_service,['home_improvement_store'],TX,North Richland Hills,76180.0,6349 Browning Ct,32.8524981,-97.2449725,meta,2025-06-02T07:00:00.000Z,0.9415384615384615,8b96cf31-07b2-4874-b6ae-271a7ed0c72f,,,,OpenStreetMap,2019-02-15T22:05:07.000Z,,fort-worth,False
eb911a46-7b32-4e50-aaf6-55411314fdb8,Schrickel Rollins & Associates,engineering_services,"['professional_services', 'lawyer']",TX,Arlington,76006.0,1161 Corporate Dr W,32.7649012,-97.0685886,meta,2025-06-02T07:00:00.000Z,0.296943231441048,862e6d8c-4277-42ea-98c3-eca5daa53905,,,,OpenStreetMap,2018-11-10T01:39:58.000Z,,fort-worth,False
161c2a63-5550-43c6-bcee-8d25a6b2c828,Orkin Pest Control,pest_control_service,['professional_services'],NC,Raleigh,27603.0,609 Mercury St,35.7624512,-78.6569294,meta,2025-06-02T07:00:00.000Z,0.9459263554653524,,,,,,,,raleigh,False
77b6cfba-9d15-4918-83c3-8da2f4708f41,Rollins Animal Disease Lab,public_service_and_government,"['laboratory_testing', 'diagnostic_services']",NC,Raleigh,27607.0,2101 Blue Ridge Rd,35.810522,-78.706439,meta,2025-06-02T07:00:00.000Z,0.5662921348314607,3ecc1100-9cd9-43d4-ae82-f927da6901d5,Rollins Laboratory,,,OpenStreetMap,2024-06-28T13:54:16.000Z,,raleigh,False
fb80cbf4-3214-4f97-ad14-d60a1817d82a,Rollins' Economy Cleaners,dry_cleaning,"['laundromat', 'shopping']",NC,Raleigh,27603.0,407 W Peace St,35.788208,-78.643811,meta,2025-06-02T07:00:00.000Z,0.3961437335670464,,,,,,,,raleigh,False
8872573b-e1ee-4caf-963d-7504dfa9ddeb,Orkin,pest_control_service,,NC,Raleigh,27604.0,2609 Atlantic Ave,35.8184544,-78.6156456,Microsoft,2019-12-04T15:54:05.833Z,0.77,,,,,,,,raleigh,False
fa09702e-9108-4270-9058-0ecb72eb2a23,Orkin Pest Control,pest_control_service,['home_improvement_store'],NC,Raleigh,27617.0,8810 Westgate Park Dr,35.9037893,-78.7485119,meta,2025-06-02T07:00:00.000Z,0.9300613496932516,,,,,,,,raleigh,False
2d62f2fb-9dca-4c52-be1d-ed45fad52b42,Orkin Pest Control,pest_control_service,"['home_improvement_store', 'professional_services']",NC,Raleigh,27616.0,5805 Departure Dr,35.8628311,-78.5914449,meta,2025-06-02T07:00:00.000Z,0.9297091412742382,c5d2359b-7608-4358-9c06-02437e81bbcd,,,,OpenStreetMap,2015-11-17T07:04:46.000Z,,raleigh,False
648fa26f-cfa6-489d-a4ce-ca9c8b027498,Orkin,pest_control_service,,CA,Brentwood,94513.0,2155 Elkins Way,37.9571413,-121.6890758,Microsoft,2024-04-06T05:29:28.067Z,0.77,80e47fa0-d5c7-4825-b60c-5c0a56995475,,,,OpenStreetMap,2013-09-17T19:39:50.000Z,,antioch,False
71ddff9b-7625-4678-af36-c1646b62162a,Orkin Pest Control,pest_control_service,['professional_services'],CA,Brentwood,94513.0,2155 Elkins Way,37.9572847,-121.6891666,meta,2025-06-02T07:00:00.000Z,0.9415384615384615,80e47fa0-d5c7-4825-b60c-5c0a56995475,,,,OpenStreetMap,2013-09-17T19:39:50.000Z,,antioch,False
6715cb71-5cf0-49ee-9628-42d1a778e25a,Orkin Pest Control,pest_control_service,['home_improvement_store'],AL,Mobile,36693.0,1764 W I-65 Service Rd S,30.6540688,-88.1244254,meta,2025-06-02T07:00:00.000Z,0.9459263554653524,,,,,,,,mobile,False
6004128c-1cd4-427e-8381-edcc3c67d909,Rollins W. Coakley Railroad Park,attractions_and_activities,"['park', 'social_service_organizations']",FL,Venice,34285.0,"Venice Train Depot, 303 E Venice Ave",27.1017434,-82.4405554,meta,2025-06-02T07:00:00.000Z,0.9459263554653524,,,,,,,,sarasota-bradenton,False
0d69cdd8-2775-41dd-a3c1-b3d994d9993c,Orkin Pest Control,pest_control_service,"['home_improvement_store', 'professional_services']",FL,Sarasota,34234.0,4133 N Washington Blvd,27.370072,-82.5313463,meta,2025-06-02T07:00:00.000Z,0.9784508333782836,8f3b9b5f-8b75-4c73-b3c1-f1afbfacc7be,,,,OpenStreetMap,2021-05-11T19:13:15.000Z,,sarasota-bradenton,False
1932c924-380d-4e24-a196-57095790ab1e,Orkin,pest_control_service,['professional_services'],OH,Girard,44420.0,1160 Trumbull Ave,41.1414359,-80.6719646,meta,2025-06-02T07:00:00.000Z,0.9459263554653524,,,,,,,,youngstown,False
e3b5a4e9-6259-4e0a-85cd-4574dc76fe20,Orkin,pest_control_service,,OH,Girard,44420.0,1160 Trumbull Ave Ste A,41.1417319,-80.6719785,Microsoft,2023-12-21T07:11:04.773Z,0.77,,,,,,,,youngstown,False
108f63ba-d578-4a2f-9fc1-1ab91505fbe9,Orkin Pest Control,pest_control_service,['home_improvement_store'],FL,Rockledge,32955.0,597 Haverty Ct,28.3152073,-80.7213944,meta,2025-06-02T07:00:00.000Z,0.9459263554653524,4b696a34-237b-4475-8f99-e75834aafeee,,,,OpenStreetMap,2021-06-22T17:29:39.000Z,,palm-bay-melbourne,False
ee745c5a-7530-4e1f-8253-97660094f02f,Orkin Pest Control,pest_control_service,['home_improvement_store'],VA,Manassas,20109.0,12173 Brady Ln,38.7931663,-77.5559265,meta,2025-06-02T07:00:00.000Z,0.9415384615384615,a5293943-c1a9-4b0c-a80d-561cb1866347,,,,OpenStreetMap,2013-05-19T01:04:22.000Z,,washington-dc,False
716c9257-43d7-48d7-8a39-f145ce9ca7d5,Orkin Pest Control,pest_control_service,['home_improvement_store'],VA,Chantilly,20151.0,14303 Sullyfield Cir,38.8918895,-77.4394848,meta,2025-06-02T07:00:00.000Z,0.9415384615384615,24e16176-2755-4f93-82ca-8471db8cd4ec,,,,OpenStreetMap,2022-05-17T02:56:36.000Z,,washington-dc,False
d1e443c9-ac32-4c8b-9334-08e99f389184,Orkin Pest Control,pest_control_service,['home_improvement_store'],VA,Ashburn,20147.0,21750 Red Rum Dr,39.0158961,-77.4742568,meta,2025-06-02T07:00:00.000Z,0.9415384615384615,9566d97a-f1dc-40a8-995f-951c3da93160,,,,OpenStreetMap,2020-04-19T21:10:00.000Z,,washington-dc,False
a2ded341-1479-4b47-9319-0e52c7674f42,Orkin Pest Control,pest_control_service,"['home_improvement_store', 'professional_services']",VA,Lorton,22079.0,8382 Terminal Rd,38.7306607,-77.1939516,meta,2025-06-02T07:00:00.000Z,0.9459263554653524,70b24044-fdcc-4464-8558-e0bc83b8fb10,,,,OpenStreetMap,2012-01-18T12:12:07.000Z,,washington-dc,False
b84769d4-e5ab-44e7-8a24-f2013eea68a5,Orkin Pest Control,pest_control_service,['home_improvement_store'],VA,Fairfax,22030.0,10843 Main St,38.8507113,-77.31965,meta,2025-06-02T07:00:00.000Z,0.9415384615384615,d1a60f6a-9ec0-4319-8b67-efc69e6d2ef4,,,,OpenStreetMap,2013-09-02T13:22:19.000Z,,washington-dc,False
9cfc4e31-1e92-4e46-aafd-dbd7907cf306,Dr. Allman T. Rollins M.D.,cardiologist,"['doctor', 'health_and_medical']",VA,Falls Church,22042.0,3300 Gallows Rd,38.8573806,-77.2287894,Microsoft,2022-12-12T20:06:01.030Z,0.77,ce833f0c-dd25-4bc9-b89b-93ec68d32561,,medical,hospital,OpenStreetMap,2022-10-02T16:01:12.000Z,,washington-dc,False
b7b19a76-5990-4aa4-a8e3-8c8e2d9b08da,"Dr. Allman T. Rollins, MD",cardiologist,"['doctor', 'health_and_medical']",VA,Falls Church,22042.0,"3300 Gallows Rd, Inova Schar Heart and Vascular",38.85732,-77.22779,Microsoft,2025-05-24T07:16:18.057Z,0.77,58e6f688-5ff8-42b3-a3f6-d71cae4b488b,,,,OpenStreetMap,2018-05-22T23:49:03.000Z,,washington-dc,False
4dae7295-6f92-4e0d-b091-3825f04c46ad,The Rollins and Chan Law Firm,criminal_defense_law,"['lawyer', 'real_estate_law']",DC,Washington,20004.0,419 7th St NW,38.8953901,-77.0217034,meta,2025-06-02T07:00:00.000Z,0.9459263554653524,085bc42e-dd13-4103-a1e0-40846deed109,,commercial,office,OpenStreetMap,2020-12-04T23:04:33.000Z,,washington-dc,False
0ce1fe39-91a0-4ea9-b0b0-d8adad79cafa,Orkin,pest_control_service,,MD,Lanham,20706.0,4414 Lottsford Vista Rd,38.8513699,-76.86061,Microsoft,2024-04-06T05:29:28.067Z,0.77,78bebc02-26f8-4c0d-8b57-bb1ac0d0760b,,,,OpenStreetMap,2018-08-06T18:31:15.000Z,,washington-dc,False
e182b45c-5a80-4617-a47c-a1f58d10e5c4,Rollins Ave Park,park,['structure_and_geography'],MD,Capitol Heights,20743.0,875 Rollins Ave,38.8789528,-76.9017759,meta,2025-06-02T07:00:00.000Z,0.4929396662387676,,,,,,,,washington-dc,False
4cdbe786-736c-49dc-833a-9f6eb2760cc3,Orkin Pest Control,pest_control_service,['home_improvement_store'],MD,Lanham,20706.0,9700 Martin Luther King Jr Hwy,38.9509417,-76.8386146,meta,2025-06-02T07:00:00.000Z,0.9459263554653524,d5fc0bc0-cdf4-45f0-b290-e0747e63c975,,,,OpenStreetMap,2022-05-07T21:40:09.000Z,,washington-dc,False
4358ff1d-52c7-4068-8646-627d1a36b4c9,Orkin,pest_control_service,,MD,Lanham,20706.0,9700 Martin Luther King Jr Hwy Ste D,38.9511574,-76.8383896,Microsoft,2019-12-04T15:54:05.833Z,0.77,d5fc0bc0-cdf4-45f0-b290-e0747e63c975,,,,OpenStreetMap,2022-05-07T21:40:09.000Z,,washington-dc,False
93a09e41-c5d1-4996-9856-d647a29d0a1f,Orkin,pest_control_service,,MD,Lanham,20706.0,9700 Martin Luther King Jr Hwy Ste D,38.9505581,-76.8381298,Microsoft,2025-05-17T21:27:45.870Z,0.77,,,,,,,,washington-dc,False
85a78275-f4c0-43f4-af29-07383177f3fb,Orkin Pest Control,pest_control_service,['home_improvement_store'],MD,Lanham,20706.0,4414 Lottsford Vista Rd,38.9505031,-76.8271223,meta,2025-06-02T07:00:00.000Z,0.9459263554653524,79d38c58-f504-4de0-80e1-3df251b63873,,,,OpenStreetMap,2022-05-07T21:40:09.000Z,,washington-dc,False
8bf2eb4e-011c-4aae-a41d-ef0e4177aebc,Orkin Pest & Termite Control,pest_control_service,,MD,Gaithersburg,20877.0,201 Perry Pkwy,39.140678,-77.209256,Microsoft,2025-05-15T15:39:57.500Z,0.77,,,,,,,,washington-dc,False
e7a63987-a4be-4aba-9ba6-086d810795b5,Orkin Pest Control,pest_control_service,['home_improvement_store'],MD,Gaithersburg,20877.0,201 Perry Pkwy,39.1412487,-77.2090252,meta,2025-06-02T07:00:00.000Z,0.9459263554653524,,,,,,,,washington-dc,False
15c5a341-1655-48a4-9c69-bfea554e6256,Rollins Congressional Club,active_life,['gym'],MD,Rockville,20852.0,1621 Martha Ter,39.0592475,-77.1334848,meta,2025-06-02T07:00:00.000Z,0.9784508333782836,a7e30f0b-93c9-4369-9c41-61db5a9914b1,,,,OpenStreetMap,2023-08-10T12:28:19.000Z,,washington-dc,False
26fe32bc-ec56-4a75-843d-58099c6f3d30,Rollins Big Playground,park,"['department_store', 'playground']",,,20852.0,Rollins Big Playground,39.059437,-77.130999,meta,2025-06-02T07:00:00.000Z,0.5662921348314607,e84e35cb-7a55-4d40-80c6-76c8e6ae1d7f,Montrose Community Center,education,,OpenStreetMap,2023-12-27T17:52:26.000Z,,washington-dc,False
729b050d-328a-4b83-8197-c3f04c9f5c50,Rollins Care Pharmacy,pharmacy,"['medical_supply', 'nutritionist']",MD,Rockville,20852.0,184 Rollins Ave,39.0582746,-77.1261087,meta,2025-06-02T07:00:00.000Z,0.9784508333782836,c007b7f3-7a38-4944-ab12-4b9f5e3b73b0,,,,OpenStreetMap,2025-01-17T04:09:58.000Z,,washington-dc,False
563cbd16-47fd-407c-a084-7827ddd828f9,Rollins Real Estate Management,commercial_real_estate,"['real_estate_agent', 'real_estate']",MD,Rockville,20852.0,152 Rollins Ave,39.05838,-77.1241715,meta,2025-06-02T07:00:00.000Z,0.9297091412742382,366f9a59-fcc0-4da4-b210-9f8d74115a71,,,,OpenStreetMap,2025-01-17T04:09:58.000Z,,washington-dc,False
b61766db-7eee-4152-a789-e3056ba4ffb4,Rollins Barber,barber,"['beauty_salon', 'beauty_and_spa']",MD,Rockville,20852.0,168 Rollins Ave,39.0584855,-77.1251826,meta,2025-06-02T07:00:00.000Z,0.9784508333782836,d7841d69-2c8e-400e-b94c-2a2e3d1c765d,,,,OpenStreetMap,2025-01-17T04:09:58.000Z,,washington-dc,False
b0e92de6-7576-429f-8df3-fa3bd5c53d4b,Rollins Beer & Wine,liquor_store,"['shopping', 'wine_bar']",MD,Rockville,20852.0,151 Rollins Ave,39.0589775,-77.124564,meta,2025-06-02T07:00:00.000Z,0.9784508333782836,31e25869-b14e-4599-8aa7-e54cb96cb2b1,,,,OpenStreetMap,2019-12-05T15:07:11.000Z,,washington-dc,False
3649bf0f-fa1b-4ee9-98c7-a9a218bc1900,Rollins Park Apartments,landmark_and_historical_building,"['accommodation', 'real_estate_service']",MD,Rockville,20852.0,1599 E Jefferson St,39.0603458,-77.1289581,meta,2025-06-02T07:00:00.000Z,0.9784508333782836,,,,,,,,washington-dc,False
7f1e1c7d-6787-4e6e-9a06-ddce5d1fc4b0,Rollins Park Apartments,apartments,['condominium'],MD,Rockville,20852.0,1599 E Jefferson St,39.0623359680176,-77.129150390625,Microsoft,2016-08-22T17:22:40.310Z,0.77,,,,,,,,washington-dc,False
e09f585b-1e77-495e-9a51-34776570b504,Rollins Ridge Apartments,landmark_and_historical_building,"['accommodation', 'real_estate']",MD,Rockville,20852.0,130 Rollins Ave,39.0586758,-77.1230664,meta,2025-06-02T07:00:00.000Z,0.9459263554653524,492011db-efa4-40d0-89ae-61a4f03218f6,,,,OpenStreetMap,2025-01-17T04:09:58.000Z,,washington-dc,False
1ab4a127-4c22-4b2a-8dfe-0d0d1385b18b,"Kevin Rollins, The Rollins Group",real_estate_agent,['professional_services'],MD,Laurel,20707.0,14405 Laurel Pl,39.0888247,-76.8600364,meta,2025-06-02T07:00:00.000Z,0.9300613496932516,fe5bf6fc-e5fc-472c-a84d-66cb08a5abd4,,,,OpenStreetMap,2018-04-07T04:47:59.000Z,,washington-dc,False
818088c3-bd47-43c5-834f-b78a62d6152f,Amanda Rollins Licensed Realtor,real_estate_agent,"['real_estate_service', 'real_estate']",NY,Syracuse,13202.0,115 E Jefferson St,43.047423,-76.1518043,meta,2025-06-02T07:00:00.000Z,0.9459263554653524,ebe45d78-6f9a-4405-b4b9-a518f057919c,Acropolis Center,commercial,commercial,OpenStreetMap,2020-06-15T14:22:07.000Z,,syracuse,False
b3ebf190-e10d-41b0-906f-af2a003cff31,Orkin Pest Control,pest_control_service,['home_improvement_store'],NY,Syracuse,13209.0,106 Dwight Park Cir,43.1116433,-76.2529128,meta,2025-06-02T07:00:00.000Z,0.9459263554653524,12e61e98-68eb-4edf-9d5c-e11d5667d33c,,,,OpenStreetMap,2022-05-16T20:46:26.000Z,,syracuse,False
f3de8d76-2d98-46ba-bf1a-521b6c722555,Orkin,pest_control_service,,KY,Lexington,40511.0,805 Newtown Circle Ste 170,38.0621487,-84.5541949,Microsoft,2024-04-06T05:28:20.400Z,0.77,b0987254-31fe-40b4-be2b-9539ab1556be,,,,OpenStreetMap,2021-09-09T00:17:44.000Z,,lexington-fayette,False
81679b09-e923-47a6-91e0-a1b5db156c72,David Rollins Marshall,lawyer,"['personal_injury_law', 'legal_services']",KY,Lexington,40507.0,120 N Upper St,38.0474872,-84.4972921,meta,2025-06-02T07:00:00.000Z,0.9415384615384615,9d3f3498-13ef-4703-ad65-abd232054c65,,,,OpenStreetMap,2020-07-25T00:51:59.000Z,,lexington-fayette,False
81679b09-e923-47a6-91e0-a1b5db156c72,David Rollins Marshall,lawyer,"['personal_injury_law', 'legal_services']",KY,Lexington,40507.0,120 N Upper St,38.0474872,-84.4972921,meta,2025-06-02T07:00:00.000Z,0.9415384615384615,83d1f473-78ab-494e-9aaf-a8fd6feda4f1,,commercial,,OpenStreetMap,2020-07-25T00:51:59.000Z,,lexington-fayette,False
ad668f2e-3c0d-4bb8-9965-bd6c54c51392,Orkin Pest Control,pest_control_service,['home_improvement_store'],KY,Lexington,40511.0,805 Newtown Cir,38.0780934,-84.4954388,meta,2025-06-02T07:00:00.000Z,0.9415384615384615,6a3abb24-a986-401e-a3b0-7effb55a7002,,,,OpenStreetMap,2016-03-13T03:49:03.000Z,,lexington-fayette,False
9067c2cd-6e14-45f9-8c3f-600a477b3678,Orkin Pest Control,pest_control_service,['professional_services'],GA,Fayetteville,30214.0,200 Etowah Trce,33.5071188,-84.4336997,meta,2025-06-02T07:00:00.000Z,0.9459263554653524,eee25273-4efa-4fd7-93c7-bd8a99829e05,,,,OpenStreetMap,2021-07-25T06:52:05.000Z,,atlanta,False
32bebd77-3171-472b-951c-f6a63a6447ae,Orkin Pest Control,pest_control_service,['professional_services'],GA,Conyers,30094.0,1479 Parker Rd SE,33.6496818,-84.0209215,meta,2025-06-02T07:00:00.000Z,0.9415384615384615,478eaef9-3e04-4543-b40b-d7db5944b731,,,,OpenStreetMap,2017-11-23T20:05:33.000Z,,atlanta,False
eef34cd0-95a5-4eb5-8dd4-4027c067dabb,Orkin Pest Control,pest_control_service,['professional_services'],GA,Smyrna,30082.0,400 Technology Ct SE,33.8245982,-84.500076,meta,2025-06-02T07:00:00.000Z,0.9784508333782836,4c0cea02-88bb-4760-a919-2e04ce2356d5,,,,OpenStreetMap,2014-09-25T04:26:34.000Z,,atlanta,False
e41a8411-388e-46f2-ab37-9bccf11b88d1,"Jeffrey Rollins, MD",cardiologist,"['doctor', 'family_practice']",GA,Atlanta,30309.0,1110 W Peachtree St NW,33.7850647,-84.3880448,meta,2025-06-02T07:00:00.000Z,0.8831168831168831,fa1d3556-0766-4845-96b8-17a5fc24b02b,Northside Midtown,medical,hospital,OpenStreetMap,2022-07-14T21:05:13.000Z,,atlanta,False
e41a8411-388e-46f2-ab37-9bccf11b88d1,"Jeffrey Rollins, MD",cardiologist,"['doctor', 'family_practice']",GA,Atlanta,30309.0,1110 W Peachtree St NW,33.7850647,-84.3880448,meta,2025-06-02T07:00:00.000Z,0.8831168831168831,46764565-adf3-4e9e-88ac-fd48f812461d,,medical,hospital,OpenStreetMap,2021-10-02T22:59:46.000Z,,atlanta,False
7bd3da9f-81da-49c9-aca0-57ee0b14a2cd,Orkin Pest Control,pest_control_service,['pet_store'],GA,Marietta,30066.0,1355 Bells Ferry Rd NW,33.98439,-84.55744,meta,2025-06-02T07:00:00.000Z,0.5662921348314607,,,,,,,,atlanta,False
d4a24162-2151-4996-937f-ffb7053ea8e7,Orkin Lake,lake,,,,3032830350.0,,33.9628598,-84.3788451,meta,2025-06-02T07:00:00.000Z,0.9297091412742382,,,,,,,,atlanta,False
8b214171-6509-4ede-b0e9-b9ec22816b7c,Emory Rollins School of Health,business,,GA,Decatur,30030.0,246 Sycamore St,33.774893,-84.292925,meta,2025-06-02T07:00:00.000Z,0.3376623376623376,05cb00e3-fe46-4ccc-a278-9dc750501c08,,,,OpenStreetMap,2025-03-30T04:48:27.000Z,,atlanta,False
071fed9a-3aad-4c94-83db-44d6f9ed66ff,Orkin,pest_control_service,"['professional_services', 'home_improvement_store']",GA,Atlanta,30324.0,2170 Piedmont Rd NE,33.8159088,-84.3669562,meta,2025-06-02T07:00:00.000Z,0.9297091412742382,bbdae1ff-7489-43e2-8e7e-24c6eb933fdf,,commercial,commercial,OpenStreetMap,2014-03-25T11:58:11.000Z,,atlanta,False
cbf6fb09-4c3b-4bc4-9218-29d5533f263d,Rollins Inc,pest_control_service,"['employment_agencies', 'health_and_medical']",GA,Atlanta,30324.0,2170 Piedmont Rd NE,33.8161719,-84.3670152,meta,2025-06-02T07:00:00.000Z,0.5662921348314607,bbdae1ff-7489-43e2-8e7e-24c6eb933fdf,,commercial,commercial,OpenStreetMap,2014-03-25T11:58:11.000Z,,atlanta,True
a8219f53-f9b0-4ce0-96b6-376dd42e6aa3,Orkin,pest_control_service,,GA,Atlanta,30329.0,2801 Buford Highway NE,33.8310021,-84.3430907,Microsoft,2019-12-04T15:54:05.833Z,0.77,,,,,,,,atlanta,False
55c2041d-c567-4a22-8bb8-cab76a2b4653,Gangarosa Department of Environmental Health at Rollins,college_university,"['public_and_government_association', 'health_and_medical']",GA,Atlanta,30322.0,1518 Clifton Rd NE,33.7974215,-84.3242369,meta,2025-06-02T07:00:00.000Z,0.9297091412742382,a33e0a87-a1d4-4eb6-af2b-0be357425aae,Claudia Nance Rollins Building,education,university,OpenStreetMap,2022-12-02T15:14:13.000Z,,atlanta,False
9e582de4-965c-4d2d-9237-7a1a1cc6b619,Grace Crum Rollins Building,campus_building,"['school', 'middle_school']",GA,Atlanta,30322.0,1518 Clifton Rd NE,33.7974063,-84.3239378,meta,2025-06-02T07:00:00.000Z,0.9300613496932516,a33e0a87-a1d4-4eb6-af2b-0be357425aae,Claudia Nance Rollins Building,education,university,OpenStreetMap,2022-12-02T15:14:13.000Z,,atlanta,True
57ccba3d-4640-4085-ac49-babff36d615a,Rollins School of Public Health,college_university,"['education', 'campus_building']",GA,Atlanta,30322.0,1518 Clifton Rd NE,33.7974083,-84.3235451,meta,2025-06-02T07:00:00.000Z,0.9784508333782836,ab55559e-1e51-46e7-9e2e-144fc99f96d3,Grace Crum Rollins Building,education,university,OpenStreetMap,2022-12-02T15:14:13.000Z,,atlanta,False
552d415d-7110-4a8f-8b02-c7dabdb14e69,Rollins Financial,financial_advising,"['financial_service', 'investing']",GA,Atlanta,30326.0,3343 Peachtree Rd NE,33.846861,-84.3668891,meta,2025-06-02T07:00:00.000Z,0.9204819277108434,f1fa50c0-8d3d-4212-b7aa-cbaa597f654a,"Atlanta Financial Center, East Tower",commercial,commercial,OpenStreetMap,2025-05-14T10:09:56.000Z,,atlanta,False
3dae6d45-753f-4e68-8e55-bc8473451efc,Rollins Training Center TV Studio,broadcasting_media_production,"['specialty_school', 'barber']",GA,Atlanta,30345.0,2552 Northeast Expy NE,33.85465,-84.2986,meta,2025-06-02T07:00:00.000Z,0.7548172757475083,615da42b-f4ca-4349-943d-6f22a537081d,,,,OpenStreetMap,2016-01-11T17:44:32.000Z,,atlanta,False
09aaa20f-d96d-4b31-bc8c-ba69e5ed0694,Orkin,pest_control_service,,GA,Atlanta,30345.0,2552 NE Expy NE,33.853607,-84.2959406,Microsoft,2019-12-04T15:54:05.833Z,0.77,,,,,,,,atlanta,False
7562f340-5e81-458d-8a45-0877af79208c,Schwartz Rollins LLC,lawyer,"['eyewear_and_optician', 'insurance_agency']",GA,Tucker,30084.0,3523 Habersham at Northlake,33.8530273,-84.2443452,meta,2025-06-02T07:00:00.000Z,0.9204819277108434,a694ec4e-8169-48bf-9b3f-3675ecad8ac1,,,,OpenStreetMap,2021-05-17T01:10:32.000Z,,atlanta,False
d2deebc1-defe-4efd-9d60-a2a32f7a7090,Orkin,pest_control_service,,GA,Atlanta,30341.0,3300 Northeast Expy NE,33.8733844,-84.2777663,Microsoft,2019-12-04T15:54:05.833Z,0.77,,,,,,,,atlanta,False
08f28521-d03e-4264-8fa7-fdf2a12e4155,Orkin,pest_control_service,,GA,Smyrna,30082.0,400 Technology Ct SE Ste B,33.8750982,-84.2771731,Microsoft,2025-05-17T15:53:26.287Z,0.77,4fbb08ae-b04e-4e8b-b08a-e630610d7ff7,,,,OpenStreetMap,2021-01-02T22:07:20.000Z,,atlanta,False
69b88ed9-bcf7-4cb6-ac71-ae3c2c37e59b,Chris Rollins,real_estate_agent,['real_estate'],GA,Tucker,30084.0,1957 Lakeside Pkwy,33.8403622,-84.2396634,meta,2025-06-02T07:00:00.000Z,0.9204819277108434,8c041e7a-6e1a-46e8-ac73-676206d2b39f,,,,OpenStreetMap,2023-11-09T17:27:09.000Z,,atlanta,False
a167b3dc-af92-4104-867b-135c657eb0c6,Orkin Pest Control,pest_control_service,"['home_improvement_store', 'professional_services']",GA,Atlanta,30340.0,3816 Dekalb Technology Pkwy,33.8877841,-84.2664938,meta,2025-06-02T07:00:00.000Z,0.9784508333782836,246fe792-ba5e-4283-a490-eb66806ce62d,,,,OpenStreetMap,2018-11-01T15:27:06.000Z,,atlanta,False
8f03bf38-6c3f-4897-896c-7e1a88bd306e,Orkin,pest_control_service,"['professional_services', 'home_improvement_store']",GA,Alpharetta,30022.0,2662 Holcomb Bridge Rd,33.9978599,-84.2846431,meta,2025-06-02T07:00:00.000Z,0.9204819277108434,b7783fb5-9ecd-450d-b12a-7a331e106914,,commercial,commercial,OpenStreetMap,2020-08-30T06:45:58.000Z,,atlanta,False
6f0ed11e-a954-445e-959e-0a3b441ded07,Orkin Pest Control,pest_control_service,['home_improvement_store'],GA,Roswell,30076.0,1007 Mansell Rd,34.0424045,-84.3335943,meta,2025-06-02T07:00:00.000Z,0.9415384615384615,ee7b5778-5edc-44f5-a441-c01a9c4940ff,,,,OpenStreetMap,2015-09-13T00:13:39.000Z,,atlanta,False
1cdad3db-e1a5-4159-8e99-a2d9887f7b13,Orkin,pest_control_service,,GA,Roswell,30076.0,1009 Mansell Rd Ste F,34.0420685,-84.3326925,Microsoft,2019-12-04T15:54:05.833Z,0.77,,,,,,,,atlanta,False
310698c5-2432-423c-abda-03d6e9d04ee8,Orkin and Associates,real_estate_investment,"['professional_services', 'shopping']",GA,Milton,30004.0,12650 Crabapple Rd,34.089889,-84.3417151,meta,2025-06-02T07:00:00.000Z,0.9784508333782836,7c2b2e5f-f436-461a-840d-3c870b22a916,,,,OpenStreetMap,2017-07-04T13:32:58.000Z,,atlanta,False
53fee3e2-6075-44a5-8a41-0ea55a923027,Orkin Pest Control,pest_control_service,['home_improvement_store'],GA,Lawrenceville,30046.0,695 Lyle Cir NE,33.9754044,-83.99323,meta,2025-06-02T07:00:00.000Z,0.9415384615384615,,,,,,,,atlanta,False
45dfe268-97f8-4146-87a0-72260743deb9,Orkin Pest Control,pest_control_service,"['home_improvement_store', 'professional_services']",CA,Riverside,92503.0,12710 Magnolia Ave,33.8856839,-117.506687,meta,2025-06-02T07:00:00.000Z,0.9415384615384615,9ccffac3-cae1-4a45-a70f-8a28dbe8d101,,commercial,office,OpenStreetMap,2023-01-21T22:39:07.000Z,,riverside-san-bernardino,False
1d3a0cd2-7b05-48d0-b6b9-2dad3c890b6b,Rollins Construction,patio_covers,"['awning_supplier', 'exterior_design']",CA,Upland,91786.0,1232 Monte Vista Ave Ste 1,34.1085824292505,-117.698292026847,Microsoft,2018-04-13T20:32:37.617Z,0.77,,,,,,,,riverside-san-bernardino,False
56d38747-7f2f-413e-9264-2efd0da7aab3,Rollins Patios and Sunrooms,patio_covers,['construction_services'],CA,Upland,91786.0,1232 Monte Vista Ave,34.1096516,-117.6979337,meta,2025-06-02T07:00:00.000Z,0.9300613496932516,cbe0bb06-2146-48ba-bc61-f7393655b1b1,,,,OpenStreetMap,2021-12-14T10:56:26.000Z,,riverside-san-bernardino,False
bf787c95-111b-4301-a1f5-62cefd885b4e,Richard Rollins Community Park,park,"['playground', 'active_life']",CA,Grand Terrace,92313.0,22745 De Berry St,34.0293783,-117.3096849,meta,2025-06-02T07:00:00.000Z,0.9784508333782836,,,,,,,,riverside-san-bernardino,False
1ec5bcd1-fffd-4d7b-9e42-0b901759be14,Charles Rollins Fitness,gym,"['active_life', 'sports_club_and_league']",CA,Redlands,92373.0,370 Alabama St,34.0573121,-117.2074612,meta,2025-06-02T07:00:00.000Z,0.9297091412742382,007f5997-4c67-4331-98c8-59de80c725c7,,,,OpenStreetMap,2016-06-21T10:56:25.000Z,,riverside-san-bernardino,False
12dff550-ee50-4d4f-880d-f8dae13c3d93,"Tyson D Rollins, PA",real_estate_agent,"['real_estate_service', 'real_estate']",FL,St Pete Beach,33706.0,6505 Gulf Blvd,27.7361,-82.74707,meta,2025-06-02T07:00:00.000Z,0.3961437335670464,3e87a83e-4617-49cd-a6db-57051eb04628,Coldwell Banker,,,OpenStreetMap,2024-01-17T03:39:38.000Z,,st-petersburg,False
ebb89331-ea80-4914-9929-30e9ae92b9e5,Orkin Pest Control,pest_control_service,"['home_improvement_store', 'professional_services']",FL,St Petersburg,33716.0,1601 Commerce Ave N,27.8597583,-82.6555474,meta,2025-06-02T07:00:00.000Z,0.9459263554653524,c1aa0352-f0be-4b68-bb4e-740b61763de9,,,,OpenStreetMap,2017-09-19T18:17:08.000Z,,st-petersburg,False
2b4461d4-de22-40e5-bd81-1072dc1ece39,Orkin Pest Control,pest_control_service,"['home_improvement_store', 'professional_services']",FL,St Petersburg,33716.0,2840 Scherer Dr N,27.8849166,-82.6721906,meta,2025-06-02T07:00:00.000Z,0.9459263554653524,146faa43-fe7b-4ae4-af7b-b9a9e83eb0c9,,commercial,office,OpenStreetMap,2021-01-14T16:32:53.000Z,,st-petersburg,False
5d3673f5-cfa4-4ad1-8e33-304827b8b3cb,Orkin,pest_control_service,,FL,St Petersburg,33716.0,2840 Scherer Dr N Ste 430,27.8848144,-82.6721057,Microsoft,2024-04-06T05:27:24.680Z,0.77,146faa43-fe7b-4ae4-af7b-b9a9e83eb0c9,,commercial,office,OpenStreetMap,2021-01-14T16:32:53.000Z,,st-petersburg,False
9378b50a-ab2e-456c-a0a3-4d60cb38eaa2,Orkin Pest Control,pest_control_service,['home_improvement_store'],FL,Hudson,34669.0,10050 SR-52,28.3297234,-82.6481634,meta,2025-06-02T07:00:00.000Z,0.9415384615384615,,,,,,,,st-petersburg,False
06d21770-6a30-4835-89fb-df21a58e4974,Orkin Pest Control,pest_control_service,['home_improvement_store'],FL,Orlando,32839.0,1900 33rd St,28.5086142,-81.4041502,meta,2025-06-02T07:00:00.000Z,0.9459263554653524,22d37c13-37d0-4ad7-a039-5bada6f7b4e7,,,,OpenStreetMap,2021-04-15T00:43:06.000Z,,orlando,False
0ee1e17a-704d-41c9-a95c-eb4d23930c1e,Rollins Baseball Field,baseball_field,"['attractions_and_activities', 'stadium_arena']",,,32822.0,,28.499247,-81.313528,meta,2025-06-02T07:00:00.000Z,0.242152466367713,992933a9-161f-4ea5-b2f0-a786069011aa,,,,OpenStreetMap,2020-07-30T22:14:43.000Z,,orlando,False
6f08cead-b48e-4e94-a3c8-51483efd8f94,Rollins College,education,,FL,Winter Park,32789.0,340 Aragon Ave,28.590255077493104,-81.3633975982666,Microsoft,2017-01-16T21:41:30.980Z,0.77,,,,,,,,orlando,False
3987eff0-1bf6-456b-b73c-bce24432b0f3,Rollins College,college_university,,FL,Winter Park,32789.0,787 Maryland Ave,28.5910492,-81.3548431,meta,2025-06-02T07:00:00.000Z,0.296943231441048,34bb438e-3aeb-45df-b7df-efc8ce9197fe,,,,OpenStreetMap,2023-05-30T02:46:13.000Z,,orlando,False
2321635f-03bb-4f17-9822-711fa26bf283,Rollins College,education,,FL,Winter Park,32789.0,422 W Fairbanks Ave,28.59284210205078,-81.35474395751953,Microsoft,2017-01-16T21:43:00.747Z,0.77,1d819c78-af66-4c94-a414-e442b0e1264c,,,,OpenStreetMap,2017-11-08T15:36:02.000Z,,orlando,False
70ae2853-2480-44b3-9cf9-51fc26a99d18,Kappa Delta Sorority  Rollins College,social_service_organizations,"['school', 'college_university']",FL,Winter Park,32789.0,"Rollins College, 1000 Holt Ave",28.591577,-81.351462,meta,2025-06-02T07:00:00.000Z,0.296943231441048,48cc4a6c-a06f-4397-b05f-c96b9f1b277c,Fox Hall,education,college,OpenStreetMap,2021-10-25T20:53:53.000Z,,orlando,False
8c6f2c95-82b2-4f62-96cd-4c4b5572c320,Kathleen W. Rollins Hall,college_university,['education'],FL,Winter Park,32789.0,1000 Holt Ave,28.5913065,-81.3485802,meta,2025-06-02T07:00:00.000Z,0.9784508333782836,fb95bb44-21c6-46c1-a874-0d6c9759fcf5,Kathleen W. Rollins Hall,education,college,OpenStreetMap,2025-04-26T23:14:37.000Z,,orlando,False
84db4242-b6e6-46fd-9eeb-ef003413fbe5,Rollins Office of International Programs,college_university,"['education', 'school']",FL,Winter Park,32789.0,"Rollins College, 1000 Holt Ave",28.5918911,-81.3486066,meta,2025-06-02T07:00:00.000Z,0.909823677581864,,,,,,,,orlando,False
f4129d14-9b1e-48f4-bf11-cc9aae6806b3,The Lucy Cross Center for Women and Their Allies- Rollins College,campus_building,"['college_university', 'education']",FL,Winter Park,32789.0,1000 Holt Ave,28.5913796,-81.3480151,meta,2025-06-02T07:00:00.000Z,0.3961437335670464,,,,,,,,orlando,False
c18b1e28-1e8f-43eb-ac0b-285e162be3a3,Rollins Hume House,education,"['school', 'elementary_school']",FL,Winter Park,32789.0,315 Holt Ave,28.5924623,-81.3527826,meta,2025-06-02T07:00:00.000Z,0.9784508333782836,c26b14c6-30d9-4440-8997-c21b70d798ac,,,,OpenStreetMap,2024-01-07T18:28:44.000Z,,orlando,False
cdbe7d1b-8bfb-4d00-a4fa-ba9cc841ee15,Rollins College Center for Career & Life Planning,campus_building,"['college_university', 'educational_services']",FL,Winter Park,32789.0,"Rollins College, 1000 Holt Ave",28.593022,-81.351652,meta,2025-06-02T07:00:00.000Z,0.5662921348314607,e61cd4e1-0160-466b-a07b-b145167dc197,170 W. Fairbanks,education,college,OpenStreetMap,2017-11-07T17:42:42.000Z,,orlando,False
245707b0-da57-4004-8d3f-641ed440c89f,Rollins Wellness Center,gym,"['college_university', 'counseling_and_mental_health']",FL,Winter Park,32789.0,118 W Fairbanks Ave,28.5929954,-81.3512658,meta,2025-06-02T07:00:00.000Z,0.9459263554653524,,,,,,,,orlando,False
0b770dd1-ef5e-4b70-a834-1494d6f3278d,Rollins Sports,college_university,"['active_life', 'sports_club_and_league']",FL,Winter Park,32789.0,1000 Holt Ave,28.5928989,-81.3503808,meta,2025-06-02T07:00:00.000Z,0.9300613496932516,,,,,,,,orlando,False
79435e32-c024-437f-9a91-ea66155e63d0,Annie Russell Theatre at Rollins College,drama_school,"['performing_arts', 'specialty_school', 'arts_and_entertainment', 'education']",FL,Winter Park,32789.0,"1000 Holt Avenue, - Annie Russell Theatre",28.592242,-81.348326,Microsoft,2015-07-20T13:44:47.503Z,0.77,,,,,,,,orlando,False
e59a601b-15ad-4641-b8a5-1438b55b5b81,Rollins College,college_university,"['education', 'school']",FL,Winter Park,32789.0,1000 Holt Ave,28.5927134,-81.3485052,meta,2025-06-02T07:00:00.000Z,0.9784508333782836,,,,,,,,orlando,False
096deb41-17ee-4c48-a461-b1e41ea424d9,Rollins College Comstock Building,campus_building,,FL,Winter Park,0.0,,28.594078,-81.3495103,meta,2025-06-02T07:00:00.000Z,0.3376623376623376,,,,,,,,orlando,True
72e16bd5-72ea-409f-adfb-b85cd6738702,Rollins College,education,,FL,Winter Park,32789.0,203 E Lyman Ave,28.59502309191289,-81.34930610656737,Microsoft,2017-01-16T21:42:36.260Z,0.77,,,,,,,,orlando,False
26120478-a7f4-44d0-88a5-f64ea98711e4,Rollins College Management & Executive Education,college_university,"['arts_and_entertainment', 'professional_services']",FL,Winter Park,32789.0,1000 Holt Ave,28.5920551,-81.347992,meta,2025-06-02T07:00:00.000Z,0.296943231441048,,,,,,,,orlando,False
37326c8b-3429-4f6b-873c-316626c1d6cb,Delta Zeta Pi Theta - Rollins College,social_service_organizations,"['college_university', 'community_services_non_profits']",FL,Winter Park,32789.0,1000 Holt Ave,28.5921623,-81.3479857,meta,2025-06-02T07:00:00.000Z,0.4929396662387676,e3daa6b4-0c7a-430f-b72f-5a3cfaac2787,Lyman Hall,education,college,OpenStreetMap,2017-11-06T15:39:49.000Z,,orlando,False
21cbe8a4-6928-46c0-b413-595217738f8e,Rollins Moving Services,storage_facility,"['movers', 'campus_building']",FL,Winter Park,32789.0,1000 Holt Ave,28.5924764,-81.3479776,meta,2025-06-02T07:00:00.000Z,0.8831168831168831,8e4c7680-bf25-4abb-850b-9a3bff8d359e,Knowles Memorial Chapel,religious,chapel,OpenStreetMap,2025-04-26T22:00:20.000Z,,orlando,True
1fef3c5d-2b87-4278-be7f-1078136b85f9,Rollins Improv Players,theatre,,FL,Winter Park,32789.0,203 E Lyman Ave,28.5926765,-81.3471492,meta,2025-06-02T07:00:00.000Z,0.2456896551724137,41b0aceb-104d-4048-8bf6-dc19e67652f9,Keene Hall,education,college,OpenStreetMap,2017-11-06T15:39:49.000Z,,orlando,False
1a238d1b-ed7b-410e-b1d4-a0c1917ad8bf,Chi Psi - Alpha Mu Delta at Rollins College,social_service_organizations,"['community_services_non_profits', 'college_university']",FL,Winter Park,32789.0,1000 Holt Ave,28.592172,-81.346207,meta,2025-06-02T07:00:00.000Z,0.242152466367713,c6ed0fd5-938d-40bb-86b4-c8f02d8ef24f,Rollins Museum of Art,entertainment,,OpenStreetMap,2023-03-03T20:31:57.000Z,,orlando,False
ae70ee03-ccbb-4f6f-ad61-423e50add887,Rollins Museum of Art,art_museum,"['museum', 'art_gallery']",FL,Winter Park,32789.0,1000 Holt Ave,28.592215,-81.3463293,meta,2025-06-02T07:00:00.000Z,0.9784508333782836,c6ed0fd5-938d-40bb-86b4-c8f02d8ef24f,Rollins Museum of Art,entertainment,,OpenStreetMap,2023-03-03T20:31:57.000Z,,orlando,False
0dcef2db-9251-4463-9a18-ef2a9c7b8f8a,Education at Rollins,college_university,"['school', 'education']",FL,Winter Park,32789.0,1000 Holt Ave,28.59219,-81.34627,meta,2025-06-02T07:00:00.000Z,0.2456896551724137,c6ed0fd5-938d-40bb-86b4-c8f02d8ef24f,Rollins Museum of Art,entertainment,,OpenStreetMap,2023-03-03T20:31:57.000Z,,orlando,False
8f7be632-ef81-4495-ba0a-46dd1dde3907,SWAG at Rollins College,college_university,,FL,Winter Park,32789.0,1000 Holt Ave,28.59219,-81.34627,meta,2025-06-02T07:00:00.000Z,0.2456896551724137,c6ed0fd5-938d-40bb-86b4-c8f02d8ef24f,Rollins Museum of Art,entertainment,,OpenStreetMap,2023-03-03T20:31:57.000Z,,orlando,False
18fcd247-d553-444e-ab01-89f2267cdbb7,Rollins Social Impact Hub,college_university,['campus_building'],FL,Winter Park,32789.0,1000 Holt Ave,28.59219,-81.34627,meta,2025-06-02T07:00:00.000Z,0.7548172757475083,c6ed0fd5-938d-40bb-86b4-c8f02d8ef24f,Rollins Museum of Art,entertainment,,OpenStreetMap,2023-03-03T20:31:57.000Z,,orlando,True
f3ea2a33-e5e2-4789-8492-3257a38c464e,Rollins Hillel,community_center,"['religious_organization', 'college_university']",FL,Winter Park,0.0,,28.59219,-81.34627,meta,2025-06-02T07:00:00.000Z,0.3376623376623376,c6ed0fd5-938d-40bb-86b4-c8f02d8ef24f,Rollins Museum of Art,entertainment,,OpenStreetMap,2023-03-03T20:31:57.000Z,,orlando,False
4fb0f003-658b-432f-b214-48cd89a12c2f,Rollins College Professional Advancement,college_university,['school'],FL,Winter Park,32789.0,1000 Holt Ave,28.59219,-81.34627,meta,2025-06-02T07:00:00.000Z,0.672566371681416,c6ed0fd5-938d-40bb-86b4-c8f02d8ef24f,Rollins Museum of Art,entertainment,,OpenStreetMap,2023-03-03T20:31:57.000Z,,orlando,False
a8381150-ac62-41b3-9dba-6587f8819240,Non Compis Mentis -  Rollins College,college_university,"['social_service_organizations', 'school']",FL,Winter Park,32789.0,1000 Holt Ave,28.59219,-81.34627,meta,2025-06-02T07:00:00.000Z,0.5662921348314607,c6ed0fd5-938d-40bb-86b4-c8f02d8ef24f,Rollins Museum of Art,entertainment,,OpenStreetMap,2023-03-03T20:31:57.000Z,,orlando,False
1ade4ba5-a241-496f-bcad-45584d6ef73a,Rollins College Department of Business,college_university,['campus_building'],FL,Winter Park,32789.0,1000 Holt Ave,28.5926603,-81.3467457,meta,2025-06-02T07:00:00.000Z,0.9415384615384615,ea2fa338-830c-4058-bf91-62581b857c10,Rex Beach Hall,education,college,OpenStreetMap,2017-11-06T15:39:49.000Z,,orlando,False
249e08ce-e48b-4b48-a0fb-4b13864b1b6a,Rollins College Basketball Gym,college_university,"['gym', 'sports_club_and_league']",FL,Winter Park,0.0,,28.5930893,-81.3465626,meta,2025-06-02T07:00:00.000Z,0.5662921348314607,42cf512b-b2b8-4fbc-8774-f3be80a4e3c9,Harold and Ted Alfond Sports Center,,,OpenStreetMap,2025-04-26T22:13:10.000Z,,orlando,False
dda4c03d-2710-46f9-ac51-c02ec11c846c,Rollins College Men's Lacrosse Coaches' Page,active_life,"['college_university', 'school']",,,32789.0,,28.593118,-81.3465518,meta,2025-06-02T07:00:00.000Z,0.242152466367713,42cf512b-b2b8-4fbc-8774-f3be80a4e3c9,Harold and Ted Alfond Sports Center,,,OpenStreetMap,2025-04-26T22:13:10.000Z,,orlando,False
62bcb38e-be90-46b1-83e9-11629d010014,Rollins Field House,gym,['attractions_and_activities'],FL,Winter Park,0.0,,28.5931752,-81.3463775,meta,2025-06-02T07:00:00.000Z,0.3376623376623376,42cf512b-b2b8-4fbc-8774-f3be80a4e3c9,Harold and Ted Alfond Sports Center,,,OpenStreetMap,2025-04-26T22:13:10.000Z,,orlando,False
51903c6a-4444-41b3-9e67-7fe4f044390b,Rollins College,education,,FL,Winter Park,32789.0,430 E Lyman Ave,28.59482765197754,-81.34638977050781,Microsoft,2017-01-16T21:41:09.027Z,0.77,19a5fa03-3f24-4794-b7e6-bd270445bec5,Rosen Family Center,education,college,OpenStreetMap,2017-11-06T16:10:52.000Z,,orlando,False
98bb3226-4530-44de-ae40-d84a062bcb80,Rollins College,education,,FL,Winter Park,32789.0,231 N Interlachen Ave,28.599159240722656,-81.3489990234375,Microsoft,2017-01-16T21:42:22.167Z,0.77,50b88e92-01e6-4384-adef-75a3edba20c7,,,,Microsoft ML Buildings,2023-09-01T00:00:00.000Z,0.9765999913215636,orlando,False
7a2690fb-6534-4409-9c4d-c9fb48dc69b7,Rollins College,college_university,['public_service_and_government'],FL,Winter Park,32792.0,609 Gallery Dr,28.602861,-81.320266,meta,2025-06-02T07:00:00.000Z,0.3961437335670464,3c1af105-1f98-47a7-948b-f8eaaf17c5b0,,,,Microsoft ML Buildings,2023-09-01T00:00:00.000Z,0.960200011730194,orlando,False
883d7e02-7f69-4d16-9c78-811cc1743ed4,Lake Maitland - - Rollins Boathouse,lake,"['park', 'active_life']",FL,Winter Park,0.0,,28.6098543,-81.3459372,meta,2025-06-02T07:00:00.000Z,0.5662921348314607,,,,,,,,orlando,False
6888fd39-f115-4b39-b269-22792de1f7ff,Orkin Pest Control,pest_control_service,['home_improvement_store'],FL,Altamonte Springs,32714.0,704 W State Road 436,28.6625471,-81.411584,meta,2025-06-02T07:00:00.000Z,0.9459263554653524,061c6d0e-37dd-46e7-aad9-50db239ec780,,,,OpenStreetMap,2020-07-16T01:04:06.000Z,,orlando,False
96028f47-29db-47a3-be62-4e319066dbb0,Orkin Pest Control,pest_control_service,['home_improvement_store'],OH,North Olmsted,44070.0,6769 Industrial Pkwy,41.390961,-81.9663063,meta,2025-06-02T07:00:00.000Z,0.9415384615384615,,,,,,,,cleveland,False
85d1755a-cadc-4f0c-8cfa-c6cc98f096a7,Orkin Pest Control,pest_control_service,['home_improvement_store'],OH,Strongsville,44149.0,19579 Progress Dr,41.326329,-81.8418344,meta,2025-06-02T07:00:00.000Z,0.9459263554653524,e8a8690f-49cc-4476-a6e5-df9f09c8f642,Benchmark Imaging Group,commercial,warehouse,OpenStreetMap,2019-08-20T19:36:57.000Z,,cleveland,False
9c82ac54-2290-4094-a4c5-bae3e97449de,Orkin,pest_control_service,"['professional_services', 'home_improvement_store']",OH,Macedonia,44056.0,460 E Highland Rd,41.2986997,-81.5087816,meta,2025-06-02T07:00:00.000Z,0.9415384615384615,2f25e6bb-78fa-41c4-aa11-bd5d76e2d31e,,industrial,industrial,OpenStreetMap,2014-08-29T02:23:50.000Z,,cleveland,False
1ca7adbc-46ad-4dbc-87ad-f9ecc8df3b34,Orkin Pest Control,pest_control_service,['home_improvement_store'],SC,West Columbia,29170.0,1126 Silstar Rd,33.9574406,-81.1206985,meta,2025-06-02T07:00:00.000Z,0.9784508333782836,109f714d-5f10-4f01-9fa6-b0c9f58a1905,,,,OpenStreetMap,2017-12-21T18:24:51.000Z,,columbia-south-carolina,False
beebeb35-f63f-4e5b-928b-d5c0622eccf9,Orkin Pest Control,pest_control_service,['home_improvement_store'],NY,Henrietta,14467.0,205 Summit Point Dr,43.0575402,-77.6503526,meta,2025-06-02T07:00:00.000Z,0.9459263554653524,01bc58db-c40d-47c9-8380-69751b74b5ea,,commercial,commercial,OpenStreetMap,2024-06-10T17:54:31.000Z,,rochester,False
76a0fde4-12a1-4aea-967d-0d7656a65e7c,Orkin Pest Control,pest_control_service,['home_improvement_store'],LA,Scott,70583.0,200 W Saul Dr,30.2388119,-92.0630854,meta,2025-06-02T07:00:00.000Z,0.9784508333782836,,,,,,,,lafayette,False
55343934-4fba-408d-bef1-74c4bc43fc14,Orkin Pest Control,pest_control_service,"['home_improvement_store', 'professional_services']",WI,New Berlin,53151.0,16335 W Lincoln Ave,43.0025712,-88.1155223,meta,2025-06-02T07:00:00.000Z,0.9459263554653524,,,,,,,,milwaukee,False
9c79bbff-84d4-496d-bb93-2e384353c509,Orkin Pest Control,pest_control_service,['professional_services'],WI,Milwaukee,53226.0,10101 W Innovation Dr,43.0408376,-88.0391354,meta,2025-06-02T07:00:00.000Z,0.9459263554653524,a4d8acf5-a9ef-4cdb-b38e-c9e04a97e41b,Woodlands 2,,,OpenStreetMap,2022-11-29T00:00:26.000Z,,milwaukee,False
f4db13d6-7c8b-4c4e-9ac1-fc282fda6b6e,Orkin Pest Control,pest_control_service,['home_improvement_store'],IN,Fort Wayne,46808.0,3835 Superior Ridge Dr,41.1047613,-85.1945331,meta,2025-06-02T07:00:00.000Z,0.9297091412742382,41346ac2-99ea-4c91-90e0-292d51b1cb82,,,,OpenStreetMap,2022-08-15T03:19:36.000Z,,fort-wayne,False
ffcdb216-ec0d-466d-9509-f566f300fdbe,Tonia Rollins,real_estate_agent,"['real_estate_service', 'professional_services']",AR,North Little Rock,72116.0,5317 John F Kennedy Blvd,34.8036645,-92.2538143,meta,2025-06-02T07:00:00.000Z,0.9300613496932516,,,,,,,,little-rock,False
97da2905-9cec-48fb-b46c-6f236645277f,Orkin Pest Control,pest_control_service,['professional_services'],CA,Stockton,95215.0,4092 Metro Dr,37.9070755,-121.2146161,meta,2025-06-02T07:00:00.000Z,0.9297091412742382,d580346c-8f38-4a82-8e85-b013c9199b77,,,,OpenStreetMap,2014-06-11T20:19:28.000Z,,stockton,False
1180fa47-b5ff-49ac-b4f9-465aacfe18dc,Orkin Pest Control,pest_control_service,['professional_services'],OK,Oklahoma City,73179.0,3620 S Moulton Dr,35.4284122,-97.6156686,meta,2025-06-02T07:00:00.000Z,0.9300613496932516,,,,,,,,oklahoma-city,False
3fdefbe6-3f9e-4568-9c87-cf8e4dcdcbac,Transitions by Rollins,real_estate,['real_estate_agent'],OK,Oklahoma City,73105.0,310 NE 28th St,35.4984742,-97.5063164,meta,2025-06-02T07:00:00.000Z,0.9297091412742382,44a14da5-9a24-4a12-a92e-6bfb1b4542e4,,,,OpenStreetMap,2024-02-20T04:08:24.000Z,,oklahoma-city,False
f6380978-6a11-448f-bb7b-c53f17b85b2c,"Cheri Rollins, Realtor, GRI: West+Main Homes OK",real_estate_agent,"['real_estate', 'real_estate_service']",OK,Oklahoma City,73112.0,3151 NW Expressway,35.5301795,-97.5670601,meta,2025-06-02T07:00:00.000Z,0.3376623376623376,,,,,,,,oklahoma-city,False
d589d772-f9ec-4e53-b1f2-3be0cc3f8812,Orkin,pest_control_service,,OK,Oklahoma City,73105.0,45 NE 51st St,35.5232407,-97.5103958,Microsoft,2025-05-17T21:27:57.593Z,0.77,,,,,,,,oklahoma-city,False
ace5dd36-25b5-4646-bc92-a1b189980477,Orkin Pest Control,pest_control_service,['home_improvement_store'],OK,Oklahoma City,73105.0,45 NE 51st St,35.5233807,-97.5103724,meta,2025-06-02T07:00:00.000Z,0.9459263554653524,e7c6d55d-26fc-4b37-acff-c306f57d2ba6,,,,OpenStreetMap,2024-02-20T04:05:07.000Z,,oklahoma-city,False
65b0e2f1-3ecb-4fbf-9b79-92d4023bee15,Orkin Pest & Termite Control,pest_control_service,,OK,Edmond,73013.0,13774 N Lincoln Blvd,35.610805,-97.504699,Microsoft,2025-05-15T15:16:52.500Z,0.77,,,,,,,,oklahoma-city,False
b204a3f6-757a-4b22-814f-6b891b8f731e,Orkin Pest Control,pest_control_service,['professional_services'],OK,Edmond,73013.0,13774 N Lincoln Blvd,35.6109711,-97.503739,meta,2025-06-02T07:00:00.000Z,0.9297091412742382,475d2b86-67d7-4016-a1fc-bfa09bd48dd2,,,,OpenStreetMap,2017-01-27T00:29:39.000Z,,oklahoma-city,False
4a26be05-98ef-4ed2-86ac-b6515ff9988f,Orkin,pest_control_service,,OK,Edmond,73013.0,13774 N Lincoln Blvd Ste B,35.6109826,-97.5036167,Microsoft,2024-04-06T05:28:20.400Z,0.77,475d2b86-67d7-4016-a1fc-bfa09bd48dd2,,,,OpenStreetMap,2017-01-27T00:29:39.000Z,,oklahoma-city,False
cf3b3123-2d2e-429c-8fef-59177a18fc0b,Orkin Pest Control,pest_control_service,"['home_improvement_store', 'professional_services']",KS,Lenexa,66215.0,8605 Quivira Rd,38.9727451,-94.7232446,meta,2025-06-02T07:00:00.000Z,0.9415384615384615,2003a14d-6bf9-4ad4-9708-036223d28e2d,PPG Paints,,,OpenStreetMap,2022-09-25T00:19:07.000Z,,kansas-city,False
13d26a22-92b8-4b50-80cb-430400e7506a,Orkin Pest Control,pest_control_service,['professional_services'],KS,Lenexa,66214.0,8004 Reeder St,38.984656,-94.7085905,meta,2025-06-02T07:00:00.000Z,0.9784508333782836,,,,,,,,kansas-city,False
b247e2b3-2e50-4e0d-80c7-1f4a590b6df8,Orkin Pest Control,pest_control_service,"['home_improvement_store', 'professional_services']",MO,Lee's Summit,64064.0,2810 NE Independence Ave,38.9610502,-94.3627859,meta,2025-06-02T07:00:00.000Z,0.9459263554653524,,,,,,,,kansas-city,False
7be0a101-18ef-46a3-9045-2545de81d2e8,Rollins Law Firm,lawyer,"['criminal_defense_law', 'personal_injury_law']",MO,Kansas City,64112.0,919 W 47th St,39.0424556,-94.598422,meta,2025-06-02T07:00:00.000Z,0.909823677581864,d06adddd-aae9-4b7f-bc4a-3deace96d0f6,Barnes Law Firm,,,OpenStreetMap,2024-12-28T05:50:08.000Z,,kansas-city,False
b53a70de-afd0-4b44-b01c-ba8cf993b4fb,Orkin Pest Control,pest_control_service,['professional_services'],NM,Albuquerque,87107.0,3220 Candelaria Rd NE,35.1163674,-106.6094183,meta,2025-06-02T07:00:00.000Z,0.9459263554653524,,,,,,,,albuquerque,False
babb449b-ee1b-491c-9803-6fb6c2a0079f,Orkin Pest Control,pest_control_service,['home_improvement_store'],IL,Rockford,61109.0,4689 Stenstrom Rd,42.224489,-89.0253232,meta,2025-06-02T07:00:00.000Z,0.9415384615384615,a7a19531-331f-4fd3-a9a0-825bfaa294cd,,,,OpenStreetMap,2020-02-08T19:00:42.000Z,,rockford,False
e67f0b4e-2f57-45d7-aca3-fa5a5fa6b798,Orkin Pest Control,pest_control_service,['home_improvement_store'],TN,Nashville,37211.0,3710 Nolensville Pike,36.0945872,-86.736564,meta,2025-06-02T07:00:00.000Z,0.9459263554653524,54af56c2-4ecd-499d-8d05-f90a32cd43b4,,,,OpenStreetMap,2019-12-25T05:55:25.000Z,,nashville-davidson,False
2ab186b7-3f73-4f07-83a1-1fd1783caa3c,Orkin Pest Control,pest_control_service,['professional_services'],TN,Nashville,37211.0,5010 Linbar Dr,36.0833576,-86.7001253,meta,2025-06-02T07:00:00.000Z,0.9415384615384615,7f7c6b5f-f761-4005-aed9-c33a905f1a33,,,,OpenStreetMap,2019-03-13T02:27:51.000Z,,nashville-davidson,False
2e335474-dbf5-47ff-8c3c-2658ee0af6b5,Danielle Rollins - UnitedHealthcare Licensed Sales Agent,insurance_agency,['health_and_medical'],NY,Tonawanda,14150.0,1876 Niagara Falls Blvd,43.0052832,-78.8229853,meta,2025-06-02T07:00:00.000Z,0.9204819277108434,b974b127-e673-4d61-889c-c3c0725ba771,,commercial,office,OpenStreetMap,2022-05-12T15:50:13.000Z,,buffalo,False
8277ec53-5880-4aff-87dd-b3b9dac49109,Orkin Pest Control,pest_control_service,['home_improvement_store'],NY,Amherst,14228.0,15 Hazelwood Dr,43.0283076,-78.8150456,meta,2025-06-02T07:00:00.000Z,0.9784508333782836,52fcbe8a-2010-4efe-8296-4f1c71bcab08,,,,OpenStreetMap,2021-04-30T00:46:20.000Z,,buffalo,False
5a673b71-92d1-44e9-9333-961490624861,Orkin,pest_control_service,,NY,Amherst,14228.0,15 Hazelwood Dr Ste 110,43.0288332,-78.8147886,Microsoft,2025-05-17T21:27:58.097Z,0.77,,,,,,,,buffalo,False
bcfbeefb-ce53-419a-85d0-8cd97ea798af,Orkin Pest Control,pest_control_service,['home_improvement_store'],PA,Bridgeville,15017.0,255 Millers Run Rd,40.3562908,-80.1297749,meta,2025-06-02T07:00:00.000Z,0.9415384615384615,c38bc7bd-672b-49d5-aa64-759b61e23629,,commercial,commercial,OpenStreetMap,2018-01-21T16:33:15.000Z,,pittsburgh,False
29bef275-4f67-42db-b86e-55bb7e3d445b,Gary W Rollins College of Business,college_university,"['education', 'school']",TN,Chattanooga,37403.0,601 McCallie Ave,35.0460678,-85.3010531,meta,2025-06-02T07:00:00.000Z,0.9879256218304756,9a45c9cd-171c-4e27-95d5-74ea46c93e81,UTC Fletcher Hall,education,university,OpenStreetMap,2024-05-18T02:01:10.000Z,,chattanooga,False
2201c7f9-5082-4032-9fa9-f97ce22d6cfe,Orkin Pest Control,pest_control_service,['home_inspector'],TN,Chattanooga,37421.0,5959 Shallowford Rd,35.055177,-85.193519,meta,2025-06-02T07:00:00.000Z,0.9415384615384615,a995dc65-303c-463e-bcef-4d73d25187ce,,,,OpenStreetMap,2020-02-09T18:33:44.000Z,,chattanooga,False
18e8469d-547b-46e5-8f3c-e95e4ecdfd74,Orkin,pest_control_service,,TN,Chattanooga,37421.0,5959 Shallowford Rd Ste 339,35.0567965,-85.193854,Microsoft,2019-12-04T15:54:05.833Z,0.77,,,,,,,,chattanooga,False
856722e9-2bab-4544-b645-824430595471,Orkin,pest_control_service,,TN,Chattanooga,37421.0,5959 Shallowford Rd Ste 339,35.056177,-85.1931453,Microsoft,2025-05-17T21:28:10.310Z,0.77,14245e23-8340-4b4a-b0e9-57f10875a35d,,,,OpenStreetMap,2020-02-09T18:33:44.000Z,,chattanooga,False
723e6295-02db-4139-8247-a215211622d3,Orkin,pest_control_service,,TN,Chattanooga,37421.0,5959 Shallowford Rd Ste 339,35.057374,-85.1943317,Microsoft,2023-12-06T07:28:52.043Z,0.77,ceeabeb7-1dfa-4a9d-8034-ade1d1d6cb52,,,,OpenStreetMap,2020-02-09T18:33:44.000Z,,chattanooga,False
40b85701-e485-4ff1-ba59-0639673983bf,Rollins Contractors ,excavation_service,"['contractor', 'garbage_collection_service']",WA,Spanaway,98387.0,21320 Mountain Hwy E,47.06269,-122.40871,meta,2025-06-02T07:00:00.000Z,0.2456896551724137,e362c409-2e38-4463-b920-11bf5d5ca03e,,,,Microsoft ML Buildings,2020-08-02T00:00:00.000Z,,seattle,False
a4b4d1b0-c86a-4e04-a164-7f02201cc1b3,Rollins Auto Wrecking,automotive_parts_and_accessories,"['automotive_repair', 'towing_service']",WA,Spanaway,98387.0,20620 Mountain Hwy E,47.0699722,-122.4170555,meta,2025-06-02T07:00:00.000Z,0.9879256218304756,70f9ae6e-b687-4420-acfd-87323fa4f952,,,,OpenStreetMap,2024-12-01T18:22:57.000Z,,seattle,False
4630bcb8-8038-41c6-8c61-f9f63c1a3a29,Orkin Pest Control,pest_control_service,['home_improvement_store'],WA,Tacoma,98445.0,11110 25th Ave E,47.155284,-122.396772,meta,2025-06-02T07:00:00.000Z,0.9415384615384615,c3592301-1624-4fc0-ba32-e3a6936e0a27,,commercial,commercial,OpenStreetMap,2018-03-20T21:48:20.000Z,,seattle,False
40412126-f7fc-491b-bdb6-3020d503eb4f,Paco Rollins Machines Inc.,shopping,"['professional_services', 'industrial_equipment']",WA,Vashon,98070.0,21709 Vashon Hwy SW,47.409788,-122.461,meta,2025-06-02T07:00:00.000Z,0.3376623376623376,ef56bb82-92a0-48bf-bad1-241478777751,,,,Microsoft ML Buildings,2020-08-10T00:00:00.000Z,,seattle,True
406de33a-6fe1-4573-9918-53a30baf6e7b,Orkin Pest Control,pest_control_service,['home_improvement_store'],WA,Kent,98032.0,25400 74th Ave S,47.373577,-122.2421378,meta,2025-06-02T07:00:00.000Z,0.9297091412742382,5cf4f766-75a3-47fc-ad31-0532c6074ff4,,industrial,industrial,OpenStreetMap,2018-12-04T09:58:33.000Z,,seattle,False
df29aadc-3776-4bd4-be5d-a47a076b5807,Orkin,pest_control_service,"['professional_services', 'home_improvement_store']",WA,Kent,98032.0,22025 70th Ave S,47.4041944,-122.2466354,meta,2025-06-02T07:00:00.000Z,0.9300613496932516,6c3d955c-2355-47e5-9a58-2572edbd6dde,Building C,commercial,commercial,OpenStreetMap,2018-12-09T00:11:58.000Z,,seattle,False
1be13912-d80e-4905-9321-10855ceb1300,Orkin Pest & Termite Control,pest_control_service,,KY,Louisville,40299.0,10805 Bluegrass Pkwy,38.221894,-85.555182,Microsoft,2025-05-15T16:33:39.517Z,0.77,,,,,,,,louisville,False
79b6bc22-0235-45cd-9e4c-c944b5d8df5a,Orkin Pest Control,pest_control_service,['professional_services'],KY,Louisville,40299.0,10805 Bluegrass Pkwy,38.2224311,-85.5543456,meta,2025-06-02T07:00:00.000Z,0.9784508333782836,,,,,,,,louisville,False
2daf43dc-b07b-474e-bfa4-73ca3c9f094e,Orkin Pest Control,pest_control_service,['professional_services'],FL,Miami,33186.0,12399 SW 131st Ave,25.6529966,-80.4059039,meta,2025-06-02T07:00:00.000Z,0.9459263554653524,b2d88ca2-6397-44a1-9213-d521125cf851,,,,OpenStreetMap,2016-08-03T18:49:34.000Z,,miami,False
63afaee0-f2cd-4ade-b359-3657a3431f6c,Orkin Pest Control,pest_control_service,"['professional_services', 'home_improvement_store']",FL,Doral,33178.0,9505 NW 40th Street Rd,25.8092636,-80.3516164,meta,2025-06-02T07:00:00.000Z,0.9204819277108434,43590de0-9268-4ee7-a7c0-9cfcb7729c84,,,,OpenStreetMap,2016-08-03T20:26:35.000Z,,miami,False
af1b9ec0-0e01-4279-adf4-7785771ca068,Orkin Pest Control,pest_control_service,"['professional_services', 'home_improvement_store']",FL,Miami,33166.0,7725 NW 62nd St,25.8300695,-80.323362,meta,2025-06-02T07:00:00.000Z,0.9459263554653524,1922492e-8a42-40b5-b688-ee308ef95d0e,,,,OpenStreetMap,2016-08-04T03:09:34.000Z,,miami,False
defb095f-060d-4692-8bac-120ef83d4a4c,Orkin,pest_control_service,,FL,Miami Lakes,33014.0,15900 NW 57th Ave,25.9179819,-80.2936065,Microsoft,2024-04-06T05:28:20.400Z,0.77,5cfcf460-8abf-4c30-ac60-45c6a0399847,,,,OpenStreetMap,2016-08-05T13:22:23.000Z,,miami,False
fb0197e6-545d-446e-b447-e9ca69ef224f,Orkin Pest Control,pest_control_service,['professional_services'],FL,Miami Lakes,33014.0,15900 NW 57th Ave,25.9180536,-80.2935249,meta,2025-06-02T07:00:00.000Z,0.9415384615384615,5cfcf460-8abf-4c30-ac60-45c6a0399847,,,,OpenStreetMap,2016-08-05T13:22:23.000Z,,miami,False
72a9c545-ff26-4c7a-9531-4e1ff2907091,Marine Rollins,real_estate_agent,"['real_estate', 'hotel']",FL,North Miami,33181.0,1680 NE 125th St,25.8913551,-80.1650082,meta,2025-06-02T07:00:00.000Z,0.9300613496932516,44f6ce19-34d7-4b0b-acea-cecdf67bc638,,,,OpenStreetMap,2016-08-07T01:22:31.000Z,,miami,False
a8e1f3e3-792c-4912-8670-a79c1a63e772,Orkin Pest Control,pest_control_service,['home_improvement_store'],FL,Hallandale Beach,33009.0,1820 SW 30th Ave,25.9941076,-80.1666785,meta,2025-06-02T07:00:00.000Z,0.9297091412742382,7ffa568f-a1ee-438c-87a9-6e1cfeb90c68,,,,OpenStreetMap,2016-08-01T13:09:43.000Z,,miami,False
5e451979-a2c0-44d9-865f-4525241a5d6c,Orkin,pest_control_service,,FL,Sunrise,33325.0,13798 NW 4th St Ste 312,26.125078,-80.334239,Microsoft,2021-04-27T06:16:50.067Z,0.77,3dd65a28-4c46-4ce4-886f-00e68b50e36f,,,,OpenStreetMap,2016-05-05T19:08:54.000Z,,miami,False
13a59cd3-a08e-4779-a8bb-f486c15b758f,"Annisha Battle Rollins, Realtor",real_estate_agent,['real_estate_service'],FL,Cooper City,33330.0,12399 SW 53rd St Ste #101,26.051927,-80.312396,Microsoft,2023-04-30T23:33:24.850Z,0.77,cb3859d6-063d-463c-85be-6dc0aaff33d4,,,,OpenStreetMap,2020-09-05T18:50:08.000Z,,miami,False
05146d48-2c68-484f-8115-6c7176a15308,Orkin Pest Control,pest_control_service,['home_improvement_store'],FL,Fort Lauderdale,33309.0,3540 NW 56th St,26.1947924,-80.1970252,meta,2025-06-02T07:00:00.000Z,0.9459263554653524,ae7de4a1-c37c-4de4-8062-387226f20deb,,,,OpenStreetMap,2019-11-03T12:12:39.000Z,,miami,False
00fe09df-aad3-446a-8119-1c3660adb53b,Orkin,pest_control_service,,FL,Ft Lauderdale,33309.0,3540 NW 56th St Ste 208,26.1951034,-80.1973259,Microsoft,2025-05-17T21:29:02.807Z,0.77,,,,,,,,miami,False
95a66e57-6088-4f6a-a109-52e45823f8a2,Orkin Pest Control,pest_control_service,['home_improvement_store'],FL,Margate,33063.0,1700 Banks Rd,26.2519608,-80.1938789,meta,2025-06-02T07:00:00.000Z,0.9300613496932516,31d6e975-5fcf-46e1-b84e-6ae0b822a346,,,,OpenStreetMap,2013-03-05T06:26:39.000Z,,miami,False
56320f63-6d1a-44de-8306-63ee18552c7d,Orkin,pest_control_service,,FL,Margate,33063.0,1700 Banks Rd Ste 100,26.216416,-80.1381821,Microsoft,2024-04-06T05:28:20.400Z,0.77,05a45d1f-f7b3-422d-813f-4361a3d45bb1,,,,Microsoft ML Buildings,2022-01-24T00:00:00.000Z,,miami,False
8d2ccf61-fb97-48ce-960d-2b2ae763e73a,Orkin Pest Control,pest_control_service,['professional_services'],FL,Delray Beach,33444.0,1400 Poinsettia Dr,26.4437296,-80.0870656,meta,2025-06-02T07:00:00.000Z,0.9459263554653524,8e59ce04-5a66-48de-9a80-f7e16fe60cb5,,,,OpenStreetMap,2022-04-03T06:53:19.000Z,,miami,False
40de7346-0595-40dd-931c-c35070015408,Orkin Pest Control,pest_control_service,"['home_improvement_store', 'gardener']",FL,West Palm Beach,33409.0,1592 Donna Rd,26.6996359,-80.0809459,meta,2025-06-02T07:00:00.000Z,0.9415384615384615,,,,,,,,miami,False
d175a8bd-8fa4-4100-ad51-350c19041d20,Danielle Rollins,interior_design,,FL,West Palm Beach,33405.0,6405 Georgia Ave,26.657879,-80.0592773,meta,2025-06-02T07:00:00.000Z,0.9459263554653524,963182f6-aa3a-418c-bbd1-df1370d7082d,,,,OpenStreetMap,2016-08-03T02:58:55.000Z,,miami,False
d175a8bd-8fa4-4100-ad51-350c19041d20,Danielle Rollins,interior_design,,FL,West Palm Beach,33405.0,6405 Georgia Ave,26.657879,-80.0592773,meta,2025-06-02T07:00:00.000Z,0.9459263554653524,a3762882-2782-411e-8f0c-9d021dd091ce,,,,OpenStreetMap,2016-08-03T02:58:55.000Z,,miami,False
85e28639-96bd-42ea-9f03-345b6526677b,Orkin Pest Control,pest_control_service,['home_improvement_store'],FL,West Palm Beach,33411.0,2257 Vista Pkwy,26.7188934,-80.1502528,meta,2025-06-02T07:00:00.000Z,0.9415384615384615,526bf458-1a05-47b4-ad3a-d54bc6283c54,,commercial,commercial,OpenStreetMap,2015-05-27T05:22:45.000Z,,miami,False
cbf8235f-0057-45ba-9def-7e394e5d1fa0,Orkin Pest & Termite Control,pest_control_service,,FL,West-Palm-Beach,33411.0,2257 Vista Pkwy,26.718803,-80.149579,Microsoft,2025-05-15T15:06:18.567Z,0.77,,,,,,,,miami,False
d3493d09-35b2-4e48-9496-4c793851ac3a,Orkin Pest Control,pest_control_service,['professional_services'],NC,Fayetteville,28306.0,120 W Mountain Dr,35.0135738,-78.8987266,meta,2025-06-02T07:00:00.000Z,0.9204819277108434,,,,,,,,fayetteville,False
45398f96-1a40-4a86-a2bf-88feca526545,Orkin Pest Control,pest_control_service,['home_improvement_store'],FL,Fort Myers,33966.0,12651 Metro Pkwy,26.559197,-81.8524419,meta,2025-06-02T07:00:00.000Z,0.9415384615384615,4e54f13c-deb5-4eae-854c-238cf4121980,,,,OpenStreetMap,2021-02-07T02:36:28.000Z,,cape-coral,False
ada988df-4478-4e4c-9615-68be4aad3523,Orkin,pest_control_service,,CA,West Sacramento,95605.0,1030 Riverside Pkwy Ste 155,38.5849733,-121.5648191,Microsoft,2025-05-17T21:29:04.917Z,0.77,50f13048-49da-45f4-ba7b-4f98e47f5495,,industrial,industrial,OpenStreetMap,2013-01-20T08:10:59.000Z,,sacramento,False
ded06a87-8f90-414a-b3f8-17748bb53a18,Orkin Pest Control,pest_control_service,['home_improvement_store'],CA,West Sacramento,95605.0,1030 Riverside Pkwy,38.5850358,-121.5648687,meta,2025-06-02T07:00:00.000Z,0.9784508333782836,,,,,,,,sacramento,False
3eeb50e8-50e5-41e2-a8fc-0ac6ab6c5e4f,Orkin Pest & Termite Control,pest_control_service,,CA,West-Sacramento,95605.0,1030 Riverside Pkwy,38.585591,-121.563283,Microsoft,2025-05-15T15:36:09.310Z,0.77,,,,,,,,sacramento,False
239251a9-d14f-4694-a5b2-4b3727c90008,Orkin Pest Control,pest_control_service,['professional_services'],CA,Sacramento,95834.0,1170 National Dr,38.6433772,-121.4854077,meta,2025-06-02T07:00:00.000Z,0.9784508333782836,a5019bf7-4bea-4e71-9d9d-e25bbcff8030,,,,OpenStreetMap,2024-03-27T18:49:02.000Z,,sacramento,False
622a6177-3990-4a3c-88bb-97a6af5fd1ea,Rollins Drapery Service,home_cleaning,['interior_design'],AL,Birmingham,35217.0,1062 Jackson Blvd,33.577441,-86.7769959,Microsoft,2025-03-19T10:24:50.953Z,0.77,,,,,,,,birmingham,False
59a05a0c-995d-4b5a-96eb-a48911c2e57f,Orkin Pest Control,pest_control_service,['professional_services'],NC,Winston-Salem,27103.0,675 Blue Rock Ct,36.0708235,-80.3467934,meta,2025-06-02T07:00:00.000Z,0.9297091412742382,f4e11568-ec37-4f32-8e22-922c9c31a483,,,,OpenStreetMap,2023-01-26T13:44:56.000Z,,winston-salem,False
23bdeec6-dcbc-452b-8cca-2f474259e3fc,Orkin Pest Control,pest_control_service,"['home_improvement_store', 'professional_services']",OH,Columbus,43229.0,6232 Huntley Rd,40.0930401,-82.9975104,meta,2025-06-02T07:00:00.000Z,0.9459263554653524,8c520e66-1cc2-43b6-aa23-7452d841c98b,,,,OpenStreetMap,2018-01-07T07:42:46.000Z,,columbus-ohio,False
2e9b3034-aba2-49d4-9e31-87b056ba1d0e,Orkin Pest Control,pest_control_service,"['home_improvement_store', 'professional_services']",OH,Columbus,43235.0,258 E Campus View Blvd,40.11942,-83.008149,meta,2025-06-02T07:00:00.000Z,0.242152466367713,f690a9c4-272a-46b8-a6c6-73bc6b8e975f,,,,OpenStreetMap,2017-01-06T20:29:26.000Z,,columbus-ohio,False
07e501b9-104c-46c3-9d4f-aa8205138dc6,Orkin,pest_control_service,"['professional_services', 'home_improvement_store']",OH,Worthington,43085.0,640 Lakeview Plaza Blvd,40.1138515,-82.9992408,meta,2025-06-02T07:00:00.000Z,0.9300613496932516,f0e2ba71-7e57-4df8-9432-30b856712b2d,,,,OpenStreetMap,2018-01-07T07:43:28.000Z,,columbus-ohio,False
1c64b0eb-9cec-413f-805b-2de554c125b9,Orkin,pest_control_service,"['professional_services', 'home_improvement_store']",OH,Gahanna,43230.0,792 Morrison Rd,39.9968163,-82.8551791,meta,2025-06-02T07:00:00.000Z,0.9300613496932516,eb3141c4-0d6f-46ea-af86-d6f82bff03c4,,,,OpenStreetMap,2017-12-06T19:39:05.000Z,,columbus-ohio,False
274ae4ee-7f9c-434e-8f89-44152cbf9d61,Orkin Pest Control,pest_control_service,['professional_services'],CA,Temecula,92591.0,40880 County Center Dr,33.5282664,-117.1587158,meta,2025-06-02T07:00:00.000Z,0.9415384615384615,79823689-4d38-4fd9-89b2-b980844acee5,,,,OpenStreetMap,2022-11-20T21:23:51.000Z,,temecula-murrieta,False
852788fe-e225-4a73-aedf-78f01031600f,John H. Rollins Rec Center,sports_and_recreation_venue,"['basketball_court', 'gym']",RI,Providence,2905.0,674 Prairie Ave,41.7971012,-71.40862,meta,2025-06-02T07:00:00.000Z,0.9459263554653524,,,,,,,,providence,False
6401a3f6-e137-460f-bd07-b6a8b8dac7e7,Orkin,pest_control_service,,RI,North Scituate,2857.0,54 Old Quarry Rd,41.8744693,-71.5920164,Microsoft,2019-12-04T15:54:05.833Z,0.77,,,,,,,,providence,False
b503a16e-0a24-40f2-a2a2-dc4375d93b04,Orkin Pest Control,pest_control_service,['home_improvement_store'],VA,Chesapeake,23320.0,209 Tintern Ct,36.7678907,-76.2570442,meta,2025-06-02T07:00:00.000Z,0.9415384615384615,55c95984-2afb-425f-a386-79e85ff6f92f,Lakeside Investment,,,OpenStreetMap,2016-01-29T17:30:47.000Z,,virginia-beach,False
27a9c879-9cf5-4a07-8fbf-bb71cd0cec8a,Chris Rollins Bail Bonds,bail_bonds_service,"['financial_service', 'central_government_office']",VA,Virginia Beach,23464.0,5020 Ferrell Pkwy,36.79477,-76.16504,meta,2025-06-02T07:00:00.000Z,0.3376623376623376,25b43551-8b41-4033-b6e2-b0ea661f6c75,Food Lion,commercial,commercial,OpenStreetMap,2024-10-18T21:33:18.000Z,,virginia-beach,False
668ed10a-ad71-4948-ac94-e4ea10156168,Orkin Pest Control,pest_control_service,['professional_services'],VA,Virginia Beach,23452.0,4205 Virginia Beach Blvd,36.842866,-76.119673,meta,2025-06-02T07:00:00.000Z,0.9415384615384615,a339107a-d21d-48cf-acb1-33e458bc7d30,,commercial,commercial,OpenStreetMap,2016-03-08T17:05:47.000Z,,virginia-beach,False
208fd9ec-c809-4d7b-ba55-7189f8c075c5,Orkin Pest Control,pest_control_service,['professional_services'],VA,Virginia Beach,23455.0,5717 Thurston Ave,36.893875,-76.1835228,meta,2025-06-02T07:00:00.000Z,0.9459263554653524,42b964b6-db0b-46df-b40f-a4a2e5ab4819,,industrial,industrial,OpenStreetMap,2016-04-03T02:08:00.000Z,,virginia-beach,False
eb911a46-7b32-4e50-aaf6-55411314fdb8,Schrickel Rollins & Associates,engineering_services,"['professional_services', 'lawyer']",TX,Arlington,76006.0,1161 Corporate Dr W,32.7649012,-97.0685886,meta,2025-06-02T07:00:00.000Z,0.296943231441048,862e6d8c-4277-42ea-98c3-eca5daa53905,,,,OpenStreetMap,2018-11-10T01:39:58.000Z,,dallas,False
ad19c151-f047-473d-9947-2e388b983e73,Orkin Pest Control,pest_control_service,['professional_services'],TX,Carrollton,75006.0,3330 Keller Springs Rd,32.9685194,-96.8428522,meta,2025-06-02T07:00:00.000Z,0.9300613496932516,f6306ba2-861f-4106-bf40-e9983f882060,,,,OpenStreetMap,2016-06-14T23:49:05.000Z,,dallas,False
49d72ba2-68ea-427d-a239-a6bdb3a0952a,Orkin Pest Control,pest_control_service,"['home_improvement_store', 'professional_services']",TX,Carrollton,75006.0,2820 Trinity Square Dr,32.9831594,-96.8528201,meta,2025-06-02T07:00:00.000Z,0.9459263554653524,,,,,,,,dallas,False
fde755de-2379-419c-93ec-759e0a9196f4,Accura Health Sunnyvale (formerly Dr. Ray E. Rollins - Sunnyvale Family Medicine),family_practice,"['doctor', 'professional_services']",TX,Sunnyvale,75182.0,3635 N Belt Line Rd,32.81585,-96.59653,meta,2025-06-02T07:00:00.000Z,0.9784508333782836,27b35a1c-f9be-4bc4-91c3-64e3370e5df7,,commercial,retail,OpenStreetMap,2019-03-12T07:09:33.000Z,,dallas,False
c23bd1fb-76df-400c-af4f-3eb462c7f4ac,Orkin Pest Control,pest_control_service,['home_improvement_store'],TX,Wylie,75098.0,205 Security Ct,33.0078314,-96.5767033,meta,2025-06-02T07:00:00.000Z,0.9459263554653524,da256b8d-3b35-4643-b45b-ddbae7c896f3,,,,OpenStreetMap,2024-04-06T03:20:25.000Z,,dallas,False
1f69ff27-64e1-429e-9dbf-b287abe54769,Orkin Pest Control,pest_control_service,['professional_services'],FL,Kissimmee,34744.0,1601 Kelley Ave,28.3066318,-81.3971514,meta,2025-06-02T07:00:00.000Z,0.9459263554653524,2ac59c71-3c21-411e-8bb2-1a3882f57c79,,,,OpenStreetMap,2012-11-19T19:19:15.000Z,,kissimmee,False
ef38d0a3-d11c-4324-9cf4-956746947012,Orkin Pest Control,pest_control_service,['home_improvement_store'],NV,Las Vegas,89118.0,6450 Cameron St,36.073372,-115.2033685,meta,2025-06-02T07:00:00.000Z,0.9784508333782836,eda9ca7b-0f59-4784-afe7-39e297d007e9,,,,OpenStreetMap,2023-01-01T22:05:18.000Z,,las-vegas,False
0a6847e4-05c5-4383-984e-3e33fc144719,Orkin Pest Control,pest_control_service,"['home_improvement_store', 'gardener']",FL,Pensacola,32514.0,8810 Grow Dr,30.5258499,-87.1894365,meta,2025-06-02T07:00:00.000Z,0.9784508333782836,40716b8d-709b-435c-aa5a-33875ccd4f3c,,,,OpenStreetMap,2015-06-17T04:32:09.000Z,,pensacola,False
2050a9e8-f77e-4e41-a5c9-7ac5232c81e8,Rollins Landscaping,landscaping,"['contractor', 'gardener']",UT,Sandy,84094.0,1270 E 10600 S,40.5586188,-111.854709,meta,2025-06-02T07:00:00.000Z,0.909823677581864,,,,,,,,salt-lake-city,False
ccfd6ead-d1cf-4e67-85b3-af3030d21f60,Jeff Rollins - SecurityNational Mortgage Company Loan Officer,mortgage_lender,,UT,Salt Lake City,84123.0,433 W Ascension Way 5th Floor,40.6553654,-111.903552,Microsoft,2024-06-11T00:55:04.603Z,0.77,45d7c37d-846f-4d36-a208-fea8fdd526b8,,transportation,parking,OpenStreetMap,2024-08-09T15:59:55.000Z,,salt-lake-city,True
b0b78af7-3c69-42a8-b8dd-0fe1b5d7cbd3,Orkin,pest_control_service,['professional_services'],UT,Salt Lake City,84104.0,1985 S Milestone Dr,40.7292506,-111.963355,meta,2025-06-02T07:00:00.000Z,0.9297091412742382,a17bc7d0-3682-4d7a-92f2-020c38ce686e,,,,OpenStreetMap,2016-02-14T15:45:33.000Z,,salt-lake-city,False
ece63d24-8c35-46c9-97ac-44d472275b8d,"Debbie Rollins, Realtor",real_estate_agent,,SC,Greenville,29601.0,"The State Bar of South Carolina, 1201 E Washington St",34.84195,-82.41455,meta,2025-06-02T07:00:00.000Z,0.3313953488372093,8ff05b68-0922-48e1-8512-382c3caf5ada,,residential,detached,OpenStreetMap,2021-02-26T13:16:12.000Z,,greenville,False
caf47880-cd1c-4bbc-80c9-f303caf1337e,Orkin Pest Control,pest_control_service,['professional_services'],SC,Greenville,29607.0,48 Brookfield Oaks Dr,34.8069909,-82.2787059,meta,2025-06-02T07:00:00.000Z,0.9784508333782836,98c64b97-6514-40a3-8d83-c6e3201d9cd2,,commercial,commercial,OpenStreetMap,2018-03-15T02:12:42.000Z,,greenville,False
340f1361-294b-42e9-9a6c-079c51f0789f,Orkin Pest Control,pest_control_service,['home_improvement_store'],FL,Jacksonville,32256.0,9143 Philips Hwy,30.2005449,-81.5724202,meta,2025-06-02T07:00:00.000Z,0.9415384615384615,840e36ce-3fa4-4b8d-837d-8bbbbdfccc24,,,,OpenStreetMap,2021-04-20T15:26:54.000Z,,jacksonville-florida,False
558a47ff-d969-45c7-9754-ebb51d03e863,Orkin Pest Control,pest_control_service,['professional_services'],FL,Jacksonville,32254.0,529 Stuart Ln,30.3169032,-81.7568387,meta,2025-06-02T07:00:00.000Z,0.9204819277108434,2f5a6983-d873-4d4d-b271-8e5a38db316b,,,,OpenStreetMap,2021-04-15T19:19:59.000Z,,jacksonville-florida,False
15f60766-5ea6-4e29-9253-291b1470a64e,Orkin Pest & Termite Control,pest_control_service,,FL,Jacksonville,32254.0,529 Stuart Ln,30.317135,-81.756854,Microsoft,2025-05-15T16:02:27.820Z,0.77,,,,,,,,jacksonville-florida,False
0e8d2f9f-d2de-4f0b-bd1a-520707029ade,Orkin,pest_control_service,"['professional_services', 'home_improvement_store']",AZ,Tucson,85745.0,2020 N Forbes Blvd,32.24666,-110.9910729,meta,2025-06-02T07:00:00.000Z,0.9297091412742382,e6a31831-63a8-48e2-9dec-edcc9d4cf26d,,,,OpenStreetMap,2014-02-16T11:52:57.000Z,,tucson,False
8f5efa27-a086-4cba-a75f-9e855097a485,Shultz & Rollins,personal_injury_law,['lawyer'],AZ,Tucson,85719.0,1980 E Fort Lowell Rd,32.2644735,-110.941793,meta,2025-06-02T07:00:00.000Z,0.9784508333782836,,,,,,,,tucson,False
b2756bf3-decd-4592-b436-a11f03f92d2d,Orkin Pest Control,pest_control_service,['home_improvement_store'],NC,Greensboro,27405.0,107 Bonita Dr,36.0869506,-79.7280323,meta,2025-06-02T07:00:00.000Z,0.9297091412742382,b94e1a59-b242-4129-b36b-f57f24325dd4,,,,OpenStreetMap,2020-11-24T19:24:06.000Z,,greensboro,False
75bae044-81d0-4749-9e1f-178549e5e27e,Rollins Savanna,active_life,['sports_club_and_league'],IL,Grayslake,60030.0,8 E Washington St,42.35721,-88.04349,meta,2025-06-02T07:00:00.000Z,0.3376623376623376,,,,,,,,round-lake-beach-mchenry-grayslake,False
ad01eff0-05d2-4234-8204-545474078cbf,Rollins Savanna Forest Preserve,nature_reserve,"['park', 'hiking_trail']",IL,Grayslake,60030.0,20160 W Washington St,42.3612289,-88.024036,meta,2025-06-02T07:00:00.000Z,0.9784508333782836,,,,,,,,round-lake-beach-mchenry-grayslake,False
8528ac55-ad49-44f8-bd13-d97f59669a67,Rollins Chiropractic,chiropractor,"['spas', 'family_practice']",IL,Round Lake Beach,60073.0,2 E Rollins Rd,42.3790883,-88.0824906,meta,2025-06-02T07:00:00.000Z,0.296943231441048,,,,,,,,round-lake-beach-mchenry-grayslake,False
231a2253-ef58-4d90-bb35-e9120fd0d6e2,Rollins Family Dental Center,dentist,"['teeth_whitening', 'health_and_medical']",IL,Round Lake Beach,60073.0,305 E Rollins Rd,42.3787092,-88.0749171,meta,2025-06-02T07:00:00.000Z,0.9784508333782836,a208f935-1109-4624-aa16-38f62bafe497,,,,OpenStreetMap,2023-04-16T22:07:01.000Z,,round-lake-beach-mchenry-grayslake,False
9ee9a8bb-0b33-47fb-9a91-75cc2fb2e2c4,Rollins Dental Center,dentist,"['cosmetic_dentist', 'health_and_medical']",IL,Round Lake Beach,60073.0,916 Rollins Rd,42.381739,-88.059051,meta,2025-06-02T07:00:00.000Z,0.9784508333782836,241f7637-a27f-4ec1-a27c-013d5dfba7d3,,,,OpenStreetMap,2012-11-25T22:01:26.000Z,,round-lake-beach-mchenry-grayslake,False
21db33aa-5538-4a7d-942a-e0c0dede8772,Orkin Pest Control,pest_control_service,['home_improvement_store'],IL,Gurnee,60031.0,1680 N Delany Rd,42.3835033,-87.9048938,meta,2025-06-02T07:00:00.000Z,0.9415384615384615,aee4f720-83cc-484d-a358-04a30391f57b,,,,OpenStreetMap,2015-03-28T14:34:38.000Z,,round-lake-beach-mchenry-grayslake,False
0417db75-e766-4b8b-8b41-6a544222d734,"Victoria P. Rollins, MD",endocrinologist,"['doctor', 'health_and_medical']",NC,Charlotte,28211.0,4525 Cameron Valley Pkwy Fl 4,35.1471468,-80.8245523,Microsoft,2025-05-03T16:12:27.940Z,0.77,73d752f2-7d47-4d81-ad84-5994da35b823,Carolinas Medical Center - Morrocroft,medical,,OpenStreetMap,2023-01-19T21:25:46.000Z,,charlotte,False
87a64f4a-1dad-4a5d-9468-03f71c8cf06a,Orkin Pest Control,pest_control_service,['professional_services'],NC,Charlotte,28227.0,2201 Crownpoint Executive Dr,35.14308,-80.7272999,meta,2025-06-02T07:00:00.000Z,0.9459263554653524,64b95249-a23d-489b-98ce-a3a1b5f8d335,,,,OpenStreetMap,2022-10-26T16:34:31.000Z,,charlotte,False
6927abae-0e3f-4a94-aea8-0935332ce207,Orkin,pest_control_service,,HI,Honolulu,96819.0,3375 Koapaka St,21.33453,-157.91688,meta,2025-06-02T07:00:00.000Z,0.242152466367713,96004b8e-6368-46d2-b3c7-db4377a36fc9,Airport Industrial Park,commercial,commercial,OpenStreetMap,2023-10-18T07:05:12.000Z,,honolulu,False
4a832a91-7400-4a87-b1e6-3f54d88bc558,Orkin,pest_control_service,,HI,Honolulu,96819.0,1906 Kahai St,21.3240986,-157.8855981,Microsoft,2024-04-06T05:29:28.067Z,0.77,0f490440-3159-435f-af39-c5af1fecfc7d,,,,Microsoft ML Buildings,2024-07-01T00:00:00.000Z,0.995299994945526,honolulu,False
27fe471a-c709-4e83-8e17-6ee1fde2f3c3,Orkin Pest & Termite Control,pest_control_service,,HI,Honolulu,96819.0,1906 Kahai St,21.324058,-157.885546,Microsoft,2025-05-15T16:23:07.600Z,0.77,0f490440-3159-435f-af39-c5af1fecfc7d,,,,Microsoft ML Buildings,2024-07-01T00:00:00.000Z,0.995299994945526,honolulu,False
71790faf-695f-4f66-a486-e58f8a67cbea,"Steed Rollins - Peak, Swirles & Cavallito Properties",real_estate_agent,,NC,Durham,27707.0,112 Montrose Dr,35.9634383,-78.9282259,Microsoft,2025-01-14T07:16:18.283Z,0.77,,,,,,,,durham,False
382489d1-52af-4527-81b7-9e37e5bbc29f,Steed Rollins REALTOR | Real Estate Agent in Durham NC,real_estate_agent,"['real_estate', 'bank_credit_union']",NC,Durham,27707.0,112 Montrose Dr,35.96368,-78.9282219,meta,2025-06-02T07:00:00.000Z,0.9300613496932516,bc71ef2a-aaaa-4922-9d8b-8af49279a5d1,,,,OpenStreetMap,2020-06-30T21:58:44.000Z,,durham,False
ca97227c-b6c4-46d2-ac20-ec9ee7e05b7b,Orkin,pest_control_service,,TX,San Antonio,78238.0,5411 Bandera Rd Ste 307,29.4807312,-98.5936961,Microsoft,2024-04-06T05:27:24.623Z,0.77,c83e6b30-910a-490b-8c80-89d380965cf5,,,,OpenStreetMap,2025-01-09T17:43:49.000Z,,san-antonio,False
