id_left,primary_name_left,primary_category,alternate_category,region,locality,zipcode,address,latitude,longitude,plc_source_dataset,plc_source_update_time,plc_source_confidence,id_right,primary_name_right,subtype,class,bldg_dataset,bldg_update_time,bldg_confidence,source_city,is_office_by_pipeline
05f3fb86-b0a8-497e-84ba-6691d6bc24a5,Target Store Fresno Nw,department_store,"['grocery_store', 'retail']",CA,Fresno,93722.0,6655 N Riverside Dr,36.8346854,-119.9125283,meta,2025-06-02T07:00:00.000Z,0.9784508333782836,8a10e962-53d4-481e-ac42-dbfdfb8c8d87,Target,,,OpenStreetMap,2024-05-24T17:42:41.000Z,,fresno,False
dfd2ad6f-c572-456d-a597-d29ebde0d18b,Target Store Fresno-West,department_store,"['shopping', 'retail']",CA,Fresno,93711.0,3150 W Shaw Ave,36.8094543,-119.8473666,meta,2025-06-02T07:00:00.000Z,0.9784508333782836,36e1f81c-628b-46fb-abb4-1d75a71b6446,Target,,,OpenStreetMap,2024-04-25T06:12:11.000Z,,fresno,False
abaedf2e-c2c4-4eb1-96b2-3e212cfe42cb,Target Auto Finance,used_car_dealer,['automotive'],CA,Fresno,93701.0,276 N Abby St,36.7465951,-119.7894082,Microsoft,2020-02-12T18:48:59.750Z,0.77,,,,,,,,fresno,False
f2a45bb4-465c-4c83-8556-dd1b3808cf4a,Target Store Fresno-South,department_store,"['shopping', 'retail']",CA,Fresno,93726.0,3173 E Shields Ave,36.7804971,-119.7710918,meta,2025-06-02T07:00:00.000Z,0.9784508333782836,8e862618-f9c4-4a5c-97e7-853e6217a972,,,,Microsoft ML Buildings,2022-05-30T00:00:00.000Z,,fresno,False
b4c8ced9-7a3f-4f35-a241-1b8391822202,Target Store Fresno-Central,department_store,"['grocery_store', 'retail']",CA,Fresno,93710.0,5740 N Blackstone Ave,36.8214744,-119.7883205,meta,2025-06-02T07:00:00.000Z,0.9784508333782836,1c8da730-a80d-4d7e-896b-05e3d71f45ad,Target,,,OpenStreetMap,2025-05-22T16:04:18.000Z,,fresno,False
dbd11c26-7d9e-4f5d-91f2-58e6e5793f8d,On Target Performance,golf_instructor,['professional_services'],CA,Madera,93636.0,40405 Brickyard Dr,36.8978223,-119.8134063,meta,2025-06-02T07:00:00.000Z,0.909823677581864,,,,,,,,fresno,False
74c0b038-984f-4942-8d3b-e1bd9f302282,Target Store Fresno-North,department_store,"['shopping', 'retail']",CA,Fresno,93720.0,7600 N Blackstone Ave,36.8472211,-119.786852,meta,2025-06-02T07:00:00.000Z,0.9784508333782836,8fc9cb56-0633-4de9-a15b-dad082436f48,Target,,,OpenStreetMap,2024-04-27T03:21:19.000Z,,fresno,False
4c6e347d-f454-43d3-902f-b4d6fea7119a,Target,optometrist,['health_and_medical'],CA,Fresno,93720.0,7600 N Blackstone Ave,36.8475009566989,-119.786455214089,Microsoft,2025-02-04T16:20:03.360Z,0.77,8fc9cb56-0633-4de9-a15b-dad082436f48,Target,,,OpenStreetMap,2024-04-27T03:21:19.000Z,,fresno,False
5ff3a512-007f-470c-a7f7-33b521d29071,Target Clovis NW,department_store,"['shopping', 'grocery_store']",CA,Clovis,93612.0,695 W Herndon Ave,36.839783,-119.7277122,meta,2025-06-02T07:00:00.000Z,0.9784508333782836,bcc468dd-fce9-4ef7-9d41-5105a42e928b,Target,,,OpenStreetMap,2024-08-19T18:37:10.000Z,,fresno,False
624a49be-0301-4b6c-b077-1a76e0eb6947,Target,optometrist,"['health_and_medical', 'retail']",CA,Clovis,93612.0,695 Herndon Ave,36.8403069,-119.7283315,Microsoft,2025-02-04T16:18:03.667Z,0.77,bcc468dd-fce9-4ef7-9d41-5105a42e928b,Target,,,OpenStreetMap,2024-08-19T18:37:10.000Z,,fresno,False
332cc481-d89c-47be-bb34-7b766fa381b2,CVS Pharmacy inside Target Store,online_shop,"['pharmacy', 'drugstore', 'corporate_office', 'private_establishments_and_corporates', 'retail']",CA,Clovis,93612.0,695 W Herndon Ave,36.84046,-119.72839,Microsoft,2025-04-21T14:37:15.177Z,0.77,bcc468dd-fce9-4ef7-9d41-5105a42e928b,Target,,,OpenStreetMap,2024-08-19T18:37:10.000Z,,fresno,False
4048ba3a-5fc3-482d-a9a9-f0578d4e35df,Target Specialty Products,pest_control_service,"['home_improvement_store', 'broadcasting_media_production']",CA,Fresno,93727.0,2478 N Sunnyside Ave,36.7729336,-119.6917528,meta,2025-06-02T07:00:00.000Z,0.9415384615384615,8448ddbf-313b-4e94-821e-266aa704e1d0,,,,Microsoft ML Buildings,2022-05-30T00:00:00.000Z,,fresno,False
5ed85538-0c29-4209-a0e7-a5b6198c7ce1,Target Clovis,department_store,"['retail', 'clothing_store']",CA,Clovis,93612.0,900 Shaw Ave,36.8069167,-119.6986694,meta,2025-06-02T07:00:00.000Z,0.9784508333782836,30ad2fce-53e3-4677-b617-aa816bfd1b58,Target,commercial,retail,OpenStreetMap,2024-07-05T10:51:10.000Z,,fresno,False
20c161ab-f77a-4e6f-91f1-cf4cdf5fe21d,Target Store Stoughton,department_store,"['shopping', 'grocery_store']",MA,Stoughton,2072.0,1 Hawes Way,42.1523504,-71.0733239,meta,2025-06-02T07:00:00.000Z,0.9784508333782836,04e70329-dd12-4a55-af80-a2476b0695e2,Target,commercial,retail,OpenStreetMap,2024-07-05T10:24:35.000Z,,boston,False
af6eba14-0f52-4884-8b41-75bd86f19bab,Target,optometrist,"['health_and_medical', 'retail']",MA,Stoughton,2072.0,1 Hawes Way,42.1521955,-71.0726744,Microsoft,2025-02-04T16:20:03.360Z,0.77,04e70329-dd12-4a55-af80-a2476b0695e2,Target,commercial,retail,OpenStreetMap,2024-07-05T10:24:35.000Z,,boston,False
8e0515a9-73d4-4051-af5f-14191b4285ad,Target Air Systems,hvac_services,"['contractor', 'plumbing']",MA,Natick,1760.0,47 Fiske St,42.2741078,-71.374493,meta,2025-06-02T07:00:00.000Z,0.8980891719745223,14c77d1b-32a2-4698-9fe5-eebc0baed124,,,,OpenStreetMap,2022-12-29T12:35:23.000Z,,boston,False
161740fb-24ff-4583-bf8f-7a75058a2569,Target Store Framingham,department_store,"['childrens_clothing_store', 'shopping']",MA,Framingham,1701.0,400 Cochituate Rd,42.3055495,-71.3980663,meta,2025-06-02T07:00:00.000Z,0.9784508333782836,803dad59-88f5-4436-8e3d-74dc7e5b66b3,Target,commercial,retail,OpenStreetMap,2024-07-05T10:24:35.000Z,,boston,False
8e529676-0e50-4809-8250-cbf02a33d275,Target,optometrist,"['health_and_medical', 'retail']",MA,Framingham,1701.0,400 Cochituate Rd,42.305887,-71.397838,Microsoft,2025-02-04T16:18:03.667Z,0.77,803dad59-88f5-4436-8e3d-74dc7e5b66b3,Target,commercial,retail,OpenStreetMap,2024-07-05T10:24:35.000Z,,boston,False
1373059c-528d-4cdf-98f3-d317e6820ac2,Target Painting & Contracting,contractor,['home_improvement_store'],MA,Sudbury,1776.0,708 Boston Post Rd,42.3604414,-71.4467963,meta,2025-06-02T07:00:00.000Z,0.9297091412742382,,,,,,,,boston,False
2cae997e-5bd4-42a8-89b9-1a6146c75d6c,Target Store Westwood,department_store,"['grocery_store', 'retail']",MA,Westwood,2090.0,221 University Ave,42.2047222,-71.1556039,meta,2025-06-02T07:00:00.000Z,0.9784508333782836,f46fe090-cb77-4641-912c-135f32eee7ff,Target,commercial,retail,OpenStreetMap,2024-10-18T02:43:45.000Z,,boston,False
29b58de9-d288-41d6-96fa-2717bfe0e684,Target Pizza,pizza_restaurant,"['italian_restaurant', 'restaurant']",MA,West Roxbury,2132.0,5200 Washington St,42.2611299,-71.1569098,meta,2025-06-02T07:00:00.000Z,0.9784508333782836,d2dc5d9f-2890-4834-94de-7d4a09b3e977,,,,OpenStreetMap,2013-09-08T21:10:27.000Z,,boston,False
232ac246-9db2-4230-912a-6dec66c4b4ee,Target Braintree,department_store,"['grocery_store', 'shopping']",MA,Braintree,2184.0,250 Granite St,42.2214277,-71.0218427,meta,2025-06-02T07:00:00.000Z,0.9784508333782836,2b27ebe8-c897-4a61-8ac6-c0d84c8c4364,Target,,,OpenStreetMap,2024-07-05T10:24:35.000Z,,boston,False
fc1a74c0-4bdc-414d-944d-1fc81fc36d7f,D Target,health_and_medical,"['surgical_appliances_and_supplies', 'department_store']",MA,Quincy,2169.0,234 Copeland St,42.24439,-71.025685,meta,2025-06-02T07:00:00.000Z,0.242152466367713,ccc99a89-9740-45a2-b208-a7bde8805197,,,,OpenStreetMap,2023-03-29T13:01:34.000Z,,boston,False
98afe95c-ca4c-4988-9893-0202778827c5,Target Boston,department_store,"['grocery_store', 'retail']",MA,Roslindale,2131.0,4165 Washington St,42.2882913,-71.1267498,meta,2025-06-02T07:00:00.000Z,0.9784508333782836,d7460e2f-88ad-47df-9792-e68b940e0374,Target,commercial,retail,OpenStreetMap,2024-07-05T10:51:10.000Z,,boston,False
88875197-655c-49e5-8186-5b45e77f0975,Target English Language School,language_school,"['school', 'education']",MA,Boston,2215.0,1105 Commonwealth Ave,42.351894,-71.12561,meta,2025-06-02T07:00:00.000Z,0.3961437335670464,5098019e-1923-4dbd-9a34-12d8f3438dac,,commercial,commercial,OpenStreetMap,2022-04-10T00:44:37.000Z,,boston,False
88e002fb-a27e-4fa2-94fe-d4c7e1b250c8,Target,department_store,['retail'],MA,Boston,2215.0,860 Commonwealth Ave,42.3502328,-71.1146253,Microsoft,2025-04-29T15:24:14.747Z,0.77,b60f5334-6f92-4fd6-ba0d-51f0bb1d4d0a,,commercial,retail,OpenStreetMap,2023-07-14T13:32:31.000Z,,boston,False
c4c10ad4-ba8e-4c97-8752-7b39c6575bca,Target Boston Packards Corner,department_store,"['retail', 'grocery_store']",MA,Boston,2215.0,860 Commonwealth Ave,42.3507452,-71.1140069,meta,2025-06-02T07:00:00.000Z,0.9784508333782836,,,,,,,,boston,False
38e37ff9-1a39-4670-acb0-5f1fbd45eef2,Target,department_store,"['retail', 'grocery_store']",MA,Dorchester,2122.0,500 Geneva Ave,42.299018,-71.0625545,meta,2025-06-02T07:00:00.000Z,0.9784508333782836,1ca300f8-3b9a-4766-aac0-8feb98e243e7,,commercial,retail,OpenStreetMap,2020-12-23T15:24:18.000Z,,boston,False
8b001285-5ca8-4a8a-aa8a-9e35227d97de,Target,department_store,"['furniture_store', 'grocery_store']",MA,Quincy,2171.0,289 Hancock St,42.2758123,-71.0293238,meta,2025-06-02T07:00:00.000Z,0.9784508333782836,f56d3498-6a2f-42d1-b565-734b0f903ed7,,residential,apartments,OpenStreetMap,2024-10-17T23:22:07.000Z,,boston,False
b11f5089-c2b0-41e2-921e-4a71980bd658,CVS Pharmacy inside Target Store,online_shop,"['pharmacy', 'drugstore', 'corporate_office', 'private_establishments_and_corporates', 'retail']",MA,Dorchester,2125.0,7 Allstate Rd,42.32919,-71.06321,Microsoft,2025-04-21T14:37:15.177Z,0.77,fd9bbfad-f1bd-499b-986e-0d00652a4bcf,,commercial,retail,OpenStreetMap,2024-06-22T13:04:52.000Z,,boston,False
426a0af8-7cd0-4409-a018-fa0fe9348a7b,Target Boston South Bay,department_store,"['shopping', 'grocery_store']",MA,Dorchester,2125.0,7 Allstate Rd,42.3290161,-71.0629347,meta,2025-06-02T07:00:00.000Z,0.9784508333782836,fd9bbfad-f1bd-499b-986e-0d00652a4bcf,,commercial,retail,OpenStreetMap,2024-06-22T13:04:52.000Z,,boston,False
bd7eea0a-3d3a-4f35-9e04-d2c7e3a20066,Target Boston Fenway,department_store,"['retail', 'furniture_store']",MA,Boston,2215.0,1341 Boylston St,42.3442899,-71.0999319,meta,2025-06-02T07:00:00.000Z,0.9784508333782836,1c2018dc-43dc-44be-8bb1-b9466acdeda8,Van Ness,residential,apartments,OpenStreetMap,2024-12-28T05:15:05.000Z,,boston,False
54a4a631-12bf-4dd3-a1a1-fd60f04655f7,CVS Pharmacy inside Target Store,convenience_store,"['online_shop', 'pharmacy', 'drugstore', 'corporate_office', 'private_establishments_and_corporates', 'retail']",MA,BOSTON,2215.0,1341 BOYLSTON St,42.34448,-71.1,Microsoft,2025-04-21T14:37:20.877Z,0.77,1c2018dc-43dc-44be-8bb1-b9466acdeda8,Van Ness,residential,apartments,OpenStreetMap,2024-12-28T05:15:05.000Z,,boston,False
f159437a-0165-47b3-8218-44a8b47781f3,Target Optical,optometrist,"['eyewear_and_optician', 'health_and_medical']",MA,Boston,2215.0,1341 Boylston St,42.3444286,-71.0996822,meta,2025-06-02T07:00:00.000Z,0.9784508333782836,1c2018dc-43dc-44be-8bb1-b9466acdeda8,Van Ness,residential,apartments,OpenStreetMap,2024-12-28T05:15:05.000Z,,boston,False
c95df953-0de0-4b52-95d0-c4f37a6d1f96,Target,department_store,"['grocery_store', 'retail']",MA,Boston,2114.0,100 Cambridge St,42.3611164,-71.0625911,meta,2025-06-02T07:00:00.000Z,0.9784508333782836,fc938ee2-fdc6-4a93-8194-8e7a80d1c57b,,commercial,commercial,OpenStreetMap,2024-11-17T01:26:22.000Z,,boston,False
f3836005-546c-483c-bcac-d3a527420baa,Target Offsite,retail,['department_store'],MA,Boston,2127.0,2 Alger St,42.333246,-71.058696,meta,2025-06-02T07:00:00.000Z,0.296943231441048,9164accb-06ab-4a8f-9cca-ad5b3e3d5023,,,,OpenStreetMap,2023-04-23T01:31:19.000Z,,boston,False
dba52b13-7518-49d5-815f-2c8db4903ee2,"Target Litigation Consulting, Inc.",professional_services,"['lawyer', 'legal_services']",MA,Boston,2210.0,268 Summer St,42.350531,-71.050225,meta,2025-06-02T07:00:00.000Z,0.296943231441048,614be6a9-598c-40e9-b86e-0e19479b472a,,commercial,commercial,OpenStreetMap,2021-11-16T19:24:08.000Z,,boston,True
70a9d873-3be4-445f-83ef-3dc1153a5b36,Target Litigation Consulting,professional_services,['event_photography'],MA,Boston,2109.0,1 Liberty Sq,42.3577835,-71.0550416,meta,2025-06-02T07:00:00.000Z,0.8831168831168831,eaa33fd2-da14-4c4e-89c8-6fe865749fee,One Liberty Square,,,OpenStreetMap,2025-03-04T06:40:04.000Z,,boston,False
c1005cd1-6b3e-44a2-a624-20fd19384729,Target Painting & Contracting,contractor,['professional_services'],MA,Concord,1742.0,89 Thoreau St,42.4568822,-71.3572938,meta,2025-06-02T07:00:00.000Z,0.8860580325548478,,,,,,,,boston,False
4e07080a-2596-40f1-b0ba-88ab0d15c1a7,Target Store Watertown,department_store,"['grocery_store', 'retail']",MA,Watertown,2472.0,550 Arsenal St,42.3641687,-71.1564667,meta,2025-06-02T07:00:00.000Z,0.9784508333782836,e7d78f3c-2307-4bc9-b346-09acc8d64e62,Target,,,OpenStreetMap,2024-01-17T03:31:19.000Z,,boston,False
6293537b-2147-464e-acce-f7ba5521bc7f,Target,optometrist,"['health_and_medical', 'retail']",MA,Watertown,2472.0,550 Arsenal St,42.3647548,-71.1562832,Microsoft,2025-02-04T16:18:03.667Z,0.77,,,,,,,,boston,False
b93a9b6a-f485-4c91-8b34-ecc185c0f4f1,Target,department_store,"['furniture_store', 'grocery_store']",MA,Cambridge,2140.0,822 Somerville Ave,42.3886579,-71.1187074,meta,2025-06-02T07:00:00.000Z,0.9784508333782836,844de4ca-6a12-4ebc-84eb-d275f07c782d,Porter Square Galleria,commercial,retail,OpenStreetMap,2024-02-18T19:10:51.000Z,,boston,False
0a6e5af2-a90d-4de6-8254-bca04132845d,Target Portrait Studio,department_store,"['grocery_store', 'retail']",MA,Medford,2155.0,1 Mystic Ave,42.41499,-71.1104,meta,2025-06-02T07:00:00.000Z,0.3376623376623376,,,,,,,,boston,False
378abcaa-1fe8-49e6-9952-48be9f60a6c5,Target,department_store,"['shopping', 'grocery_store']",MA,Cambridge,2139.0,564 Massachusetts Ave,42.364571,-71.1026452,meta,2025-06-02T07:00:00.000Z,0.9784508333782836,f57cfaec-233b-47dc-9168-921ef6dd3673,,commercial,retail,OpenStreetMap,2024-09-22T19:56:50.000Z,,boston,False
68565cd6-07d8-438a-a4fa-1ab5d691f888,Target Store Somerville,department_store,"['retail', 'clothing_store']",MA,Somerville,2143.0,180 Somerville Ave,42.3766169,-71.0901318,meta,2025-06-02T07:00:00.000Z,0.9784508333782836,d8e42ff0-b420-40f1-a297-5e6110f69ca5,,commercial,retail,OpenStreetMap,2024-11-03T04:16:34.000Z,,boston,False
a3d1fcaf-30df-4428-bda9-895e6566844e,Target International Student Center,school,"['vocational_and_technical_school', 'specialty_school']",MA,Somerville,2145.0,5 Middlesex Ave,42.390956,-71.082044,meta,2025-06-02T07:00:00.000Z,0.4929396662387676,b759c3f0-235c-4ddf-89af-2210eeb2f27e,,,,OpenStreetMap,2024-05-02T23:17:56.000Z,,boston,False
2316df91-c418-4228-8fb0-db90019b6199,CVS Pharmacy inside Target Store,online_shop,"['pharmacy', 'drugstore', 'corporate_office', 'private_establishments_and_corporates', 'retail']",MA,Everett,2149.0,1 Mystic View Rd,42.39872,-71.07234,Microsoft,2025-04-21T14:37:09.187Z,0.77,da32c4de-cac5-4530-b9ff-2cbe8c3cd337,Target,,,OpenStreetMap,2025-01-08T14:27:28.000Z,,boston,False
f2d900ca-911a-40e3-84f9-44ad5e5fe2bf,Target Everett,department_store,"['shopping', 'grocery_store']",MA,Everett,2149.0,1 Mystic View Rd,42.3989833,-71.0718461,meta,2025-06-02T07:00:00.000Z,0.9784508333782836,,,,,,,,boston,False
5806d25c-d989-4f10-a9b9-1da5b491d6fd,Target,department_store,['retail'],MA,Everett,2149.0,1 Mystic View Rd,42.3991943,-71.0731767,Microsoft,2025-04-29T15:28:29.957Z,0.77,,,,,,,,boston,False
b9d4008b-b015-4ee9-9393-088b4bc1bd5b,Target,department_store,['retail'],MA,Medford,2155.0,471 Salem St,42.42072,-71.09902,Microsoft,2024-04-24T15:28:43.567Z,0.77,,,,,,,,boston,False
da7827ae-9708-4061-a999-64b9de7ef178,Target Salem Ave,department_store,"['grocery_store', 'furniture_store']",MA,Medford,2155.0,471 Salem St,42.4229123,-71.0888283,meta,2025-06-02T07:00:00.000Z,0.9784508333782836,5f4791d0-8bc5-4673-ba1c-620e0b4211d4,,commercial,retail,OpenStreetMap,2024-06-07T00:00:55.000Z,,boston,False
91c51629-dc10-431b-872d-442196e42e28,Target,department_store,"['furniture_store', 'retail']",MA,Burlington,1803.0,34 Cambridge St,42.484057,-71.1860963,meta,2025-06-02T07:00:00.000Z,0.9784508333782836,9671324d-28fb-4252-af74-3be4e3db7ce7,,commercial,retail,OpenStreetMap,2019-05-31T10:42:35.000Z,,boston,False
aa880a29-0e06-47f2-bd5c-83312b815192,Target,department_store,['retail'],MA,Burlington,1803.0,34 Cambridge St Ste 145,42.4845018,-71.1863693,Microsoft,2025-04-29T15:27:12.950Z,0.77,,,,,,,,boston,False
76fda81b-7376-4a66-9973-10e517fdd54b,Target,department_store,"['shopping', 'clothing_store']",MA,Woburn,1801.0,10 Commerce Way,42.5043142,-71.1309994,meta,2025-06-02T07:00:00.000Z,0.3376623376623376,,,,,,,,boston,False
2daa7bc6-7322-489a-a3d4-a033b164dade,Target Store Woburn,department_store,"['shopping', 'grocery_store']",MA,Woburn,1801.0,101 Commerce Way,42.5186133,-71.135399,meta,2025-06-02T07:00:00.000Z,0.9784508333782836,e3479684-205b-49e2-8baf-7fc602559326,Target,commercial,retail,OpenStreetMap,2024-09-08T11:45:40.000Z,,boston,False
893a5ea3-7467-4f81-8dfb-89e9f2aa1224,Target Stoneham Redstone,department_store,"['grocery_store', 'shopping']",MA,Stoneham,2180.0,113 Main St,42.4949534,-71.1034298,meta,2025-06-02T07:00:00.000Z,0.9784508333782836,84ff1251-0485-4f7c-9183-3055032bd282,Target,,,OpenStreetMap,2024-01-17T03:31:02.000Z,,boston,False
e15dcc43-6490-4dfe-8d5f-b010a9a1e0ac,Target Store Saugus,department_store,"['shopping', 'retail']",MA,Saugus,1906.0,400 Lynn Fells Pkwy,42.4816921,-71.0242303,meta,2025-06-02T07:00:00.000Z,0.9784508333782836,58846a93-21e5-4fd9-a491-86f351a7f91c,Target,commercial,retail,OpenStreetMap,2024-07-05T10:24:35.000Z,,boston,False
9d81eae2-6909-4ec8-affe-dd034d9e2465,On Target Carpet Cleaning,carpet_cleaning,,MA,Billerica,1821.0,467 Boston Rd Ste 38,42.55235,-71.26466,Microsoft,2025-05-23T21:03:10.820Z,0.77,b6801323-23dd-487f-b9c2-facf58eef000,,,,OpenStreetMap,2019-03-14T22:22:43.000Z,,boston,False
aeaaddb5-7f18-49b4-af11-610457305566,Target Store Revere,department_store,"['retail', 'shopping']",MA,Revere,2151.0,36 Furlong Dr,42.40001,-71.0003911,meta,2025-06-02T07:00:00.000Z,0.9784508333782836,2ca1d106-864a-4650-b6db-ce4beb9eca6e,,,,OpenStreetMap,2021-09-09T16:10:11.000Z,,boston,False
85125f02-2aa1-4a1b-827e-bc738b2a56d1,CVS Pharmacy inside Target Store,online_shop,"['pharmacy', 'drugstore', 'corporate_office', 'private_establishments_and_corporates', 'retail']",MA,Revere,2151.0,36 Furlong Dr,42.40044,-71.00013,Microsoft,2025-04-21T14:37:15.177Z,0.77,2ca1d106-864a-4650-b6db-ce4beb9eca6e,,,,OpenStreetMap,2021-09-09T16:10:11.000Z,,boston,False
c3a0bef2-385c-48c7-8cfd-b4f91206d3c0,Target Store Salem,department_store,"['retail', 'shopping']",MA,Salem,1970.0,227 Highland Ave,42.5034043,-70.9193965,meta,2025-06-02T07:00:00.000Z,0.9784508333782836,3c30ebe7-1d38-4e90-99c0-df667d21865f,Target,,,OpenStreetMap,2024-07-05T10:24:35.000Z,,boston,False
d0ab5ec7-770c-494f-8df5-57c91624b8b2,Target Danvers,department_store,"['wholesale_store', 'retail']",MA,Danvers,1923.0,240 Independence Way,42.5527004,-70.9377377,meta,2025-06-02T07:00:00.000Z,0.9784508333782836,1d301fe1-5d1e-4afd-a29e-90013f38beb6,Target,,,OpenStreetMap,2024-07-05T10:24:35.000Z,,boston,False
46a8922e-fb1f-46f5-a150-07bde330840d,Target,optometrist,['health_and_medical'],MA,Danvers,1923.0,240 Independence Way,42.5533511,-70.9374785,Microsoft,2025-02-04T16:20:03.360Z,0.77,1d301fe1-5d1e-4afd-a29e-90013f38beb6,Target,,,OpenStreetMap,2024-07-05T10:24:35.000Z,,boston,False
66b7bdd0-4f37-4ad7-beb4-dc5df3d85a68,Target Distribution Center,department_store,"['grocery_store', 'retail']",CA,Shafter,93263.0,3880 Zachary Ave,35.4442227,-119.184852,meta,2025-06-02T07:00:00.000Z,0.9784508333782836,55049cc2-cc41-4c42-97d5-2e584ca72bd9,Target Distribution Center,commercial,warehouse,OpenStreetMap,2024-06-07T17:51:18.000Z,,bakersfield,False
ee11500d-9199-4a67-9c49-4190ef08bd1f,Target Bakersfield West,department_store,"['grocery_store', 'shopping']",CA,Bakersfield,93311.0,11000 Stockdale Hwy,35.3499736,-119.1248327,meta,2025-06-02T07:00:00.000Z,0.9784508333782836,5446fd58-ab1e-478f-b39f-8ee099f93da9,,commercial,commercial,OpenStreetMap,2017-06-18T14:51:37.000Z,,bakersfield,False
8804489a-f71d-402d-be15-80bfa9dca507,Target Optical,optometrist,"['eyewear_and_optician', 'pharmacy']",CA,Bakersfield,93311.0,11000 Stockdale Hwy,35.350111,-119.1248834,meta,2025-06-02T07:00:00.000Z,0.9297091412742382,5446fd58-ab1e-478f-b39f-8ee099f93da9,,commercial,commercial,OpenStreetMap,2017-06-18T14:51:37.000Z,,bakersfield,False
4f0ff222-642e-4761-96b4-69a1bb417d4d,Target Bakersfield West,department_store,['retail'],CA,Bakersfield,93311.0,11000 Stockdale Hwy,35.35,-119.1246,Microsoft,2015-06-23T13:58:26.663Z,0.77,5446fd58-ab1e-478f-b39f-8ee099f93da9,,commercial,commercial,OpenStreetMap,2017-06-18T14:51:37.000Z,,bakersfield,False
581e3f51-e72a-466a-a644-cb3e5004a0c1,Target Optical,optometrist,['eyewear_and_optician'],CA,Bakersfield,93312.0,9100 Rosedale Hwy,35.3854646,-119.103347,meta,2025-06-02T07:00:00.000Z,0.9784508333782836,4e699b4f-316c-4011-ac4e-2ae579b1e828,Target,,,OpenStreetMap,2024-07-05T10:23:43.000Z,,bakersfield,False
04df529f-a358-435e-9778-8295d4e65c48,"Target Clinic, care provided by Kaiser Permanente - Bakersfield NW",drugstore,['retail'],CA,Bakersfield,93312.0,9100 Rosedale Hwy,35.3855767,-119.1032602,Microsoft,2025-04-23T05:27:19.453Z,0.77,4e699b4f-316c-4011-ac4e-2ae579b1e828,Target,,,OpenStreetMap,2024-07-05T10:23:43.000Z,,bakersfield,False
a4211fc8-1658-4806-86de-08f8b15e82da,Target Bakersfield NW,department_store,"['grocery_store', 'retail']",CA,Bakersfield,93312.0,9100 Rosedale Hwy,35.3853037,-119.1030605,meta,2025-06-02T07:00:00.000Z,0.9784508333782836,4e699b4f-316c-4011-ac4e-2ae579b1e828,Target,,,OpenStreetMap,2024-07-05T10:23:43.000Z,,bakersfield,False
7f39ee39-e747-4405-be59-31b7d399eb2f,Target,optometrist,['health_and_medical'],CA,Bakersfield,93312.0,9100 Rosedale Hwy,35.3851769,-119.1023018,Microsoft,2016-05-06T18:36:49.790Z,0.77,,,,,,,,bakersfield,False
ab642782-4c6d-4475-b52f-6e2112bdd906,Target Bakersfield Central,department_store,"['shopping', 'clothing_store']",CA,Bakersfield,93304.0,2901 Ming Ave,35.3369476,-119.0366349,meta,2025-06-02T07:00:00.000Z,0.9784508333782836,7752f3f1-5e1a-4e78-a52c-89e61f6a4a12,Valley Plaza Mall,,,OpenStreetMap,2025-01-08T17:10:57.000Z,,bakersfield,False
de579652-a36a-4ff1-9b4b-93d6ff43a744,Target Bakersfield NE,department_store,"['shopping', 'grocery_store']",CA,Bakersfield,93306.0,3401 Mall View Rd,35.3936674,-118.9555468,meta,2025-06-02T07:00:00.000Z,0.9784508333782836,,,,,,,,bakersfield,False
27ce3829-fdb3-47ea-b033-184a970d092a,Target Stores,department_store,"['discount_store', 'shopping']",CA,Bakersfield,0.0,,35.3942585,-118.9493614,meta,2025-06-02T07:00:00.000Z,0.3376623376623376,498f5c37-73c2-4bf9-a467-3df52a35bd60,,,,OpenStreetMap,2012-08-21T13:01:51.000Z,,bakersfield,False
c53b0e85-8a54-48b2-be48-fdb1a69d5d11,Target Optical,optometrist,['eyewear_and_optician'],TN,Nashville,37209.0,6814 Charlotte Pike,36.1349309,-86.8917619,meta,2025-06-02T07:00:00.000Z,0.9784508333782836,8efcef11-9a88-4c11-beab-3f141ac1bb24,Target,commercial,retail,OpenStreetMap,2024-12-30T21:07:45.000Z,,nashville-davidson,False
05654d55-80bc-4b73-ae34-c72118dcd819,Target Store Nashville-West,department_store,"['shopping', 'grocery_store']",TN,Nashville,37209.0,6814 Charlotte Pike,36.1350845,-86.8913913,meta,2025-06-02T07:00:00.000Z,0.9784508333782836,8efcef11-9a88-4c11-beab-3f141ac1bb24,Target,commercial,retail,OpenStreetMap,2024-12-30T21:07:45.000Z,,nashville-davidson,False
1ada21e5-e24e-477b-8e49-a00f25909f4b,Target Store White-Bridge,department_store,"['shopping', 'grocery_store']",TN,Nashville,37205.0,26 White Bridge Pike,36.1308914,-86.8545341,meta,2025-06-02T07:00:00.000Z,0.9784508333782836,15d58d49-3f9c-4851-8fa0-e4133741e0d9,Target,,,OpenStreetMap,2024-07-05T10:24:12.000Z,,nashville-davidson,False
6aa25342-7fc9-4229-a058-2428dd06681d,Tennessee Clay Target Complex,shooting_range,"['active_life', 'sporting_goods']",TN,Nashville,37218.0,1100 County Hospital Rd,36.1913962,-86.8692105,meta,2025-06-02T07:00:00.000Z,0.9459263554653524,,,,,,,,nashville-davidson,False
1acfad44-8a7c-43a2-82af-da2efe5c7b51,Global Target Network,church_cathedral,['religious_organization'],TN,Nashville,37220.0,5253 Granny White Pike,36.06604,-86.813601,meta,2025-06-02T07:00:00.000Z,0.242152466367713,aabdbbe7-e2f1-4cdd-8576-5704d5cd79aa,Strong Tower Bible Church,religious,,OpenStreetMap,2021-10-12T07:58:43.000Z,,nashville-davidson,False
b8dd6040-a3a8-4b9e-aa72-6d2922be833b,Target Brentwood,department_store,"['shopping', 'retail']",TN,Nashville,37027.0,780 Old Hickory Blvd,36.0428066,-86.7790683,meta,2025-06-02T07:00:00.000Z,0.9784508333782836,f5995af1-8524-4fbb-86a3-f4a945f93cf8,Target,commercial,retail,OpenStreetMap,2024-07-05T10:24:12.000Z,,nashville-davidson,False
6bebb722-3f6b-4725-97c3-d68c11b3add6,Target Store Nashville-East,department_store,"['shopping', 'grocery_store']",TN,Nashville,37214.0,3171 Lebanon Pike,36.1825622,-86.6376887,meta,2025-06-02T07:00:00.000Z,0.9784508333782836,a4bffc65-caff-4d9b-8b30-3962cacb5f9e,,commercial,retail,OpenStreetMap,2020-06-20T19:00:54.000Z,,nashville-davidson,False
10dbc85d-3580-44c4-b7df-adf3b7a83431,ON TARGET SHOOTING SPORTS,active_life,,TN,Hermitage,37076.0,4803 Old Hickory Blvd,36.199805,-86.62149,Microsoft,2025-05-14T21:10:39.830Z,0.77,4f4a9140-eeca-4f66-8dbc-4bde2b3f5c23,,,,OpenStreetMap,2022-11-22T14:41:47.000Z,,nashville-davidson,False
b52fe485-42c2-49e1-a93e-b15ca60738c7,Target Cape Coral,department_store,"['grocery_store', 'retail']",FL,Cape Coral,33914.0,2430 Santa Barbara Blvd,26.6066434,-81.9768488,meta,2025-06-02T07:00:00.000Z,0.9784508333782836,c98e466f-8862-4b18-9328-a5bc04f516ed,Target,,,OpenStreetMap,2024-07-05T10:25:13.000Z,,cape-coral,False
46d49dd2-3f68-455e-9b5e-50a297279f73,Target Cape Coral North,department_store,"['grocery_store', 'shopping']",FL,Cape Coral,33909.0,1890 NE Pine Island Rd,26.6694107,-81.9329002,meta,2025-06-02T07:00:00.000Z,0.9784508333782836,32c48586-2b03-4260-8e6f-4dce4f247794,Target,,,OpenStreetMap,2024-07-05T10:25:13.000Z,,cape-coral,False
ce747cd6-c73f-4f17-a5f2-8a457bcf3841,Target Store Ft-Myers,department_store,"['grocery_store', 'retail']",FL,Fort Myers,33912.0,13711 S Tamiami Trl,26.5426825,-81.8686148,meta,2025-06-02T07:00:00.000Z,0.9784508333782836,5844dbc2-b234-4fa0-9390-79f21eeca137,Target,,,OpenStreetMap,2024-07-05T10:25:13.000Z,,cape-coral,False
2dd394e0-0a86-462b-91dd-fcf608236709,Target,department_store,['retail'],FL,Fort Myers,33912.0,13711 S Tamiami Trl,26.5444707,-81.8679771,Microsoft,2025-04-29T15:30:17.160Z,0.77,,,,,,,,cape-coral,False
e4bf720c-ef76-40f9-91b8-8f46015f99a7,"Target Builders Construction Management, Inc.",contractor,"['construction_services', 'real_estate']",FL,Fort Myers,33966.0,6460 Metro Plantation Rd,26.5773304,-81.8480556,meta,2025-06-02T07:00:00.000Z,0.9300613496932516,,,,,,,,cape-coral,True
e9bb72fa-8783-4263-aa9a-d55d1f2068f1,AIM Target Programs Inc,laboratory_testing,"['social_service_organizations', 'alcohol_and_drug_treatment_centers']",FL,Fort Myers,33901.0,3049 Cleveland Ave,26.6213769,-81.8714969,meta,2025-06-02T07:00:00.000Z,0.9784508333782836,5bbef09a-8e05-472a-86fd-42a002ba6a5a,,,,OpenStreetMap,2021-02-08T21:52:55.000Z,,cape-coral,True
9101eb87-fd9d-499f-aaf5-8d413c355093,Aim Target Programs,social_service_organizations,"['laboratory_testing', 'real_estate']",FL,Fort Myers,33901.0,3677 Central Ave,26.609162,-81.863292,meta,2025-06-02T07:00:00.000Z,0.296943231441048,0e0d5f31-a0ba-4daf-b64b-5d1be30d3ccd,,,,OpenStreetMap,2022-10-20T20:55:05.000Z,,cape-coral,False
5a5c5494-3270-48a1-add1-4bd2b966fc93,Target Motorsports Columbia,motorcycle_repair,"['motorcycle_dealer', 'professional_services']",SC,Columbia,29210.0,2901 Broad River Rd,34.0474492,-81.1035257,meta,2025-06-02T07:00:00.000Z,0.9879256218304756,fd4e500a-7d2b-4212-8a26-2e79a5d51161,,,,OpenStreetMap,2017-12-16T10:04:08.000Z,,columbia-south-carolina,False
917ba5e8-8ddc-466c-9bd9-34cfbf8772d4,Target Corporation,department_store,"['shopping', 'laboratory_testing']",SC,Columbia,29203.0,1717 Peeples St,34.064275,-81.052405,meta,2025-06-02T07:00:00.000Z,0.5662921348314607,887e06a3-f257-4911-aa7d-1d4b7f466997,,,,Microsoft ML Buildings,2020-06-21T00:00:00.000Z,,columbia-south-carolina,False
ce9cc114-d69b-4f19-abfc-c08f62a955f0,Target,department_store,['shopping'],SC,Columbia,0.0,,34.0072055,-81.0130173,meta,2025-06-02T07:00:00.000Z,0.3376623376623376,,,,,,,,columbia-south-carolina,False
b1f65fc0-fd50-43ec-915f-94d5908e39fa,Target Columbia Garners Ferry,department_store,"['grocery_store', 'shopping']",SC,Columbia,29209.0,6090 Garners Ferry Rd,33.9815698,-80.9683238,meta,2025-06-02T07:00:00.000Z,0.9784508333782836,,,,,,,,columbia-south-carolina,False
556dca3b-7aec-414b-8813-2c3a2d2e4ebf,Target,department_store,"['furniture_store', 'grocery_store']",CA,Costa Mesa,92627.0,289 E 17th St,33.6325032,-117.9168257,meta,2025-06-02T07:00:00.000Z,0.9784508333782836,6f1b18e2-176b-4d8a-b709-82cabe22462b,,,,OpenStreetMap,2022-12-09T16:10:55.000Z,,mission-viejo,False
f92dd4e9-4ac2-43ef-9aef-dbbc7f59b5f9,Target Eagle,shooting_range,,CA,Irvine,92617.0,5151 California Ave,33.64051,-117.85611,meta,2025-06-02T07:00:00.000Z,0.8980891719745223,da1345d7-515d-4471-870b-5294fdb3f7f3,,,,OpenStreetMap,2023-12-21T19:07:40.000Z,,mission-viejo,False
fa5248b2-9413-4696-a024-f9e255bf62d2,Target,department_store,['retail'],CA,Irvine,92612.0,4255 Campus Dr Ste A150,33.649121,-117.8395084,Microsoft,2025-04-29T15:42:41.240Z,0.77,,,,,,,,mission-viejo,False
0dbb650b-defd-4c0b-a826-92bf1f7f2bc5,Target University Center UCI,department_store,"['grocery_store', 'retail']",CA,Irvine,92612.0,4255 Campus Dr,33.6497461,-117.8386084,meta,2025-06-02T07:00:00.000Z,0.9784508333782836,ee9127c6-1b89-4d78-845d-35abd8697f7f,,commercial,retail,OpenStreetMap,2024-11-24T10:40:07.000Z,,mission-viejo,False
36f1c92f-b88a-4154-9e19-184aeb7b93d2,Target Costa Mesa,department_store,"['grocery_store', 'shopping']",CA,Costa Mesa,92626.0,3030 Harbor Blvd,33.6822892,-117.9179679,meta,2025-06-02T07:00:00.000Z,0.9784508333782836,,,,,,,,mission-viejo,False
700d9629-65d7-4864-bb20-e1aab19318a5,Target Store Santa-Ana,department_store,"['shopping', 'grocery_store']",CA,Santa Ana,92704.0,3300 S Bristol St,33.7027744,-117.8871523,meta,2025-06-02T07:00:00.000Z,0.9784508333782836,8318e610-e6e0-4042-b803-3fea93c84bbe,Target,,,OpenStreetMap,2025-02-16T01:01:12.000Z,,mission-viejo,False
5715acbb-60bf-41f0-92b6-e6e7df440b14,Car Insurance Costa Mesa: Target Up Insurance,auto_insurance,,CA,Costa Mesa,92626.0,575 Anton Blvd 3rd Fl,33.68852416665459,-117.87916349206544,Microsoft,2022-03-14T19:41:59.177Z,0.77,fc4051f7-7080-4349-8a79-d8c06664068a,"24 Hour Fitness, roof parking",transportation,parking,OpenStreetMap,2024-03-21T18:09:49.000Z,,mission-viejo,False
9250b5a0-a824-44a9-abe4-bc8fba7552ab,Target Up,auto_insurance,,CA,Costa Mesa,92626.0,575 Anton Blvd Fl 3,33.690035194158554,-117.87819519639017,Microsoft,2016-11-12T22:57:20.873Z,0.77,,,,,,,,mission-viejo,False
abb26dc5-5c69-4242-9476-4ee9d8a52948,On Target Solutions,contractor,"['electrician', 'professional_services']",CA,Irvine,92614.0,17691 Mitchell N,33.6935062,-117.8583057,meta,2025-06-02T07:00:00.000Z,0.8831168831168831,,,,,,,,mission-viejo,False
a9157ebe-af97-48e7-8783-a74e66726ddd,Target Store Tustin,department_store,"['grocery_store', 'retail']",CA,Tustin,92782.0,2300 Park Ave,33.699919,-117.8279374,meta,2025-06-02T07:00:00.000Z,0.9784508333782836,17863e6d-d085-44ed-8910-5b1be30b9fdd,Target,commercial,retail,OpenStreetMap,2024-07-05T10:23:43.000Z,,mission-viejo,False
d9762d96-951d-4a8d-83bd-ea1e204c7bec,Target Store Irvine,department_store,"['childrens_clothing_store', 'shopping']",CA,Irvine,92606.0,3750 Barranca Pkwy,33.6856143,-117.8126329,meta,2025-06-02T07:00:00.000Z,0.9784508333782836,,,,,,,,mission-viejo,False
e6551b29-fd80-4b9c-9d7a-9270f6b5ea56,"Target Clinic, care provided by Kaiser Permanente - Irvine North",walk_in_clinic,"['medical_center', 'health_and_medical']",CA,Irvine,92602.0,13200 Jamboree Rd,33.7271931,-117.7857181,Microsoft,2025-05-05T21:03:31.500Z,0.77,b3d4a393-b84f-47d4-943b-1d3061ac88ef,Target,commercial,retail,OpenStreetMap,2024-07-05T10:23:43.000Z,,mission-viejo,False
8950d44a-d5da-4600-a6b1-31d013976d55,Target Optical,optometrist,['eyewear_and_optician'],CA,Irvine,92602.0,13200 Jamboree Rd,33.7273422,-117.7855191,meta,2025-06-02T07:00:00.000Z,0.9784508333782836,b3d4a393-b84f-47d4-943b-1d3061ac88ef,Target,commercial,retail,OpenStreetMap,2024-07-05T10:23:43.000Z,,mission-viejo,False
9b274ff1-cb31-4e45-aedc-0a11cfcb69ae,Target Date Solutions,professional_services,"['software_development', 'financial_advising']",CA,San Clemente,92672.0,900 Calle Venezia,33.4430821,-117.6004087,meta,2025-06-02T07:00:00.000Z,0.909823677581864,3cbfa9d1-72b7-47d9-926a-a3cb9abd2f9c,,residential,detached,OpenStreetMap,2020-08-16T17:25:23.000Z,,mission-viejo,False
9b274ff1-cb31-4e45-aedc-0a11cfcb69ae,Target Date Solutions,professional_services,"['software_development', 'financial_advising']",CA,San Clemente,92672.0,900 Calle Venezia,33.4430821,-117.6004087,meta,2025-06-02T07:00:00.000Z,0.909823677581864,f89319f8-dbc5-4a0c-a912-03d45fbe2fb6,,residential,detached,OpenStreetMap,2020-08-16T17:25:23.000Z,,mission-viejo,False
67161362-e1cc-4de3-be5f-d8bf567df5ec,Target Optical,optometrist,['eyewear_and_optician'],CA,San Clemente,92673.0,990 Avenida Vista Hermosa,33.4633844,-117.6066433,meta,2025-06-02T07:00:00.000Z,0.9784508333782836,eb202932-e643-4ff3-910b-18aa79cd290e,Target,,,OpenStreetMap,2024-07-05T10:23:43.000Z,,mission-viejo,False
4e571f3d-b540-466c-a976-1b871b19099b,Target,optometrist,"['health_and_medical', 'retail']",CA,San Clemente,92673.0,990 Avenida Vista Hermosa,33.4637808919392,-117.606479026053,Microsoft,2025-02-04T16:19:27.800Z,0.77,eb202932-e643-4ff3-910b-18aa79cd290e,Target,,,OpenStreetMap,2024-07-05T10:23:43.000Z,,mission-viejo,False
67f65761-e261-4bb6-8361-af663091f125,"Target Clinic, care provided by Kaiser Permanente â€“ San Clemente",medical_center,['health_and_medical'],CA,San Clemente,92673.0,990 Avenida Vista Hermosa,33.4638561,-117.6062725,Microsoft,2025-05-03T09:17:16.677Z,0.77,eb202932-e643-4ff3-910b-18aa79cd290e,Target,,,OpenStreetMap,2024-07-05T10:23:43.000Z,,mission-viejo,False
3551cee7-549f-47bd-b5d9-acaf355f38ff,Target Aliso Viejo,department_store,"['shopping', 'mobile_phone_store']",CA,Aliso Viejo,92656.0,26932 La Paz Rd,33.5710166,-117.7052996,meta,2025-06-02T07:00:00.000Z,0.9784508333782836,0601f429-36dd-4bd8-bb54-15998d44497d,Target,,,OpenStreetMap,2024-07-05T10:23:43.000Z,,mission-viejo,False
92c9efd7-f651-4f45-b993-cfee26752427,Target,department_store,"['grocery_store', 'retail']",CA,San Juan Capistrano,92675.0,31874 Del Obispo St,33.4986287,-117.6595194,meta,2025-06-02T07:00:00.000Z,0.9784508333782836,98151dbd-bd1f-47c8-9f57-394ee9ec8126,Target,,,OpenStreetMap,2025-03-24T16:02:31.000Z,,mission-viejo,False
ee99ee4d-6db9-4ca5-9328-e47d5d1e49f6,On Target,shooting_range,"['sporting_goods', 'active_life']",CA,Laguna Niguel,92677.0,27692 Camino Capistrano,33.5608469,-117.6740629,meta,2025-06-02T07:00:00.000Z,0.9297091412742382,8a33e41a-c70c-4c07-a0b9-a48ad419a533,Ontarget Range,commercial,commercial,OpenStreetMap,2020-08-30T17:41:08.000Z,,mission-viejo,False
7ceddad8-1635-40bf-9f05-1b31e592ce00,Target,department_store,"['grocery_store', 'retail']",CA,Mission Viejo,92691.0,27551 Puerta Real,33.562669,-117.6716421,meta,2025-06-02T07:00:00.000Z,0.9784508333782836,f3481e5d-8a21-48bf-83b3-32c94f7e5d4d,Target,,,OpenStreetMap,2024-07-05T10:23:43.000Z,,mission-viejo,False
1239d178-9882-4c3d-86fa-3316d23c0acd,Target Store Mission-Viejo,department_store,"['shopping', 'retail']",CA,Mission Viejo,92691.0,24500 Alicia Pkwy,33.6062878,-117.6888255,meta,2025-06-02T07:00:00.000Z,0.9784508333782836,,,,,,,,mission-viejo,False
3abf3a38-fde4-4274-92df-fe3114045a15,Target Technology Co,music_and_dvd_store,"['shopping', 'party_supply']",CA,Irvine,92618.0,564 Wald,33.6313516,-117.7343783,meta,2025-06-02T07:00:00.000Z,0.909823677581864,,,,,,,,mission-viejo,False
97159271-2c38-4354-b3e1-05352bfa95b0,Target,department_store,['retail'],CA,Irvine,92618.0,900 Spectrum Center Dr,33.6472239,-117.7409818,Microsoft,2025-04-29T15:42:40.680Z,0.77,,,,,,,,mission-viejo,False
5d8d284f-1be5-4d67-b327-9d0869c22ae4,CVS Pharmacy inside Target Store,online_shop,"['pharmacy', 'corporate_office', 'private_establishments_and_corporates', 'retail']",CA,IRVINE,92618.0,900 SPECTRUM CENTER Dr,33.64785,-117.74084,Microsoft,2025-04-21T14:37:15.177Z,0.77,47f90622-3274-4811-a50b-14c7a246b1bf,Target,commercial,retail,OpenStreetMap,2024-07-05T10:23:43.000Z,,mission-viejo,False
fcb827bb-dd6d-475f-8b1b-d524eea1e272,Target Store Irvine-Spectrum,department_store,"['shopping', 'retail']",CA,Irvine,92618.0,900 Spectrum Center Dr,33.6479336,-117.7403899,meta,2025-06-02T07:00:00.000Z,0.9784508333782836,47f90622-3274-4811-a50b-14c7a246b1bf,Target,commercial,retail,OpenStreetMap,2024-07-05T10:23:43.000Z,,mission-viejo,False
3064000a-1e71-47e9-9730-3e4ca89f9d52,Target,childrens_clothing_store,"['department_store', 'grocery_store']",CA,Mission Viejo,92691.0,25601 Jeronimo Rd,33.623481,-117.6813872,meta,2025-06-02T07:00:00.000Z,0.9784508333782836,f0d06552-81d8-4479-9af8-21767d9926e7,Target,,,OpenStreetMap,2025-05-20T23:04:22.000Z,,mission-viejo,False
b5035813-36fa-48d8-ad37-88edf72a141f,Target,optometrist,"['health_and_medical', 'retail']",CA,Rancho Santa Margarita,92688.0,30602 Santa Margarita Pkwy,33.6414417344701,-117.598181962966,Microsoft,2025-02-04T16:18:03.667Z,0.77,710509d5-29b9-47bc-bce2-b032f326f4ab,Target,commercial,retail,OpenStreetMap,2024-09-12T19:02:07.000Z,,mission-viejo,False
76fd9efb-0ad2-4829-be25-0f4b25dfd845,Target Store Rancho-Santa-Margarita,department_store,"['retail', 'grocery_store']",CA,Rancho Santa Margarita,92688.0,30602 Santa Margarita Pkwy,33.6418777,-117.5977107,meta,2025-06-02T07:00:00.000Z,0.9784508333782836,,,,,,,,mission-viejo,False
7645502d-f903-4584-8adc-2a6d394ee7ae,"new target, inc.",web_designer,"['internet_marketing_service', 'fashion_accessories_store']",CA,Irvine,92618.0,7545 Irvine Center Dr,33.6628046,-117.751169,meta,2025-06-02T07:00:00.000Z,0.9204819277108434,e5e8f785-cb63-4932-b744-42dca0d44060,,commercial,commercial,OpenStreetMap,2023-12-08T00:27:53.000Z,,mission-viejo,True
a97bd5b4-047e-4ad8-95a1-2d0fe8a1c859,Target Store Foothill-Ranch,department_store,"['shopping', 'grocery_store']",CA,Foothill Ranch,92610.0,26762 Portola Pkwy,33.676969,-117.6643305,meta,2025-06-02T07:00:00.000Z,0.9784508333782836,,,,,,,,mission-viejo,False
54b49703-9599-44eb-86d4-a544b18d6ad5,Target,department_store,['retail'],CA,Rancho Santa Margarita,92688.0,30602 Santa Margarita Pkwy,33.641838,-117.597587,Microsoft,2024-04-24T15:28:43.567Z,0.77,,,,,,,,mission-viejo,False
d7bf219d-11af-40cd-9de2-0c045be0a485,Target Store Garden-Grove-Harbor,grocery_store,"['department_store', 'shopping']",CA,Garden Grove,92840.0,12100 Harbor Blvd,33.7870332,-117.9134752,meta,2025-06-02T07:00:00.000Z,0.9784508333782836,681f92b3-949d-4251-ab33-50d9139c2538,Target,,,OpenStreetMap,2024-07-05T10:23:43.000Z,,mission-viejo,False
9abe3e8b-7694-4376-82ef-1aa1c1cad769,Target Store Santa-Ana-Nw,department_store,"['shopping', 'clothing_store']",CA,Santa Ana,92706.0,1441 W 17th St,33.7614792,-117.8875626,meta,2025-06-02T07:00:00.000Z,0.9784508333782836,5e0d9de0-d461-421e-8883-247fb66bdff1,Target,,,OpenStreetMap,2024-07-05T10:51:10.000Z,,mission-viejo,False
fb1064a1-7c9b-456c-9acb-db6a5dc576f2,Target Store Santa-Ana,department_store,"['grocery_store', 'retail']",CA,Santa Ana,92705.0,1330 E 17th St,33.7592171,-117.8506486,meta,2025-06-02T07:00:00.000Z,0.9784508333782836,1fcf86ac-8f18-4b65-9606-9db740e28d44,Target,,,OpenStreetMap,2024-07-05T10:23:43.000Z,,mission-viejo,False
2fcbc8a6-c15a-4509-a70b-600c46d913f1,Target Sports USA,gun_and_ammo,['retail'],CT,Cheshire,6410.0,30 Fieldstone Ct,41.54926,-72.89047,Microsoft,2019-03-08T20:35:25.880Z,0.77,ddbe93f8-61f6-47ec-9526-a28059c0130d,,,,OpenStreetMap,2021-07-04T01:49:24.000Z,,hartford,False
a0414d70-6c38-47ef-ac9a-a2be33c53a80,Target Store Meriden,department_store,"['grocery_store', 'shopping']",CT,Meriden,6451.0,474 Chamberlain Hwy,41.5525105,-72.815436,meta,2025-06-02T07:00:00.000Z,0.9784508333782836,,,,,,,,hartford,False
d9607c85-9fe1-4264-97c4-f7afef9b42fb,CVS Pharmacy inside Target Store,online_shop,"['pharmacy', 'drugstore', 'corporate_office', 'private_establishments_and_corporates', 'retail']",CT,Southington,6489.0,600 Executive Blvd,41.611,-72.90188,Microsoft,2025-04-21T14:37:15.177Z,0.77,42dd5973-dc33-4b2b-b9c4-c242b6606de8,Target,,,OpenStreetMap,2024-07-05T10:24:35.000Z,,hartford,False
2dbe71d6-d1da-41d6-b03a-434161f38965,Target Store Southington,department_store,"['retail', 'furniture_store']",CT,Southington,6489.0,600 Executive Blvd,41.6114067,-72.9013258,meta,2025-06-02T07:00:00.000Z,0.9784508333782836,42dd5973-dc33-4b2b-b9c4-c242b6606de8,Target,,,OpenStreetMap,2024-07-05T10:24:35.000Z,,hartford,False
54760722-c4a3-4ca8-8d4f-94038aeff025,Target Sports USA,sporting_goods,"['shopping', 'professional_services']",CT,Farmington,6032.0,24 Porter Rd,41.72446,-72.82892,meta,2025-06-02T07:00:00.000Z,0.296943231441048,,,,,,,,hartford,False
9e9654a6-9fdd-4520-9604-814c704aa699,Target Computers Inc,it_service_and_computer_repair,['computer_store'],CT,Berlin,6037.0,954 Farmington Ave,41.6325752,-72.7627879,meta,2025-06-02T07:00:00.000Z,0.9204819277108434,48ee6655-7388-40f7-80db-ceacce9ffaf0,,,,OpenStreetMap,2022-05-09T15:28:36.000Z,,hartford,True
f339a9cf-8ed5-4630-bf13-adeb2e00d37a,Target Store Newington,department_store,"['grocery_store', 'retail']",CT,Newington,6111.0,3265 Berlin Tpke,41.6605757,-72.7256725,meta,2025-06-02T07:00:00.000Z,0.9784508333782836,c8d7f4c6-e0d9-41f3-8aae-110264868d07,Target,,,OpenStreetMap,2024-07-05T10:24:35.000Z,,hartford,False
19f270bc-e804-4d2e-8f26-93fa650ffd25,Target,department_store,"['grocery_store', 'retail']",CT,Newington,6111.0,3164 Berlin Tpke,41.6630014,-72.7186127,meta,2025-06-02T07:00:00.000Z,0.3961437335670464,2290f457-ce8a-40df-9a31-d49b70b9f252,Walmart,commercial,retail,OpenStreetMap,2024-10-10T23:23:16.000Z,,hartford,False
dbef0d32-44e9-41d5-b513-1bdd68159c8f,Target Store New-Britain,department_store,"['grocery_store', 'clothing_store']",CT,New Britain,6053.0,475 Hartford Rd,41.7108317,-72.763837,meta,2025-06-02T07:00:00.000Z,0.9784508333782836,,,,,,,,hartford,False
7a4c0827-94b6-4150-af66-1cd119950432,Target,optometrist,"['health_and_medical', 'retail']",CT,New Britain,6053.0,475 Hartford Rd,41.7106783,-72.7625351,Microsoft,2016-05-06T18:36:49.790Z,0.77,5914e298-6ae9-4321-9a14-1149cd5e4158,Target,,,OpenStreetMap,2024-07-05T10:24:35.000Z,,hartford,False
f7996853-03de-47a7-8d67-79ca927123af,Target,department_store,"['grocery_store', 'retail']",CT,West Hartford,6117.0,333 N Main St,41.783919,-72.7481333,meta,2025-06-02T07:00:00.000Z,0.9784508333782836,d438626c-ae1f-4c28-9079-e63b7a94d19b,,commercial,retail,OpenStreetMap,2021-05-30T23:16:46.000Z,,hartford,False
66697f84-2361-425d-9fdf-0c062c868f5c,Target Store South-Windsor,department_store,"['shopping', 'grocery_store']",CT,Manchester,6042.0,125 Buckland Hills Dr,41.8102103,-72.5497765,meta,2025-06-02T07:00:00.000Z,0.9784508333782836,e1b2cf95-6d24-45ec-b57e-1c646a5654be,Target,commercial,retail,OpenStreetMap,2024-07-05T10:24:35.000Z,,hartford,False
5870fec8-bca3-40d2-9aa9-b08e2b82fcbd,CVS Pharmacy inside Target Store,online_shop,"['pharmacy', 'drugstore', 'corporate_office', 'private_establishments_and_corporates', 'retail']",CT,Manchester,6042.0,125 Buckland Hills Dr,41.81034,-72.5491,Microsoft,2025-04-21T14:37:09.187Z,0.77,e1b2cf95-6d24-45ec-b57e-1c646a5654be,Target,commercial,retail,OpenStreetMap,2024-07-05T10:24:35.000Z,,hartford,False
5f4e22a2-81b0-40ff-8152-6c6d7db2afdc,On Target Pistol Permit,shooting_range,"['education', 'school']",CT,Windsor,6095.0,110 Ethan Dr,41.8986733,-72.6927863,meta,2025-06-02T07:00:00.000Z,0.9204819277108434,,,,,,,,hartford,False
3f12b8c6-2325-466a-99b1-fcf373cbd9e5,Target Store Windsor,department_store,"['retail', 'grocery_store']",CT,Windsor,6095.0,1075 Kennedy Rd,41.8911029,-72.6520786,meta,2025-06-02T07:00:00.000Z,0.9784508333782836,dd6e4000-1213-45f1-ba6b-df361cb1bb79,,commercial,retail,OpenStreetMap,2024-07-16T04:10:14.000Z,,hartford,False
07eb5bad-1da2-4385-a19b-6a3002995012,Target Air Freight,freight_and_cargo_service,"['shopping', 'bar']",CT,Windsor,6095.0,460 Hayden Station Rd,41.8977187,-72.6457591,meta,2025-06-02T07:00:00.000Z,0.9459263554653524,924d2ad1-c8e1-4412-99b1-3d93eaae63ea,,,,OpenStreetMap,2022-01-25T17:57:57.000Z,,hartford,False
4b753fc5-f65b-4e3e-ae5d-067b8edcc528,Target,department_store,['retail'],KS,Olathe,66062.0,20255 W 154th St,38.8480068,-94.8200364,Microsoft,2025-04-29T16:04:45.720Z,0.77,,,,,,,,kansas-city,False
146c5d4f-021e-4fd4-ac47-d259632f3055,Target Store Olathe-South,grocery_store,"['department_store', 'shopping']",KS,Olathe,66062.0,20255 W 154th St,38.8489466,-94.8199469,meta,2025-06-02T07:00:00.000Z,0.9784508333782836,,,,,,,,kansas-city,False
a3d47057-198f-4ac1-a995-2a04e9cd1442,Target Store Olathe,department_store,"['grocery_store', 'clothing_store']",KS,Olathe,66062.0,15345 W 119th St,38.91068,-94.7644016,meta,2025-06-02T07:00:00.000Z,0.9784508333782836,,,,,,,,kansas-city,False
0cb6ddd0-2ede-4555-9cf9-72ecb1dffd2d,Target Shawnee,department_store,['retail'],KS,Shawnee,66217.0,15700 Shawnee Mission Pkwy,39.0102,-94.7681,Microsoft,2015-06-23T13:58:25.473Z,0.77,d6a359da-4922-45dd-81ab-eeaf685d013b,Target,,,OpenStreetMap,2024-07-05T10:24:12.000Z,,kansas-city,False
5da64b46-1d2f-4770-a257-75c43372aa47,CVS Pharmacy inside Target Store,convenience_store,"['online_shop', 'pharmacy', 'drugstore', 'corporate_office', 'private_establishments_and_corporates', 'retail']",KS,Shawnee,66217.0,15700 Shawnee Mission Pkwy,39.01065,-94.76813,Microsoft,2025-04-21T14:37:15.177Z,0.77,d6a359da-4922-45dd-81ab-eeaf685d013b,Target,,,OpenStreetMap,2024-07-05T10:24:12.000Z,,kansas-city,False
91ce015e-4e72-45eb-a53e-5feaa195ef3b,Target Optical,optometrist,"['eyewear_and_optician', 'health_and_medical']",KS,Shawnee,66217.0,15700 Shawnee Mission Pkwy,39.0106469,-94.767905,meta,2025-06-02T07:00:00.000Z,0.9784508333782836,d6a359da-4922-45dd-81ab-eeaf685d013b,Target,,,OpenStreetMap,2024-07-05T10:24:12.000Z,,kansas-city,False
98c705da-37b3-4a15-862c-97a037c94191,Target,optometrist,"['health_and_medical', 'retail']",KS,Shawnee,66217.0,15700 Shawnee Msn Park,39.010699,-94.768038,Microsoft,2025-02-04T16:17:37.923Z,0.77,d6a359da-4922-45dd-81ab-eeaf685d013b,Target,,,OpenStreetMap,2024-07-05T10:24:12.000Z,,kansas-city,False
520c062c-bbc9-467d-86ad-a2bbb7ceadf6,Target Store Overland-Park-South,department_store,"['grocery_store', 'clothing_store']",KS,Overland Park,66223.0,8101 W 151st St,38.853478,-94.6822193,meta,2025-06-02T07:00:00.000Z,0.9784508333782836,2828714d-eb61-45f6-8d37-ae930f24f54f,Target,,,OpenStreetMap,2024-07-05T10:24:12.000Z,,kansas-city,False
925fb4eb-4b89-49b2-afcc-6530177175f2,Target,optometrist,['health_and_medical'],KS,Overland Park,66213.0,12200 Blue Valley Pkwy,38.9079268,-94.6745617,Microsoft,2025-02-04T16:17:37.923Z,0.77,880f1114-52cd-4fc1-8430-55b20662a02c,Target,,,OpenStreetMap,2024-07-05T10:24:12.000Z,,kansas-city,False
5e8f3eda-747d-4681-9954-8e3c813f1d81,Target,optometrist,['health_and_medical'],KS,Overland Park,66213.0,12200 Blue Valley Pkwy,38.9082583,-94.6748679,Microsoft,2016-05-06T18:36:49.790Z,0.77,,,,,,,,kansas-city,False
ae7f7f78-e527-450c-97c0-ea3a71b0b01d,Target Store Overland-Park,department_store,"['grocery_store', 'shopping']",KS,Overland Park,66213.0,12200 Blue Valley Pkwy,38.9081913,-94.6746503,meta,2025-06-02T07:00:00.000Z,0.9784508333782836,,,,,,,,kansas-city,False
172a3548-92cb-4b3b-a642-0c68a1ab9567,Target Optical,optometrist,['eyewear_and_optician'],MO,Kansas City,64145.0,1201 W 136th St,38.8797481,-94.6069393,meta,2025-06-02T07:00:00.000Z,0.9784508333782836,5e8828e0-69b7-4e5e-a0c2-a41e63d4291b,,,,OpenStreetMap,2013-11-27T23:22:50.000Z,,kansas-city,False
463a3f4c-37fd-4ed2-a00f-6ce3db1006c5,Target Store Overland-Park-West,grocery_store,"['department_store', 'retail']",KS,Overland Park,66214.0,11501 W 97th St,38.9503876,-94.7188652,meta,2025-06-02T07:00:00.000Z,0.9784508333782836,32e5cf76-d138-4cbe-ac85-365ffe859d66,Target,,,OpenStreetMap,2024-07-05T10:24:12.000Z,,kansas-city,False
29b428d0-fe78-4695-b261-f479096f6fae,Target,department_store,['retail'],KS,Overland Park,66214.0,11501 W 97th St,38.9512266,-94.7195753,Microsoft,2025-04-29T15:33:43.227Z,0.77,,,,,,,,kansas-city,False
866de243-704b-4782-907d-3f888ae1bb90,Target Store Mission,grocery_store,"['department_store', 'retail']",KS,Mission,66202.0,6100 Broadmoor St,39.0178922,-94.6652439,meta,2025-06-02T07:00:00.000Z,0.9784508333782836,81013390-4aef-4ea6-a30c-e5e3c2f60d69,Target,commercial,retail,OpenStreetMap,2024-07-05T10:24:12.000Z,,kansas-city,False
60737b1c-1806-47d8-9af3-c69ea9f949c4,Target,optometrist,['health_and_medical'],MO,Kansas City,64114.0,8509 State Line Rd,38.9718257430851,-94.6073859930039,Microsoft,2025-02-04T16:20:03.360Z,0.77,6b1635ff-222a-491a-8081-ce95fb46fdbd,Ward Parkway Shopping Center,commercial,commercial,OpenStreetMap,2022-05-14T23:11:07.000Z,,kansas-city,False
688de9a3-2a10-439f-8345-3f4dabc41dfc,Target Store Ward-Parkway,grocery_store,"['department_store', 'shopping']",MO,Kansas City,64114.0,8509 State Line Rd,38.9724706,-94.6071121,meta,2025-06-02T07:00:00.000Z,0.9784508333782836,,,,,,,,kansas-city,False
189388a8-4028-4d19-b7e4-b13be1b038b1,Target,department_store,['retail'],MO,Lees Summit,64081.0,1850 NW Chipman Rd,38.9310919,-94.4093756,Microsoft,2025-04-29T15:49:32.723Z,0.77,,,,,,,,kansas-city,False
58fe3c01-a8d4-4a09-88c3-bc7f255da34d,Target Optical,optometrist,"['eyewear_and_optician', 'doctor']",,,64081.0,1850 NW Chipman Rd,38.931458,-94.409534,meta,2025-06-02T07:00:00.000Z,0.9459263554653524,6303f6b7-8da1-4088-b037-4229d021df2e,,commercial,retail,OpenStreetMap,2023-06-24T19:33:37.000Z,,kansas-city,False
0950981b-7af1-4290-a9c2-46cb1e436767,Super Target,shopping_center,,MO,Lee's Summit,64081.0,1850 NW Chipman Rd,38.931712,-94.4092192,meta,2025-06-02T07:00:00.000Z,0.4929396662387676,6303f6b7-8da1-4088-b037-4229d021df2e,,commercial,retail,OpenStreetMap,2023-06-24T19:33:37.000Z,,kansas-city,False
bebf2c45-0b1a-4c36-a2f6-8dc3506c30da,Target Store Kc-Speedway,department_store,"['grocery_store', 'shopping']",KS,Kansas City,66111.0,10900 Stadium Dr,39.1272383,-94.8318287,meta,2025-06-02T07:00:00.000Z,0.9784508333782836,3afc03aa-f200-43b8-a9c5-fb24f3a12a01,Target,,,OpenStreetMap,2025-01-03T11:07:15.000Z,,kansas-city,False
0b4ccd0d-427e-4cdc-a34f-db6bc62028e8,Target Stream Technologies,department_store,['grocery_store'],MO,Kansas City,64105.0,106 W 11th St,39.10111,-94.58462,meta,2025-06-02T07:00:00.000Z,0.296943231441048,51a915e3-11a0-4cf6-a09a-b624f1dc9eb5,Mark Twain Tower,,,OpenStreetMap,2024-12-23T07:58:36.000Z,,kansas-city,False
812b622c-f03d-46c6-8782-45ce9e862c4b,Target,department_store,['retail'],MO,Kansas City,64154.0,9040 N Skyview Ave,39.2579217,-94.6550029,Microsoft,2025-04-29T15:44:29.413Z,0.77,,,,,,,,kansas-city,False
7c9dc19d-545c-4682-95ad-1f74b7744022,Target Store Kansas-City-Nw,department_store,"['shopping', 'grocery_store']",MO,Kansas City,64154.0,9040 N Skyview Ave,39.2576943,-94.6546495,meta,2025-06-02T07:00:00.000Z,0.9784508333782836,,,,,,,,kansas-city,False
7f5d0a62-0f91-47a0-9797-ec1cc328d79b,Target Store Kansas-City-North,department_store,"['grocery_store', 'shopping']",MO,Kansas City,64155.0,8420 N Madison Ave,39.2488218,-94.5952075,meta,2025-06-02T07:00:00.000Z,0.9784508333782836,,,,,,,,kansas-city,False
87836731-8863-4134-9f33-6570e3a31dfc,Target Store Kansas-City-Chouteau,department_store,"['grocery_store', 'shopping']",MO,Kansas City,64117.0,4375 NE Chouteau Trfy,39.1738902,-94.5330713,meta,2025-06-02T07:00:00.000Z,0.9784508333782836,,,,,,,,kansas-city,False
c52fa38c-1014-4802-90a5-b27d3c2915a9,Target Optical Doctors of Optometry - Kansas City Chouteau,department_store,"['optometrist', 'health_and_medical', 'retail']",MO,Kansas City,64117.0,4375 N Chouteau Trfy,39.1743162,-94.5330441,Microsoft,2025-05-19T18:02:04.310Z,0.77,,,,,,,,kansas-city,False
5c6dcb0c-7a6d-4500-b021-76f2fbe126f3,Target,department_store,"['optometrist', 'health_and_medical', 'retail']",MO,Kansas City,64117.0,4375 N Chouteau Trfy,39.1743492,-94.5325126,Microsoft,2025-04-22T12:33:28.810Z,0.77,6e6b2b60-7cd1-48a6-ad8e-8cf8ffda78e9,Target,commercial,retail,OpenStreetMap,2024-07-05T10:24:12.000Z,,kansas-city,False
a081c15c-af24-4635-a7a7-1c5aae328257,Target Store Independence,grocery_store,"['department_store', 'shopping']",MO,Independence,64055.0,17810 E 39th St S,39.0507277,-94.3692665,meta,2025-06-02T07:00:00.000Z,0.9784508333782836,f495486c-9189-4181-a942-5d82eeb32d5e,Target,,,OpenStreetMap,2024-07-05T10:24:12.000Z,,kansas-city,False
3c5d7fdf-3585-4585-88bb-76f8a10ec1e0,Target Store Liberty,grocery_store,"['department_store', 'shopping']",MO,Kansas City,64157.0,9220 NE Barry Rd,39.2473786,-94.4633762,meta,2025-06-02T07:00:00.000Z,0.9784508333782836,22305585-7d5c-42fd-939e-764656219b1b,Target,,,OpenStreetMap,2024-07-05T10:24:12.000Z,,kansas-city,False
8f294d1a-0790-4ce1-9db3-b2c76706fb0b,Target Direct Marketing,advertising_agency,"['marketing_agency', 'printing_services']",MO,Liberty,64068.0,1512 NE 96th St,39.2677921,-94.4538263,meta,2025-06-02T07:00:00.000Z,0.9459263554653524,fc9a8306-3376-415d-80c9-fc2e3c54b1a1,Target Direct Marketing,,,OpenStreetMap,2022-04-12T02:45:40.000Z,,kansas-city,False
fb202785-0070-40fd-9cd6-267719e5c13b,Herbalife Target Nutrition Club,vitamins_and_supplements,['weight_loss_center'],CA,Stockton,95204.0,2702 Country Club Blvd,37.9633844,-121.3359665,meta,2025-06-02T07:00:00.000Z,0.9784508333782836,33c3f488-6fa7-4bf7-89ae-bc1686dfab9d,,,,OpenStreetMap,2014-06-26T07:23:17.000Z,,stockton,False
8a4d6ff9-4c55-4283-a331-4f79612200ac,CVS Pharmacy inside Target Store,online_shop,"['pharmacy', 'drugstore', 'corporate_office', 'private_establishments_and_corporates', 'retail']",CA,Stockton,95207.0,4707 Pacific Ave,37.99159,-121.31537,Microsoft,2025-04-21T14:37:20.877Z,0.77,d06e73eb-5940-4211-b797-ab329112faf6,Target,,,OpenStreetMap,2024-07-05T10:23:43.000Z,,stockton,False
b3ff117a-2090-4b62-a295-b56ba5bf6c08,Target Store Stockton,department_store,"['shopping', 'retail']",CA,Stockton,95207.0,4707 Pacific Ave,37.9916766,-121.3148522,meta,2025-06-02T07:00:00.000Z,0.9784508333782836,d06e73eb-5940-4211-b797-ab329112faf6,Target,,,OpenStreetMap,2024-07-05T10:23:43.000Z,,stockton,False
6560b026-3ff5-454a-b0b1-415b7c1b34bf,Target Store Stockton-North,department_store,"['retail', 'grocery_store']",CA,Stockton,95219.0,10424 Trinity Pkwy,38.0521617,-121.3726568,meta,2025-06-02T07:00:00.000Z,0.9784508333782836,af80308d-daff-4281-b5f9-be887ce569d3,Target,commercial,retail,OpenStreetMap,2025-02-04T17:39:04.000Z,,stockton,False
891cdcea-b518-4391-ab71-5dd99f31d2b1,Target,department_store,['retail'],CA,Stockton,95219.0,10424 Trinity Pkwy,38.0521606,-121.3714538,Microsoft,2025-04-29T16:12:13.750Z,0.77,af80308d-daff-4281-b5f9-be887ce569d3,Target,commercial,retail,OpenStreetMap,2025-02-04T17:39:04.000Z,,stockton,False
4dc4daa3-707a-4099-b902-e1062ceb9a35,CVS Pharmacy inside Target Store,online_shop,"['pharmacy', 'drugstore', 'corporate_office', 'private_establishments_and_corporates', 'retail']",CA,Visalia,93277.0,4247 S Mooney Blvd,36.29219,-119.31724,Microsoft,2025-04-21T14:37:15.177Z,0.77,3470854e-f962-4c69-99ee-9e6985b3fb9d,Target,,,OpenStreetMap,2024-04-16T03:14:05.000Z,,visalia,False
deca8a7c-da63-4a1e-8663-dc4f4661b7c5,Target,optometrist,"['health_and_medical', 'retail']",CA,Visalia,93277.0,4247 S Mooney Blvd,36.2922817239931,-119.317220449447,Microsoft,2025-02-04T16:20:03.360Z,0.77,3470854e-f962-4c69-99ee-9e6985b3fb9d,Target,,,OpenStreetMap,2024-04-16T03:14:05.000Z,,visalia,False
9039e969-2328-4083-b776-cd7fbf33b381,Target Store Visalia,department_store,"['grocery_store', 'shopping']",CA,Visalia,93277.0,4247 S Mooney Blvd,36.2924415,-119.3166151,meta,2025-06-02T07:00:00.000Z,0.9784508333782836,3470854e-f962-4c69-99ee-9e6985b3fb9d,Target,,,OpenStreetMap,2024-04-16T03:14:05.000Z,,visalia,False
5ce277c7-5d90-4330-858c-19f3e6db3bd2,Target Store Visalia-North,department_store,"['grocery_store', 'shopping']",CA,Visalia,93291.0,3308 N Dinuba Blvd,36.3589414,-119.2952794,meta,2025-06-02T07:00:00.000Z,0.9784508333782836,,,,,,,,visalia,False
e98fa7bd-e15e-4030-b62d-862359ad3dcf,On-Target 3D Simulations,archery_range,['active_life'],NV,Reno,89521.0,748 S Meadows Pkwy,39.4366799,-119.7573352,meta,2025-06-02T07:00:00.000Z,0.9415384615384615,ef756d76-7dcd-4e12-b760-5538512bfc1f,,commercial,commercial,OpenStreetMap,2024-10-23T01:13:25.000Z,,reno,False
5527111a-533c-4a81-b46c-0d37c514c7ae,Target Store Reno-South,department_store,"['retail', 'shopping']",NV,Reno,89511.0,6845 Sierra Center Pkwy,39.4635835,-119.7808305,meta,2025-06-02T07:00:00.000Z,0.9784508333782836,,,,,,,,reno,False
21562650-c005-4464-8c9f-08193a9da26c,Target Store Sparks-South,department_store,"['shopping', 'grocery_store']",NV,Sparks,89434.0,1550 E Lincoln Way,39.5354738,-119.7170089,meta,2025-06-02T07:00:00.000Z,0.9784508333782836,43f804e6-3f4c-439b-870d-de7b3d6ba4d9,,commercial,supermarket,OpenStreetMap,2024-10-29T06:45:36.000Z,,reno,False
e4c4a784-86eb-463e-ad05-3dc086ae49af,CVS Pharmacy inside Target Store,online_shop,"['pharmacy', 'drugstore', 'corporate_office', 'private_establishments_and_corporates', 'retail']",AL,Mobile,36606.0,3150 Bel Air Mall,30.67104,-88.1205,Microsoft,2025-04-21T14:37:20.877Z,0.77,2661d218-9729-427a-8ed6-90fadb318deb,Bel Air Mall,,,OpenStreetMap,2017-09-23T20:19:22.000Z,,mobile,False
e4c4a784-86eb-463e-ad05-3dc086ae49af,CVS Pharmacy inside Target Store,online_shop,"['pharmacy', 'drugstore', 'corporate_office', 'private_establishments_and_corporates', 'retail']",AL,Mobile,36606.0,3150 Bel Air Mall,30.67104,-88.1205,Microsoft,2025-04-21T14:37:20.877Z,0.77,31f08b9d-aa80-44e1-82d6-1f788c816f71,Target,,,OpenStreetMap,2024-07-05T10:51:10.000Z,,mobile,False
c9e92b61-8e73-460a-896a-ee93b0009390,Target Store Bel-Air,department_store,"['retail', 'grocery_store']",AL,Mobile,36606.0,3150 Bel Air Mall,30.6713952,-88.1200112,meta,2025-06-02T07:00:00.000Z,0.9784508333782836,2661d218-9729-427a-8ed6-90fadb318deb,Bel Air Mall,,,OpenStreetMap,2017-09-23T20:19:22.000Z,,mobile,False
c9e92b61-8e73-460a-896a-ee93b0009390,Target Store Bel-Air,department_store,"['retail', 'grocery_store']",AL,Mobile,36606.0,3150 Bel Air Mall,30.6713952,-88.1200112,meta,2025-06-02T07:00:00.000Z,0.9784508333782836,31f08b9d-aa80-44e1-82d6-1f788c816f71,Target,,,OpenStreetMap,2024-07-05T10:51:10.000Z,,mobile,False
c17b2690-fa84-4efa-86ae-c16b0a10a7cb,Target Testing,laboratory_testing,"['occupational_safety', 'health_and_medical']",FL,Lakeland,33813.0,5131 S Florida Ave,27.9718396,-81.9630696,meta,2025-06-02T07:00:00.000Z,0.9784508333782836,,,,,,,,lakeland,False
0a79a1fc-3054-4502-b22d-79f9a0f45161,Target Store Lakeland-South,department_store,"['grocery_store', 'retail']",FL,Lakeland,33803.0,3570 Harden Blvd,28.0000253,-81.9727914,meta,2025-06-02T07:00:00.000Z,0.9784508333782836,1cb1a656-db77-4983-9377-b0b4e31b2d54,Target,,,OpenStreetMap,2024-07-05T10:25:13.000Z,,lakeland,False
016409bb-0b31-48ce-bf27-494fcb502268,Target Store Lakeland-North,department_store,"['grocery_store', 'clothing_store']",FL,Lakeland,33809.0,4005 US Highway 98 N,28.09232,-81.9709157,meta,2025-06-02T07:00:00.000Z,0.9784508333782836,53086984-7d4a-43f5-b2f9-b695c153856b,Target,,,OpenStreetMap,2024-08-19T17:36:30.000Z,,lakeland,False
0343406c-852b-4cbb-aef4-e1435145e09b,Target Store Lafayette,department_store,"['grocery_store', 'mobile_phone_store']",LA,Lafayette,70508.0,4313 Ambassador Caffery Pkwy,30.1601557,-92.0493593,meta,2025-06-02T07:00:00.000Z,0.9784508333782836,,,,,,,,lafayette,False
d311140f-9cb6-4188-ae7a-3db29d62ba49,CVS Pharmacy inside Target Store,online_shop,"['pharmacy', 'drugstore', 'corporate_office', 'private_establishments_and_corporates', 'retail']",LA,Lafayette,70508.0,4313 Ambassador Caffery Pkwy,30.16086,-92.04984,Microsoft,2025-04-21T14:37:15.177Z,0.77,7834c305-fec1-44b7-b465-290a0cac8d52,Target,commercial,retail,OpenStreetMap,2024-07-05T10:24:12.000Z,,lafayette,False
4b28f7d6-bf28-4d29-8445-449eff584b83,Target Store Laurel,department_store,"['shopping', 'grocery_store']",MD,Laurel,20724.0,3343 Corridor Marketplace,39.0970162,-76.8097476,meta,2025-06-02T07:00:00.000Z,0.9784508333782836,cfcf1290-2779-49ea-92df-d09b075370d9,Target,,,OpenStreetMap,2025-01-22T20:30:50.000Z,,baltimore,False
8292fc05-d3ed-43d5-b0b3-5efdbb089f51,Target Optical,optometrist,"['professional_services', 'eyewear_and_optician']",MD,Columbia,21045.0,6111 Dobbin Rd,39.1971891,-76.813379,meta,2025-06-02T07:00:00.000Z,0.9459263554653524,f4656bf0-5837-4d72-b9ac-f3545f0bb342,Target,commercial,retail,OpenStreetMap,2024-07-05T10:24:35.000Z,,baltimore,False
3019940e-ba19-4078-8e4c-a8ebf3092a1c,Target Columbia,department_store,"['shopping', 'retail']",MD,Columbia,21045.0,6111 Dobbin Rd,39.1971601,-76.8133524,meta,2025-06-02T07:00:00.000Z,0.9784508333782836,f4656bf0-5837-4d72-b9ac-f3545f0bb342,Target,commercial,retail,OpenStreetMap,2024-07-05T10:24:35.000Z,,baltimore,False
5eb967eb-c223-4957-bc1a-07b79407cee6,Ulta Beauty at Target,cosmetic_and_beauty_supplies,"['beauty_and_spa', 'department_store']",MD,Columbia,21045.0,6111 Dobbin Rd,39.1971693,-76.8133462,meta,2025-06-02T07:00:00.000Z,0.9415384615384615,f4656bf0-5837-4d72-b9ac-f3545f0bb342,Target,commercial,retail,OpenStreetMap,2024-07-05T10:24:35.000Z,,baltimore,False
e24924e2-da7f-43b5-914f-02f8bdcc9afd,Target Ellicott City,department_store,"['grocery_store', 'shopping']",MD,Ellicott City,21043.0,4390 Montgomery Rd,39.2505338,-76.8172126,meta,2025-06-02T07:00:00.000Z,0.9784508333782836,8278ac2d-da74-4d07-b944-9818e7dd9fc6,Target,commercial,retail,OpenStreetMap,2024-07-05T10:24:35.000Z,,baltimore,False
119fb51a-0191-4d54-a52a-5965a4d7d3ee,Target Specialty Products,farm_equipment_and_supply,"['b2b_farming', 'b2b_agriculture_and_food', 'business_to_business']",MD,Baltimore,21227.0,3630 Commerce Dr Ste 11-114,39.2517968,-76.6739356,Microsoft,2025-02-15T06:51:04.587Z,0.77,,,,,,,,baltimore,False
b026ae57-bda9-42e5-b6e7-e726054922c4,Target,department_store,['retail'],MD,Baltimore,21215.0,3201 Tioga Pkwy,39.3176166,-76.6566383,Microsoft,2015-05-15T08:55:12.437Z,0.77,,,,,,,,baltimore,False
d49c81b1-0987-4a7b-9efa-b77c6983f2b9,Target Store Glen-Burnie,department_store,"['shopping', 'retail']",MD,Glen Burnie,21061.0,7951 Nolpark Ct,39.1328723,-76.634231,meta,2025-06-02T07:00:00.000Z,0.9784508333782836,6e6a8cd7-3b46-447f-bdc5-db4aa056a02c,,,,OpenStreetMap,2014-11-15T17:36:29.000Z,,baltimore,False
541411f6-20b4-43b1-ae70-6aaa9cb6c07a,Target Store Glen-Burnie-North,department_store,"['grocery_store', 'retail']",MD,Glen Burnie,21061.0,6717 Governor Ritchie Hwy,39.1899947,-76.6105111,meta,2025-06-02T07:00:00.000Z,0.9784508333782836,458ac252-b888-452f-82d3-bc9ccffed04c,Target,,,OpenStreetMap,2025-01-12T20:41:42.000Z,,baltimore,False
9a9b85b5-73b5-4669-8b46-a54814de59ae,CVS Pharmacy inside Target Store,online_shop,"['pharmacy', 'drugstore', 'corporate_office', 'private_establishments_and_corporates', 'retail']",MD,Glen Burnie,21061.0,6717 Ritchie Hwy,39.19028,-76.60989,Microsoft,2025-04-21T14:37:15.177Z,0.77,458ac252-b888-452f-82d3-bc9ccffed04c,Target,,,OpenStreetMap,2025-01-12T20:41:42.000Z,,baltimore,False
7cab37b7-ca38-481b-b70c-a629187e604b,CVS Pharmacy inside Target Store,online_shop,"['pharmacy', 'drugstore', 'corporate_office', 'private_establishments_and_corporates', 'retail']",MD,BALTIMORE,21224.0,3559 BOSTON St,39.27479,-76.56632,Microsoft,2025-04-21T14:37:20.877Z,0.77,0d7e6f93-1602-4ca1-a626-2538de1018e1,Target,commercial,commercial,OpenStreetMap,2024-07-05T10:24:35.000Z,,baltimore,False
1e636424-c69d-4115-aa6c-98b3a5886268,Target Baltimore East,department_store,"['grocery_store', 'shopping']",MD,Baltimore,21224.0,3559 Boston St,39.2752445,-76.5660986,meta,2025-06-02T07:00:00.000Z,0.9784508333782836,0d7e6f93-1602-4ca1-a626-2538de1018e1,Target,commercial,commercial,OpenStreetMap,2024-07-05T10:24:35.000Z,,baltimore,False
c0321ea2-a4fc-4cef-818a-09e63e1d2963,On Target BattleZone,active_life,"['sports_and_recreation_venue', 'event_planning']",MD,Baltimore,21214.0,2900 Hamilton Ave,39.3533613,-76.5626502,meta,2025-06-02T07:00:00.000Z,0.8384615384615385,b5b2ba2d-405b-47a0-bc75-705e4fdbd2ac,,,,OpenStreetMap,2015-04-03T05:14:14.000Z,,baltimore,True
c0321ea2-a4fc-4cef-818a-09e63e1d2963,On Target BattleZone,active_life,"['sports_and_recreation_venue', 'event_planning']",MD,Baltimore,21214.0,2900 Hamilton Ave,39.3533613,-76.5626502,meta,2025-06-02T07:00:00.000Z,0.8384615384615385,64ccb363-2e0c-435e-ab36-b00a03ee056a,,,,OpenStreetMap,2015-04-03T05:14:14.000Z,,baltimore,True
2203c809-9bc3-4508-8d34-bf6285c05bda,Target,department_store,['retail'],MD,Middle River,21220.0,1330 Martin Blvd,39.3346062,-76.4483995,Microsoft,2025-04-29T15:55:53.557Z,0.77,,,,,,,,baltimore,False
2e989e32-6605-4669-9dc3-2a041cd0fc3d,Target Store Middle-River,department_store,"['shopping', 'retail']",MD,Middle River,21220.0,1330 Martin Blvd,39.3347883,-76.4480876,meta,2025-06-02T07:00:00.000Z,0.9784508333782836,e264e6bc-7302-4ba9-b0c5-3fe8b4782526,,,,OpenStreetMap,2022-04-24T03:33:42.000Z,,baltimore,False
3810c43e-a7e4-466f-8448-ec8247523db9,Target Store White-Marsh,department_store,"['grocery_store', 'retail']",MD,Nottingham,21236.0,5230 Campbell Blvd,39.3707578,-76.4514625,meta,2025-06-02T07:00:00.000Z,0.9784508333782836,1b58f964-91af-4fb6-a08f-ebfdad908510,Target,commercial,retail,OpenStreetMap,2024-07-05T10:24:35.000Z,,baltimore,False
f36bdf8c-f11f-4531-94c7-ad97c8c0480b,CVS Pharmacy inside Target Store,convenience_store,"['online_shop', 'pharmacy', 'drugstore', 'corporate_office', 'private_establishments_and_corporates', 'retail']",MD,Nottingham,21236.0,5230 Campbell Blvd,39.37129,-76.45145,Microsoft,2025-04-21T14:37:09.187Z,0.77,1b58f964-91af-4fb6-a08f-ebfdad908510,Target,commercial,retail,OpenStreetMap,2024-07-05T10:24:35.000Z,,baltimore,False
5cd65f5d-8ceb-40f9-b5fa-ef00a50cd440,Target Store Pikesville,department_store,"['shopping', 'retail']",MD,Pikesville,21208.0,1737 Reisterstown Rd,39.3848878,-76.7313539,meta,2025-06-02T07:00:00.000Z,0.9784508333782836,7dc17aec-cd81-422e-a806-6503adbb64fc,Target,,,OpenStreetMap,2024-07-05T10:24:35.000Z,,baltimore,False
77628bae-d957-4ced-a133-a41e0391596d,Target,department_store,['retail'],MD,Pikesville,21208.0,1737 Reisterstown Rd,39.3856071,-76.7307645,Microsoft,2025-04-29T15:36:52.013Z,0.77,7dc17aec-cd81-422e-a806-6503adbb64fc,Target,,,OpenStreetMap,2024-07-05T10:24:35.000Z,,baltimore,False
9fea5cec-8e87-4f4c-b264-2d8ce2b3c8b0,Target Store Owings-Mills,department_store,"['grocery_store', 'retail']",MD,Owings Mills,21117.0,11200 Reisterstown Rd,39.4334266,-76.7991896,meta,2025-06-02T07:00:00.000Z,0.9784508333782836,0783ef4a-c0b8-4f7c-8e2d-07245c8d7abe,Target,,,OpenStreetMap,2024-07-05T10:24:35.000Z,,baltimore,False
2af5bc2d-a0c2-4f11-ae00-4dab1a539ae7,"Gillian Summers, ""Promo Princess"" at Target Marketing Group",advertising_agency,"['business_advertising', 'event_planning']",MD,Owings Mills,21117.0,11404 Cronridge Dr,39.4356091,-76.7769786,meta,2025-06-02T07:00:00.000Z,0.242152466367713,161fa826-3c6d-4ba5-92a1-e0855a233b1d,,,,OpenStreetMap,2021-11-09T07:19:23.000Z,,baltimore,True
5534d2fc-5faa-4f09-aec8-d1db080da692,Target Marketing Group,marketing_agency,"['advertising_agency', 'business_manufacturing_and_supply']",MD,Owings Mills,21117.0,11404 Cronridge Dr,39.4357297,-76.7763618,meta,2025-06-02T07:00:00.000Z,0.9297091412742382,161fa826-3c6d-4ba5-92a1-e0855a233b1d,,,,OpenStreetMap,2021-11-09T07:19:23.000Z,,baltimore,False
2ce98eb2-7fd3-4f04-8295-736d72e111b8,Target Store Towson,department_store,"['shopping', 'mobile_phone_store']",MD,Towson,21286.0,1238 Putty Hill Ave,39.3947334,-76.5822105,meta,2025-06-02T07:00:00.000Z,0.9784508333782836,6315adb0-fe49-4a7d-96b6-5cd1c5a00731,,commercial,retail,OpenStreetMap,2021-09-12T15:42:20.000Z,,baltimore,False
737f328d-da7f-45e2-be75-dca5e6b5aceb,Target Timonium,department_store,"['retail', 'shopping']",MD,Cockeysville,21030.0,9901 York Rd,39.461794,-76.6341109,meta,2025-06-02T07:00:00.000Z,0.9784508333782836,b338f799-b8b3-4a15-91aa-268f0d69a6dd,Target,commercial,retail,OpenStreetMap,2024-07-05T10:24:35.000Z,,baltimore,False
07f593c3-1712-4c8f-92b6-25c8f7792f0c,Target Store Riverdale,department_store,"['shopping', 'retail']",UT,Riverdale,84405.0,1135 W Riverdale Rd,41.1734412,-112.0063152,meta,2025-06-02T07:00:00.000Z,0.9784508333782836,f9606179-59d9-4ff7-8900-6cd2bbef81cb,Target,,,OpenStreetMap,2024-07-05T10:23:43.000Z,,ogden,False
3db5bc1b-e93e-4494-8ea4-f560c31ec413,Target Store Warwick,department_store,"['shopping', 'retail']",RI,Warwick,2886.0,1245 Bald Hill Rd,41.7065046,-71.4941357,meta,2025-06-02T07:00:00.000Z,0.9784508333782836,,,,,,,,providence,False
34032fd0-7252-45ed-9002-44f82e09add2,Target Store Warwick-North,department_store,"['shopping', 'retail']",RI,Warwick,2886.0,400 Bald Hill Rd,41.722575,-71.4763481,meta,2025-06-02T07:00:00.000Z,0.9784508333782836,3cb21306-af6e-4e80-8822-0a6da55fa37e,Warwick Mall,commercial,retail,OpenStreetMap,2019-11-11T20:13:30.000Z,,providence,False
11ef9a84-757b-4d3d-a41e-f945897a6490,Target Store Seekonk,department_store,"['retail', 'clothing_store']",MA,Seekonk,2771.0,79 Commerce Way,41.7960121,-71.3211603,meta,2025-06-02T07:00:00.000Z,0.9784508333782836,e3001b67-88ca-4dc1-aa31-d7b599f8a2b9,Target,,,OpenStreetMap,2024-07-05T10:24:35.000Z,,providence,False
6cfe4659-3533-433f-802a-138232141b42,Target,department_store,['retail'],RI,Smithfield,2917.0,371 Putnam Pike Ste A-250,41.8731807,-71.5180643,Microsoft,2025-04-29T15:46:33.060Z,0.77,,,,,,,,providence,False
4429ad81-81fd-4a5d-9506-355035c1c196,CVS Pharmacy inside Target Store,online_shop,"['pharmacy', 'corporate_office', 'private_establishments_and_corporates', 'retail']",RI,Smithfield,2917.0,371 Putnam Pike Ste A-250,41.87712,-71.51902,Microsoft,2025-04-21T14:37:09.187Z,0.77,fedc009c-d603-4d3d-965e-a320649ceebe,Target,,,OpenStreetMap,2024-07-05T10:24:35.000Z,,providence,False
62bca603-48ee-4b06-abd4-3d17a885543b,Target Store Smithfield,department_store,"['childrens_clothing_store', 'retail']",RI,Smithfield,2917.0,371 Putnam Pike,41.8770582,-71.5183454,meta,2025-06-02T07:00:00.000Z,0.9784508333782836,fedc009c-d603-4d3d-965e-a320649ceebe,Target,,,OpenStreetMap,2024-07-05T10:24:35.000Z,,providence,False
c4a31e50-7979-4818-be7b-2d6da9f3bd84,Target Store Lincoln,department_store,"['retail', 'shopping']",RI,Lincoln,2865.0,620 George Washington Hwy,41.9374978,-71.4786541,meta,2025-06-02T07:00:00.000Z,0.9784508333782836,,,,,,,,providence,False
da005c12-fa7e-4ab7-94b3-ff48faf444fa,Target,optometrist,['health_and_medical'],RI,Lincoln,2865.0,620 George Washington Way,41.93817299326543,-71.4774446588955,Microsoft,2025-02-04T16:19:27.800Z,0.77,fcbd04f9-4136-4895-865b-5905b70bf348,,,,OpenStreetMap,2019-10-24T15:43:18.000Z,,providence,False
12ccc4f1-b4ca-45c2-b383-3146dce9d59b,Target Store North-Attleborough,department_store,"['shopping', 'grocery_store']",MA,North Attleboro,2760.0,1205 S Washington St,41.9403732,-71.3518926,meta,2025-06-02T07:00:00.000Z,0.9784508333782836,71d552ec-4dfb-424c-a21c-fd4592be319a,Target,,,OpenStreetMap,2024-07-05T10:24:35.000Z,,providence,False
ab17125b-96b7-4798-9821-ed5187cfeafd,Target Store Moore,department_store,"['shopping', 'grocery_store']",OK,Moore,73160.0,720 SW 19th St,35.3180184,-97.5001641,meta,2025-06-02T07:00:00.000Z,0.9784508333782836,f1b90b2f-c938-4a78-88ce-1712fb3393c9,Target,,,OpenStreetMap,2024-07-05T10:24:12.000Z,,oklahoma-city,False
131c396b-13f3-48eb-acf5-97c6b540fa8e,Target,department_store,['retail'],OK,Oklahoma City,73109.0,800 SW 44th St,35.4189437,-97.5289515,Microsoft,2018-12-13T22:13:09.527Z,0.77,43e60f75-12fd-44b9-b2ff-b2be2bf785ed,Target,,,OpenStreetMap,2024-07-05T10:24:12.000Z,,oklahoma-city,False
ee478318-c752-431d-af93-3bd556b4dec5,Target Auto Center LLC,used_car_dealer,"['automotive_repair', 'automotive']",OK,Oklahoma City,73109.0,2726 S Western Ave,35.4376367,-97.5298351,meta,2025-06-02T07:00:00.000Z,0.9784508333782836,4e297a6c-047e-4feb-8f91-73df641abd34,,,,Esri Community Maps,2024-10-15T00:00:00.000Z,,oklahoma-city,False
314b0066-4702-4c20-8404-47f34c1be028,Target Store Midwest-City,department_store,"['shopping', 'retail']",OK,Midwest City,73110.0,7305 SE 29th St,35.4371477,-97.396543,meta,2025-06-02T07:00:00.000Z,0.9784508333782836,619ecdb0-9581-41f4-9165-d8173570f79f,Target,,,OpenStreetMap,2024-07-05T10:24:12.000Z,,oklahoma-city,False
a78c967b-c466-4b58-b6a5-e301faea811f,Target Roofing and Construction,roofing,['ceiling_and_roofing_repair_and_service'],OK,Warr Acres,73132.0,5830 NW Expressway,35.548675,-97.618164,Microsoft,2016-03-29T18:05:03.910Z,0.77,92499c1b-d1d1-492b-b23c-f38842bf9b6e,,,,Esri Community Maps,2024-10-15T00:00:00.000Z,,oklahoma-city,False
f75a20da-5081-406f-b046-78b81357e76d,Target Store Oklahoma-City-North,department_store,"['shopping', 'grocery_store']",OK,Oklahoma City,73112.0,5400 N May Ave,35.5244008,-97.5643364,meta,2025-06-02T07:00:00.000Z,0.9784508333782836,66ffd10a-6ee5-4dd1-a205-05df6cdac920,Target,,,OpenStreetMap,2024-07-05T10:24:12.000Z,,oklahoma-city,False
09cc42c5-a650-4135-a01a-414033fca14f,Target Store Oklahoma-City-Nw,department_store,"['shopping', 'grocery_store']",OK,Oklahoma City,73132.0,8315 N Rockwell Ave,35.5558587,-97.639966,meta,2025-06-02T07:00:00.000Z,0.9784508333782836,90823655-4b4f-4286-bec7-0f10553c12ad,,commercial,retail,OpenStreetMap,2017-02-04T18:34:28.000Z,,oklahoma-city,False
80e2d77c-da2a-43b7-88a8-a1a76af25282,Target Specialty Products,farm_equipment_and_supply,"['b2b_farming', 'b2b_agriculture_and_food', 'business_to_business']",OK,Oklahoma City,73116.0,220 NW 67th St,35.540533,-97.5172564,Microsoft,2025-02-15T06:51:01.240Z,0.77,,,,,,,,oklahoma-city,False
fedb50d1-d24a-47c5-ad10-d2ca30789244,Target Store Quail-Springs,department_store,"['grocery_store', 'shopping']",OK,Oklahoma City,73134.0,13924 N Pennsylvania Ave,35.6125801,-97.5472793,meta,2025-06-02T07:00:00.000Z,0.9784508333782836,1d97fbd4-9655-4b21-a3f1-548d77aeca6b,Target,,,OpenStreetMap,2025-01-08T15:20:21.000Z,,oklahoma-city,False
8ef33d8b-b67e-4b4b-9a3c-212b326cd579,Target,department_store,['retail'],OK,Oklahoma City,73134.0,13924 N Pennsylvania Ave,35.612882,-97.547433,Microsoft,2024-04-24T15:28:41.150Z,0.77,1d97fbd4-9655-4b21-a3f1-548d77aeca6b,Target,,,OpenStreetMap,2025-01-08T15:20:21.000Z,,oklahoma-city,False
e9acea09-6d8a-4d84-9dbd-eb8e788737aa,Target Car,car_dealer,['professional_services'],CA,San Bruno,94066.0,1071 Montgomery Ave,37.6362518,-122.4125314,meta,2025-06-02T07:00:00.000Z,0.9784508333782836,2adb2975-4e7e-496d-9d46-9c858936a7d5,,,,OpenStreetMap,2016-01-06T12:22:49.000Z,,oakland,False
ab16287d-f001-45db-bc38-c1c3337ed2b9,Target Store San-Francisco-Central,department_store,"['shopping', 'grocery_store']",CA,San Francisco,94103.0,789 Mission St,37.7845767,-122.4039536,meta,2025-06-02T07:00:00.000Z,0.9784508333782836,b5ad6220-1be7-412f-9911-ee5e580f5d77,Metreon,commercial,retail,OpenStreetMap,2024-10-19T22:50:22.000Z,,oakland,False
b373d93b-37d6-42c6-a650-9280f4fda642,Target,wholesale_store,"['department_store', 'retail']",CA,San Francisco,94104.0,225 Bush St Ste 100,37.7908821,-122.401552,Microsoft,2021-11-23T16:41:37.977Z,0.77,d9c93614-193f-4e35-ba8f-aaf718fa5fb6,225 Bush Street,,,OpenStreetMap,2024-01-31T19:48:10.000Z,,oakland,False
1cbac4db-70ff-4717-a6e7-0157b5efabc5,CVS Pharmacy inside Target Store,online_shop,"['pharmacy', 'drugstore', 'corporate_office', 'private_establishments_and_corporates', 'retail']",CA,San Francisco,94104.0,225 Bush St #100,37.7908,-122.4012,Microsoft,2021-10-26T15:41:19.237Z,0.77,d9c93614-193f-4e35-ba8f-aaf718fa5fb6,225 Bush Street,,,OpenStreetMap,2024-01-31T19:48:10.000Z,,oakland,False
b8b6458c-70c3-484f-bb76-778ee75922e0,On Target Air Duct Cleaners,air_duct_cleaning_service,,CA,San Francisco,94111.0,"255 California St, 294",37.79299,-122.39966,Microsoft,2025-05-23T20:46:27.027Z,0.77,7b55f4b4-7816-4b43-9e7e-7a385bea50db,,,,OpenStreetMap,2021-05-17T20:38:00.000Z,,oakland,False
bb3a4383-dc40-4697-8e5c-de4220c27b93,Target Store Hayward,department_store,"['shopping', 'grocery_store']",CA,Hayward,94544.0,2499 Whipple Rd,37.607829,-122.0626803,meta,2025-06-02T07:00:00.000Z,0.9784508333782836,c29f7b36-9c29-4e30-be63-06a35ee552b6,Target,,,OpenStreetMap,2024-07-05T10:23:43.000Z,,oakland,False
fe863160-4cd5-4843-82b2-71e253589678,Target Resources,mens_clothing_store,"['clothing_store', 'fashion']",CA,Union City,94587.0,1280 Pacific St,37.5954935,-122.0340315,meta,2025-06-02T07:00:00.000Z,0.9204819277108434,5e210251-ec4d-4ff3-93d2-16cff993b613,,,,OpenStreetMap,2011-01-03T06:02:24.000Z,,oakland,False
b40f1878-b7bd-4a03-9ff6-63e387000009,Target Alameda,department_store,"['shopping', 'grocery_store']",CA,Alameda,94501.0,2700 5th St,37.7887144,-122.2803123,meta,2025-06-02T07:00:00.000Z,0.9784508333782836,125841a4-da84-4249-86d1-9f36dea7ed44,Target,commercial,retail,OpenStreetMap,2024-12-29T00:14:37.000Z,,oakland,False
0176da89-d3ec-4a2a-a458-96ab896b770c,Target Glass & Window,windows_installation,"['glass_and_mirror_sales_service', 'home_improvement_store']",CA,Hayward,94545.0,23974 Clawiter Rd,37.6452427,-122.1197611,meta,2025-06-02T07:00:00.000Z,0.9459263554653524,8cf7ff1e-1f6a-47c4-89a4-5b3ff70b44b7,,,,OpenStreetMap,2020-09-18T19:54:28.000Z,,oakland,False
fa8e79c8-e57c-4de6-86a7-bf11f0b0b88e,CVS Pharmacy inside Target Store,online_shop,"['pharmacy', 'drugstore', 'corporate_office', 'private_establishments_and_corporates', 'retail']",CA,San Leandro,94578.0,15555 E 14th St Ste 400,37.69927,-122.12661,Microsoft,2025-04-21T14:37:15.177Z,0.77,60809881-3ed5-490d-96ee-a8b6ac44a0ca,Target,commercial,retail,OpenStreetMap,2024-07-05T10:23:43.000Z,,oakland,False
cdd55b44-3360-42ff-b9dd-a279479b0c66,Target,department_store,['retail'],CA,San Leandro,94578.0,15555 E 14th St Ste 400,37.7003134,-122.1248272,Microsoft,2025-04-29T15:42:18.180Z,0.77,,,,,,,,oakland,False
ad8524cb-b9a4-406c-a726-3fd9d299b5bd,Target,optometrist,"['health_and_medical', 'retail']",CA,Hayward,94541.0,19661 Hesperian Blvd,37.666267849659,-122.1208101511,Microsoft,2025-02-04T16:19:27.800Z,0.77,23064a00-5fc8-49f8-8bd2-d22b5c8a2cf4,Target,commercial,retail,OpenStreetMap,2025-05-27T05:42:24.000Z,,oakland,False
298e8ba5-f63e-44a0-a65d-db3f4370265f,Target,department_store,['retail'],CA,Hayward,94541.0,19661 Hesperian Blvd,37.6665375,-122.1202862,Microsoft,2025-04-29T15:30:45.793Z,0.77,,,,,,,,oakland,False
33907c66-04bc-4f03-b4d7-2d58f3ecf399,Target Store Hayward-North,department_store,"['grocery_store', 'shopping']",CA,Hayward,94541.0,19661 Hesperian Blvd,37.6662888,-122.1200844,meta,2025-06-02T07:00:00.000Z,0.9784508333782836,23064a00-5fc8-49f8-8bd2-d22b5c8a2cf4,Target,commercial,retail,OpenStreetMap,2025-05-27T05:42:24.000Z,,oakland,False
adebd664-dad0-4e77-8d9c-c18e7b7dfc0c,Target Optical,parking,"['optometrist', 'park']",CA,Oakland,94608.0,1555 40th St,37.8283871,-122.2894759,meta,2025-06-02T07:00:00.000Z,0.9784508333782836,b6aafa5f-aaf6-4d5c-9ca2-263f97f2fefd,Target,commercial,retail,OpenStreetMap,2024-10-30T08:42:12.000Z,,oakland,False
89291496-81d8-4ac5-89b4-63dd57c93872,Target Oakland-Emeryville,department_store,"['grocery_store', 'shopping']",CA,Oakland,94608.0,1555 40th St,37.8283396,-122.289147,meta,2025-06-02T07:00:00.000Z,0.9784508333782836,b6aafa5f-aaf6-4d5c-9ca2-263f97f2fefd,Target,commercial,retail,OpenStreetMap,2024-10-30T08:42:12.000Z,,oakland,False
4d37fd88-35ea-456f-b636-9b7059d9d283,Target,department_store,['retail'],CA,Oakland,94612.0,2650 Broadway,37.815255,-122.263731,Microsoft,2023-10-10T16:41:39.480Z,0.77,8cb3c1ef-a43f-44d4-8664-92b2314173de,Hanover Broadway,residential,apartments,OpenStreetMap,2024-03-05T22:01:13.000Z,,oakland,False
3611a329-36fa-46ec-9fbb-e938f018de9d,Target Berkley Univ Ave,department_store,"['grocery_store', 'retail']",CA,Berkeley,94702.0,1414 University Ave,37.8698633,-122.2837478,meta,2025-06-02T07:00:00.000Z,0.9784508333782836,70076a87-31a4-4663-8ae8-6f52feebeae7,,commercial,retail,OpenStreetMap,2020-01-12T04:55:48.000Z,,oakland,False
3611a329-36fa-46ec-9fbb-e938f018de9d,Target Berkley Univ Ave,department_store,"['grocery_store', 'retail']",CA,Berkeley,94702.0,1414 University Ave,37.8698633,-122.2837478,meta,2025-06-02T07:00:00.000Z,0.9784508333782836,1a4c8212-336a-4d59-99df-004515461bf1,Target,commercial,retail,OpenStreetMap,2024-09-30T20:56:01.000Z,,oakland,False
3611a329-36fa-46ec-9fbb-e938f018de9d,Target Berkley Univ Ave,department_store,"['grocery_store', 'retail']",CA,Berkeley,94702.0,1414 University Ave,37.8698633,-122.2837478,meta,2025-06-02T07:00:00.000Z,0.9784508333782836,64c85648-ed1c-43e6-968f-088fede44aff,,agricultural,greenhouse,OpenStreetMap,2020-01-12T04:55:48.000Z,,oakland,False
86a34306-08fe-48e6-b745-0460938c6ca4,Target Berkeley Central,department_store,"['grocery_store', 'shopping']",CA,Berkeley,94704.0,2187 Shattuck Ave,37.8695768,-122.2676855,meta,2025-06-02T07:00:00.000Z,0.9784508333782836,5e0cf790-479a-4af7-adf5-6696781b565b,,commercial,retail,OpenStreetMap,2023-03-20T04:28:12.000Z,,oakland,False
05dfbc36-85cd-4672-bb1e-f54c65233e74,Target Albany,department_store,"['shopping', 'grocery_store']",CA,Albany,94710.0,1057 Eastshore Hwy,37.8829396,-122.3067907,meta,2025-06-02T07:00:00.000Z,0.9784508333782836,f9a051c8-09a6-4f9f-ac80-657e78c3cbc5,Target,,,OpenStreetMap,2024-07-05T10:23:43.000Z,,oakland,False
105bb0d3-e092-4a3c-b93e-49da0aa489ec,CVS Pharmacy inside Target Store,online_shop,"['pharmacy', 'drugstore', 'corporate_office', 'private_establishments_and_corporates', 'retail']",CA,Albany,94710.0,1057 Eastshore Hwy,37.88278,-122.3065,Microsoft,2025-04-21T14:37:15.177Z,0.77,f9a051c8-09a6-4f9f-ac80-657e78c3cbc5,Target,,,OpenStreetMap,2024-07-05T10:23:43.000Z,,oakland,False
a513dd45-6b19-4fc4-ac7e-6e3b1923f523,Target Store Richmond,department_store,"['retail', 'furniture_store']",CA,Richmond,94805.0,4500 Macdonald Ave,37.9320856,-122.3279261,meta,2025-06-02T07:00:00.000Z,0.9784508333782836,a6b1d4ea-0232-4f69-8e73-64403f324ba3,,commercial,retail,OpenStreetMap,2022-12-13T04:20:26.000Z,,oakland,False
adf4ca82-dc5a-4c23-8bd2-b2580348bed0,CVS Pharmacy inside Target Store,online_shop,"['pharmacy', 'drugstore', 'corporate_office', 'private_establishments_and_corporates', 'retail']",CA,Richmond,94805.0,4500 Macdonald Ave,37.93215,-122.32752,Microsoft,2025-04-21T14:37:15.177Z,0.77,a6b1d4ea-0232-4f69-8e73-64403f324ba3,,commercial,retail,OpenStreetMap,2022-12-13T04:20:26.000Z,,oakland,False
d583f0a6-c416-4088-8b30-416e2f61ceb0,Target Optical,optometrist,"['eyewear_and_optician', 'parking']",CA,Walnut Creek,94596.0,1871 N Main St,37.9045754,-122.0644971,meta,2025-06-02T07:00:00.000Z,0.9784508333782836,bb892ee4-d1b4-4255-af55-d1b2e0ff5075,Target,,,OpenStreetMap,2024-07-05T10:23:43.000Z,,oakland,False
3a0952eb-714c-4e29-8119-9d32f5b9c8e5,Target Store Walnut-Creek,department_store,"['grocery_store', 'retail']",CA,Walnut Creek,94596.0,1871 N Main St,37.9051055,-122.064135,meta,2025-06-02T07:00:00.000Z,0.9784508333782836,,,,,,,,oakland,False
d68a043c-3d64-4a8e-a3f1-ac04243dbd12,Target Store Pinole,department_store,"['grocery_store', 'retail']",CA,Pinole,94564.0,1400 Fitzgerald Dr,37.9877127,-122.3097239,meta,2025-06-02T07:00:00.000Z,0.9784508333782836,,,,,,,,oakland,False
d0f0f546-745b-47b5-9df8-9287ccd704f6,CVS Pharmacy inside Target Store,online_shop,"['pharmacy', 'drugstore', 'corporate_office', 'private_establishments_and_corporates', 'retail']",CA,Pleasant Hill,94523.0,560 Contra Costa Blvd,37.97703,-122.06717,Microsoft,2025-04-21T14:37:20.877Z,0.77,44d0441a-5b29-4420-a556-bd9d5ee3231e,Target,,,OpenStreetMap,2024-07-12T03:57:54.000Z,,oakland,False
dea59590-be66-4ae2-8c72-d36c56f3b0c6,Target Store Pleasant-Hill,department_store,"['shopping', 'retail']",CA,Pleasant Hill,94523.0,560 Contra Costa Blvd,37.9772276,-122.0668997,meta,2025-06-02T07:00:00.000Z,0.9784508333782836,44d0441a-5b29-4420-a556-bd9d5ee3231e,Target,,,OpenStreetMap,2024-07-12T03:57:54.000Z,,oakland,False
1a7f1315-9593-401b-9f87-ec4de025ad38,On Target for Profitable Growth,financial_service,"['accountant', 'vitamins_and_supplements']",MO,High Ridge,63049.0,1592 Gravois Rd,38.4846321,-90.5002865,meta,2025-06-02T07:00:00.000Z,0.8831168831168831,27d1c910-6288-4cd1-ad48-41e820e27947,,,,OpenStreetMap,2017-12-15T06:15:50.000Z,,st-louis,False
16210a75-ff21-40d3-b6e3-eae35332bc97,Target Ballwin,department_store,"['grocery_store', 'shopping']",MO,Ballwin,63011.0,15025 Manchester Rd,38.5944719,-90.5474609,meta,2025-06-02T07:00:00.000Z,0.9784508333782836,,,,,,,,st-louis,False
f695e681-e6ea-48ba-a24f-94f1f5a2dcbc,Target Chesterfield,department_store,"['shopping', 'retail']",MO,Chesterfield,63005.0,40 THF Blvd,38.6667891,-90.5855633,meta,2025-06-02T07:00:00.000Z,0.9784508333782836,e837e734-9531-4439-99dc-855d6b8f2b76,,,,OpenStreetMap,2015-10-12T18:29:01.000Z,,st-louis,False
2ee53838-905e-4b4a-b3e8-0fa299c1bc03,Target Optical,optometrist,"['eyewear_and_optician', 'doctor']",MO,Fenton,63026.0,197 Gravois Bluffs Plaza Dr,38.5027334,-90.4472645,meta,2025-06-02T07:00:00.000Z,0.9784508333782836,10170317-6afd-4bf4-972c-e0d3705f4df9,,,,OpenStreetMap,2023-02-28T03:32:27.000Z,,st-louis,False
9326be57-115c-432e-9823-95ca4f45429c,Target Fenton,department_store,"['childrens_clothing_store', 'shopping']",MO,Fenton,63026.0,197 Gravois Bluffs Plaza Dr,38.5026788,-90.4470506,meta,2025-06-02T07:00:00.000Z,0.9784508333782836,10170317-6afd-4bf4-972c-e0d3705f4df9,,,,OpenStreetMap,2023-02-28T03:32:27.000Z,,st-louis,False
a6f0dc84-61a8-4acb-ac68-2a2ad9d3dee5,Target Store Kirkwood,department_store,"['grocery_store', 'shopping']",MO,Kirkwood,63122.0,1042 S Kirkwood Rd,38.5647066,-90.4047363,meta,2025-06-02T07:00:00.000Z,0.9784508333782836,,,,,,,,st-louis,False
276b99fc-c688-4b2c-99cb-69dc3f03f6a5,Target Optical,optometrist,['eyewear_and_optician'],MO,Kirkwood,63122.0,1042 S Kirkwood Rd,38.5650916,-90.4043909,meta,2025-06-02T07:00:00.000Z,0.9784508333782836,51b8d848-84f4-4ce8-8f9f-5892fff033ad,Target,,,OpenStreetMap,2025-01-19T12:35:31.000Z,,st-louis,False
938317da-f06c-451d-a381-80a910d3dc84,Target Town And Country,department_store,"['retail', 'grocery_store']",MO,Chesterfield,63017.0,1272 Town and Country Crossing Dr,38.6207723,-90.5173719,meta,2025-06-02T07:00:00.000Z,0.9784508333782836,29fc52d2-9bd4-467e-b5d1-8e371536c2d3,Target,,,OpenStreetMap,2022-06-17T04:03:05.000Z,,st-louis,False
3236887b-46e1-4ed4-9b56-14d2b7a27df1,CVS Pharmacy inside Target Store,online_shop,"['pharmacy', 'drugstore', 'corporate_office', 'private_establishments_and_corporates', 'retail']",MO,Saint Louis,63128.0,4250 Rusty Rd,38.50618,-90.33984,Microsoft,2025-04-21T14:37:15.177Z,0.77,a14d3c5c-90e9-420b-bb83-a5f2c42481c6,Target,,,OpenStreetMap,2024-08-22T07:35:16.000Z,,st-louis,False
b37ac4a3-e905-46d8-8a3a-1c89019b24a0,Target Store South-County,department_store,"['shopping', 'grocery_store']",MO,St Louis,63128.0,4250 Rusty Rd,38.5066393,-90.3392617,meta,2025-06-02T07:00:00.000Z,0.9784508333782836,a14d3c5c-90e9-420b-bb83-a5f2c42481c6,Target,,,OpenStreetMap,2024-08-22T07:35:16.000Z,,st-louis,False
5327c95e-2a1f-4cd1-a0ab-4bd2346f5b73,Target Brentwood,department_store,"['shopping', 'grocery_store']",MO,Brentwood,63144.0,25 Brentwood Promenade Ct,38.6276227,-90.3429187,meta,2025-06-02T07:00:00.000Z,0.9784508333782836,ad20b6a2-114e-498c-89d0-4444c98452d4,Target,,,OpenStreetMap,2024-07-05T10:24:12.000Z,,st-louis,False
33633877-1d88-4a0d-9964-2194060cd364,Target Store Hampton-Village,department_store,"['shopping', 'mobile_phone_store']",MO,St Louis,63109.0,4255 Hampton Ave,38.5923979,-90.295487,meta,2025-06-02T07:00:00.000Z,0.9784508333782836,89feeff4-3002-4c10-8e30-0aa4436a856c,Target - Hampton Village,,,OpenStreetMap,2024-07-05T10:24:12.000Z,,st-louis,False
344b994f-0103-4951-bcfd-27d48aaa8d01,Target Optical,optometrist,['eyewear_and_optician'],MO,St Louis,63109.0,4255 Hampton Ave,38.5924717,-90.2954224,meta,2025-06-02T07:00:00.000Z,0.9784508333782836,89feeff4-3002-4c10-8e30-0aa4436a856c,Target - Hampton Village,,,OpenStreetMap,2024-07-05T10:24:12.000Z,,st-louis,False
4a3366e0-df1f-4840-8adb-5f1cf9bf65bb,CVS Pharmacy inside Target Store,online_shop,"['pharmacy', 'drugstore', 'corporate_office', 'private_establishments_and_corporates', 'retail']",MO,Saint Louis,63109.0,4255 Hampton Ave,38.59272,-90.29555,Microsoft,2025-04-21T14:37:15.177Z,0.77,89feeff4-3002-4c10-8e30-0aa4436a856c,Target - Hampton Village,,,OpenStreetMap,2024-07-05T10:24:12.000Z,,st-louis,False
b3734601-d538-4cc6-9af1-8923bb99c1fb,CVS Pharmacy inside Target Store,online_shop,"['pharmacy', 'drugstore', 'corporate_office', 'private_establishments_and_corporates', 'retail']",MO,Brentwood,63144.0,25 Brentwood Promenade Ct,38.62796,-90.34347,Microsoft,2025-04-21T14:37:15.177Z,0.77,ad20b6a2-114e-498c-89d0-4444c98452d4,Target,,,OpenStreetMap,2024-07-05T10:24:12.000Z,,st-louis,False
9d35ec06-023d-4321-aade-103d9d68a3ea,Target Dardenne Prairie,department_store,"['grocery_store', 'shopping']",MO,Dardenne Prairie,63368.0,7955 Highway N,38.7684167,-90.7684146,meta,2025-06-02T07:00:00.000Z,0.9784508333782836,,,,,,,,st-louis,False
1938e8a1-f26e-4968-9875-3e1253268072,Target Store St-Peters,department_store,"['shopping', 'wholesale_store']",MO,St Peters,63304.0,6241 Mid Rivers Mall Dr,38.7392544,-90.6363476,meta,2025-06-02T07:00:00.000Z,0.9784508333782836,f2d98a5a-b891-452a-81c8-923604258fa1,Target,commercial,retail,OpenStreetMap,2023-12-31T01:12:53.000Z,,st-louis,False
e43bbb19-a3f4-4ed2-8289-508d8f603d42,Target Store O&Apos;Fallon,department_store,"['grocery_store', 'retail']",MO,O'Fallon,63368.0,2300 Highway K,38.77754,-90.6966621,meta,2025-06-02T07:00:00.000Z,0.9784508333782836,13c0e2f3-4873-4a80-8386-fb2759ddbd24,Target,commercial,retail,OpenStreetMap,2024-07-05T10:24:12.000Z,,st-louis,False
f5e948e0-dce8-4d00-a77a-a21d5c0d163c,CVS Pharmacy inside Target Store,online_shop,"['pharmacy', 'drugstore', 'corporate_office', 'private_establishments_and_corporates', 'retail']",MO,O Fallon,63368.0,2300 Highway K,38.77711,-90.69607,Microsoft,2025-04-21T14:37:09.187Z,0.77,13c0e2f3-4873-4a80-8386-fb2759ddbd24,Target,commercial,retail,OpenStreetMap,2024-07-05T10:24:12.000Z,,st-louis,False
08f0c908-855b-4086-bff4-515acd9ec859,Auto Target,car_dealer,"['used_car_dealer', 'auto_company']",MO,O'Fallon,63366.0,506 N Main St,38.8166795,-90.6995559,meta,2025-06-02T07:00:00.000Z,0.9784508333782836,f741c6d9-2ecd-4d77-acb9-af11b82c5527,,,,Microsoft ML Buildings,2022-08-25T00:00:00.000Z,,st-louis,False
2db66e35-8f49-448f-a3dd-f0d667358ec1,Target Store St-Charles,department_store,"['shopping', 'grocery_store']",MO,St Charles,63303.0,3881 Mexico Rd,38.7875331,-90.5626417,meta,2025-06-02T07:00:00.000Z,0.9784508333782836,75203325-5d31-463f-8bb0-91ec780bf379,Target,commercial,retail,OpenStreetMap,2024-07-05T10:51:10.000Z,,st-louis,False
c3fce2e6-8a10-4e2d-a856-e9826e17d436,Target Bridgeton,department_store,"['grocery_store', 'retail']",MO,Bridgeton,63044.0,12275 St Charles Rock Rd,38.7540692,-90.4264263,meta,2025-06-02T07:00:00.000Z,0.9784508333782836,4660e178-b072-4ca1-aa1b-695433ef88ae,,commercial,retail,OpenStreetMap,2023-07-30T16:41:14.000Z,,st-louis,False
447861aa-030a-4c2d-a1a2-fb595611c0e7,Target,optometrist,"['eye_care_clinic', 'health_and_medical']",MO,Bridgeton,63044.0,12275 St Charles Rock Rd,38.75424038532626,-90.42600971205422,Microsoft,2025-02-04T16:19:27.800Z,0.77,4660e178-b072-4ca1-aa1b-695433ef88ae,,commercial,retail,OpenStreetMap,2023-07-30T16:41:14.000Z,,st-louis,False
9b8183d5-150c-4cdd-8441-8c5f20ff3346,Target,department_store,['retail'],MO,Jennings,63136.0,8007 W Florissant Ave,38.7270515,-90.2764294,Microsoft,2015-05-15T08:55:26.027Z,0.77,,,,,,,,st-louis,False
fe565eba-3e5f-4687-8b74-c53d30a49abe,Target,department_store,['retail'],MO,Jennings,63136.0,8007 W Florissant Ave,38.7294374,-90.2734358,Microsoft,2018-12-13T22:12:53.917Z,0.77,cc945102-44b1-4a60-b0e9-0c9224ad60c9,,commercial,retail,OpenStreetMap,2020-01-20T17:21:49.000Z,,st-louis,False
cfd93905-b2d2-473f-86d4-844fa7c34aed,Target Store Florissant,department_store,"['childrens_clothing_store', 'shopping']",MO,Florissant,63033.0,2341 N US Highway 67,38.8053067,-90.3107543,meta,2025-06-02T07:00:00.000Z,0.9784508333782836,a3155dbe-fcc5-4a70-a074-e5c22b97b0d8,Target,,,OpenStreetMap,2024-01-17T03:51:07.000Z,,st-louis,False
03864c2d-9a23-41f2-b913-76634022853c,Target,department_store,['retail'],MO,Florissant,63033.0,2341 N Highway 67,38.8062866,-90.3102218,Microsoft,2025-04-29T15:29:57.430Z,0.77,,,,,,,,st-louis,False
55a5a850-46f6-4572-bc4d-fc6f1569baff,Target American Fork,department_store,"['grocery_store', 'retail']",UT,American Fork,84003.0,608 W Main St,40.3786122,-111.8154745,meta,2025-06-02T07:00:00.000Z,0.9784508333782836,eb3f2802-0a77-4389-9ea5-c9325bc9cbc3,Target,commercial,retail,OpenStreetMap,2024-07-05T10:23:43.000Z,,provo,False
82c9c30c-c439-4067-9c15-e6bec98d773a,Target,department_store,"['furniture_store', 'grocery_store']",UT,Provo,84604.0,1290 N State St,40.2516128,-111.666385,meta,2025-06-02T07:00:00.000Z,0.9784508333782836,214cd306-90d8-4f60-a968-40a3f875c458,,commercial,commercial,OpenStreetMap,2022-08-20T22:50:20.000Z,,provo,False
2a8c1da4-0c2a-41c6-bd17-b912234b3ec4,Ulta Beauty at Target,cosmetic_and_beauty_supplies,"['beauty_and_spa', 'beauty_salon']",UT,Provo,84601.0,1200 Towne Centre Blvd,40.2154387,-111.6628754,meta,2025-06-02T07:00:00.000Z,0.9300613496932516,9f39652b-e8db-4b26-b20d-d5f5950b51a1,Target,commercial,retail,OpenStreetMap,2025-05-11T00:10:16.000Z,,provo,False
f9a60c15-3f38-4a1b-9ac4-9b610be314f1,Target,retail,,UT,Provo,84601.0,"1200 Towne Centre Blvd, Spc A",40.2178032,-111.6622981,Microsoft,2025-04-29T16:07:55.323Z,0.77,,,,,,,,provo,False
83c3c7ae-2498-43fe-b1d9-ef9d14dbf629,Target Store Orem-State-Street,department_store,"['grocery_store', 'shopping']",UT,Orem,84057.0,175 W Center St,40.2956252,-111.6991914,meta,2025-06-02T07:00:00.000Z,0.9784508333782836,7f47de75-2097-4a2a-97fb-856acae8adda,Target,,,OpenStreetMap,2024-07-05T10:51:10.000Z,,provo,False
77abd9db-ba93-404e-b2cb-ebbe4647ec89,"Target Clinic, care provided by Kaiser Permanente - Palm Desert",medical_center,['health_and_medical'],CA,Palm Desert,92260.0,72549 California 111,33.72368,-116.40335,Microsoft,2025-05-06T19:31:39.930Z,0.77,e6b6aa82-16ae-4e6a-a404-5d89be8b2664,Target,commercial,retail,OpenStreetMap,2024-09-04T11:36:28.000Z,,indio,False
505a0ff3-0ef3-40f4-be4b-747993fff746,Target Store Palm-Desert,department_store,"['grocery_store', 'furniture_store']",CA,Palm Desert,92260.0,72549 CA-111,33.7241004,-116.4034051,meta,2025-06-02T07:00:00.000Z,0.9784508333782836,e6b6aa82-16ae-4e6a-a404-5d89be8b2664,Target,commercial,retail,OpenStreetMap,2024-09-04T11:36:28.000Z,,indio,False
27834414-cc07-4aaa-a6b6-2a8de97ef8a3,Target Store La-Quinta,department_store,"['wholesale_store', 'childrens_clothing_store']",CA,La Quinta,92253.0,78935 Highway 111,33.7085358,-116.28961,meta,2025-06-02T07:00:00.000Z,0.9784508333782836,,,,,,,,indio,False
6a830869-378b-4750-8590-7aaf3250e75b,Target,department_store,"['grocery_store', 'retail']",CA,Indio,0.0,,33.7402235,-116.2178421,meta,2025-06-02T07:00:00.000Z,0.2456896551724137,,,,,,,,indio,False
0392610b-8158-4cda-9ce9-a3388e9575b4,Target,department_store,['retail'],CA,Indio,92203.0,42625 Jackson St,33.740253,-116.2176,Microsoft,2018-12-13T22:12:38.667Z,0.77,,,,,,,,indio,False
1b6f1f0a-6698-4c18-b818-5481e5d44570,Target Palm Springs,department_store,"['shopping', 'retail']",CA,Cathedral City,92234.0,67750 Highway 111,33.7895766,-116.4813897,meta,2025-06-02T07:00:00.000Z,0.9784508333782836,30f4d6f6-bafb-402b-9134-4ec0f46acc05,Target,,,OpenStreetMap,2024-07-05T10:23:43.000Z,,indio,False
83b6a99a-540f-4590-bf84-48cc9b9843c1,CVS Pharmacy inside Target Store,online_shop,"['pharmacy', 'drugstore', 'corporate_office', 'private_establishments_and_corporates', 'retail']",CA,Cathedral City,92234.0,67750 E Palm Canyon Dr,33.78985,-116.48079,Microsoft,2025-04-21T14:37:20.877Z,0.77,30f4d6f6-bafb-402b-9134-4ec0f46acc05,Target,,,OpenStreetMap,2024-07-05T10:23:43.000Z,,indio,False
ed0b3007-3aa0-4ad3-a447-85e743a47749,Target Dickson City,shopping,"['department_store', 'retail']",PA,Dickson City,18519.0,1140 Commerce Blvd,41.4671824,-75.6390312,meta,2025-06-02T07:00:00.000Z,0.9784508333782836,e43afe72-ab2b-44ba-9b5b-d00c82a34f5e,Target,commercial,retail,OpenStreetMap,2024-07-05T10:24:35.000Z,,scranton,False
af6c196e-8137-46a3-92af-96813a0be6d9,Target,optometrist,"['health_and_medical', 'retail']",PA,Dickson City,18519.0,1140 Commerce Blvd,41.4675967503424,-75.638934933304,Microsoft,2025-02-28T07:46:10.890Z,0.77,e43afe72-ab2b-44ba-9b5b-d00c82a34f5e,Target,commercial,retail,OpenStreetMap,2024-07-05T10:24:35.000Z,,scranton,False
7b477592-55bb-49e4-9eb1-9fe038ab2d37,CVS Pharmacy inside Target Store,online_shop,"['pharmacy', 'drugstore', 'corporate_office', 'private_establishments_and_corporates', 'retail']",PA,Dickson City,18519.0,1140 Commerce Blvd,41.46765,-75.63881,Microsoft,2025-04-21T14:37:15.177Z,0.77,e43afe72-ab2b-44ba-9b5b-d00c82a34f5e,Target,commercial,retail,OpenStreetMap,2024-07-05T10:24:35.000Z,,scranton,False
2a0a1cb1-9d76-47a0-8553-94bb4a488724,Target,department_store,"['shopping', 'retail']",PA,Dickson City,18519.0,102 Glenstone Rd,41.47495,-75.61718,meta,2025-06-02T07:00:00.000Z,0.3961437335670464,09c12dd2-0fa1-491f-93d5-093dee7c7833,,,,Microsoft ML Buildings,2022-06-05T00:00:00.000Z,,scranton,False
d8280837-1600-4f04-ac4c-7a5831ce471b,Target,department_store,"['furniture_store', 'retail']",CA,Daly City,94015.0,100 Westlake Ctr,37.7003261,-122.4828858,meta,2025-06-02T07:00:00.000Z,0.9784508333782836,e45bfcc4-4b60-4ebb-a13f-f09c392439ab,,,,OpenStreetMap,2023-07-11T17:04:02.000Z,,san-francisco,False
abb6a77b-a124-4f5a-b3a2-9cd668a97688,Target,department_store,['retail'],CA,Daly City,94015.0,100 Westlake Ctr,37.7014569,-122.4833489,Microsoft,2025-04-29T15:23:12.677Z,0.77,,,,,,,,san-francisco,False
2f72e372-ac84-4395-b019-da66952d89f5,Target Optical,eyewear_and_optician,"['optometrist', 'eye_care_clinic']",CA,Daly City,94015.0,133 Serramonte Ctr,37.67056,-122.4708991,meta,2025-06-02T07:00:00.000Z,0.9784508333782836,346b103d-2c29-46f0-b836-28802dafff39,Target,commercial,retail,OpenStreetMap,2024-07-05T10:23:43.000Z,,san-francisco,False
4b918aee-c6dc-415f-aa2e-ce78c3be5e77,CVS Pharmacy inside Target Store,online_shop,"['pharmacy', 'drugstore', 'corporate_office', 'private_establishments_and_corporates', 'retail']",CA,Daly City,94015.0,133 Serramonte Ctr,37.67062,-122.47081,Microsoft,2025-04-21T14:37:09.187Z,0.77,346b103d-2c29-46f0-b836-28802dafff39,Target,commercial,retail,OpenStreetMap,2024-07-05T10:23:43.000Z,,san-francisco,False
557dc7a9-0b2e-4ede-add0-37707c31f5a7,Target Daly City Serramonte,department_store,"['grocery_store', 'shopping']",CA,Daly City,94015.0,133 Serramonte Ctr,37.670668,-122.4705284,meta,2025-06-02T07:00:00.000Z,0.9784508333782836,346b103d-2c29-46f0-b836-28802dafff39,Target,commercial,retail,OpenStreetMap,2024-07-05T10:23:43.000Z,,san-francisco,False
3e2c819b-8c74-4cf8-99ae-134f189a5b74,Target Colma,department_store,"['shopping', 'grocery_store']",CA,Colma,94014.0,5001 Junipero Serra Blvd,37.6736083,-122.4649038,meta,2025-06-02T07:00:00.000Z,0.9784508333782836,0b32ce72-e7ac-44ca-bf99-ff0dde7622f2,Target,commercial,retail,OpenStreetMap,2024-01-17T09:57:54.000Z,,san-francisco,False
6cab57f9-1728-4855-bbf0-a9d237b0d1a0,CVS Pharmacy inside Target Store,convenience_store,"['online_shop', 'pharmacy', 'drugstore', 'retail']",CA,Colma,94014.0,5001 Junipero Serra Blvd,37.67373,-122.46416,Microsoft,2025-04-21T14:37:20.877Z,0.77,0b32ce72-e7ac-44ca-bf99-ff0dde7622f2,Target,commercial,retail,OpenStreetMap,2024-01-17T09:57:54.000Z,,san-francisco,False
