id_left,primary_name_left,primary_category,alternate_category,region,locality,zipcode,address,latitude,longitude,plc_source_dataset,plc_source_update_time,plc_source_confidence,id_right,primary_name_right,subtype,class,bldg_dataset,bldg_update_time,bldg_confidence,source_city,is_office_by_pipeline
84696eb9-2691-432b-9235-6168e9ff4b34,Deep Waters Church Corona,religious_organization,['church_cathedral'],CA,Corona,92883.0,4160 Temescal Canyon Rd,33.8187395,-117.5084136,meta,2025-06-02T07:00:00.000Z,0.9784508333782836,7e8c3910-3b76-4971-a87b-51115129fde4,,commercial,commercial,OpenStreetMap,2022-01-10T03:37:23.000Z,,riverside-san-bernardino,False
41067f1a-3efb-4aa9-83cf-e0c38eb46195,Blue Waters Day Spa,spas,"['beauty_salon', 'beauty_and_spa']",CA,Montclair,91763.0,5050 Palo Verde St,34.081727,-117.69521,meta,2025-06-02T07:00:00.000Z,0.5662921348314607,f60b42c7-fb1a-4d78-b1f0-ea0b7093392a,,,,OpenStreetMap,2017-03-13T07:13:42.000Z,,riverside-san-bernardino,False
830f4d21-533f-481d-b7b0-8b351fc4d091,Living Waters of Chino,church_cathedral,['pentecostal_church'],CA,Chino,91710.0,6010 Walnut Ave,34.0270636,-117.6735649,meta,2025-06-02T07:00:00.000Z,0.9784508333782836,912945b4-30e7-4830-8ef9-c21ecc25116a,,,,Microsoft ML Buildings,2021-02-06T00:00:00.000Z,,riverside-san-bernardino,False
6fbffa23-67e2-43ba-8138-2f23918c1082,Blue Waters Pool Services Upland,swimming_pool,['active_life'],CA,Upland,91786.0,222 N Mountain Ave 10,34.096282,-117.669632,Microsoft,2019-06-11T16:49:44.580Z,0.77,60a5d606-7368-4da8-801e-07924b9f6495,,,,OpenStreetMap,2021-10-05T20:20:05.000Z,,riverside-san-bernardino,False
05407176-5089-45c8-91a8-137065ca38ce,Waters Edge Wineries,wine_bar,"['winery', 'liquor_store']",CA,Rancho Cucamonga,91730.0,8560 Vineyard Ave,34.0983622,-117.6122612,meta,2025-06-02T07:00:00.000Z,0.9784508333782836,,,,,,,,riverside-san-bernardino,False
1c880a48-1029-47d8-b35c-1ba787314200,"VBCI - Living Waters Sanctuary, CA, Ontario",church_cathedral,,CA,Ontario,91764.0,2930 Inland Empire Blvd,34.0691817,-117.588896,meta,2025-06-02T07:00:00.000Z,0.3961437335670464,,,,,,,,riverside-san-bernardino,False
03708d29-134c-43dc-ac54-440ca0fb3205,Living Waters Ministry Church of God in Christ,church_cathedral,['religious_organization'],CA,Fontana,92335.0,13710 Arrow Blvd,34.0993982,-117.5056628,meta,2025-06-02T07:00:00.000Z,0.9784508333782836,b0aaae08-302f-4efc-af10-fffcb3432d60,,,,Microsoft ML Buildings,2020-11-15T00:00:00.000Z,,riverside-san-bernardino,False
da6a1e5c-a6b4-4c85-9e04-487109139ad8,Living Waters Hospice,hospice,"['home_health_care', 'hospital']",CA,March Air Reserve Base,92518.0,22300 Van Buren Blvd,33.8886265,-117.2795276,meta,2025-06-02T07:00:00.000Z,0.9415384615384615,43783f21-a46b-404f-adc3-2a4bccb1f98b,,,,OpenStreetMap,2022-12-17T03:55:08.000Z,,riverside-san-bernardino,False
c114bb79-aa08-4846-902d-a5d4770b3004,Glacier Pure Drinking Waters,bottled_water_company,['water_treatment_equipment_and_services'],CA,Jurupa Valley,92509.0,2906 Rubidoux Blvd,34.0067071,-117.3982848,meta,2025-06-02T07:00:00.000Z,0.9784508333782836,caafcc67-87fa-4f8a-a0c5-1a72980ad1a3,,,,OpenStreetMap,2023-01-22T22:15:58.000Z,,riverside-san-bernardino,False
23c21479-7c8f-443c-a63e-40734a283339,Waters Commercial Contractors,contractor,['professional_services'],CA,Riverside,92507.0,15 Commercial Ave,34.0192321,-117.334413,meta,2025-06-02T07:00:00.000Z,0.9415384615384615,,,,,,,,riverside-san-bernardino,False
cd04c9c8-e525-4219-b06e-7cd5ac5d58ed,Living Waters Church,church_cathedral,['evangelical_church'],CA,San Bernardino,92408.0,1192 E Davidson St,34.0701811,-117.2600568,meta,2025-06-02T07:00:00.000Z,0.9784508333782836,7d84d910-f57f-48ac-b349-3ba846971426,,,,Microsoft ML Buildings,2020-11-15T00:00:00.000Z,,riverside-san-bernardino,False
ef331a2c-a86f-427d-938f-ec07dd3c803f,Loma Linda Waters,eat_and_drink,"['bottled_water_company', 'food_beverage_service_distribution']",CA,Loma Linda,92354.0,25680 Barton Rd,34.0492702,-117.2441201,meta,2025-06-02T07:00:00.000Z,0.9459263554653524,b320a44d-edc0-43cd-992b-bfb9fa16c5bd,,,,OpenStreetMap,2017-08-03T06:39:30.000Z,,riverside-san-bernardino,False
249e45de-a290-4aaf-9074-891605c5fde0,Soul Waters Run Deep Center,religious_organization,['church_cathedral'],CA,San Bernardino,92411.0,1505 W Highland Ave,34.135613,-117.3187954,meta,2025-06-02T07:00:00.000Z,0.5662921348314607,b82cf11d-9f4f-401f-9c57-95269968552a,,,,OpenStreetMap,2020-02-18T06:31:40.000Z,,riverside-san-bernardino,False
3ec481f7-ef7e-4773-9794-1c5e04be307c,Farmers Insurance - Rachel Waters,auto_insurance,,UT,South Jordan,84095.0,3712 W Azara Ln,40.54514,-111.97971,Microsoft,2025-05-23T10:39:26.233Z,0.77,4f3bd63f-a384-495e-9c98-b1c0e3188686,,,,OpenStreetMap,2022-02-14T16:14:40.000Z,,salt-lake-city,False
846734b5-0849-4f51-886c-63ea5726d462,Falling Waters Day Spa & Salon,spas,"['beauty_salon', 'beauty_and_spa']",UT,Draper,84020.0,1101 E Draper Pkwy,40.5289448,-111.8591967,meta,2025-06-02T07:00:00.000Z,0.9784508333782836,c97e2ec4-dce8-44df-8761-90854f55d84e,,,,OpenStreetMap,2025-04-09T05:03:21.000Z,,salt-lake-city,False
ba52dafe-11eb-44a9-b205-f9815551ddcf,Living Waters Counseling,counseling_and_mental_health,"['psychologist', 'professional_services']",UT,Murray,84107.0,5296 S Commerce Dr,40.6557434,-111.9002347,meta,2025-06-02T07:00:00.000Z,0.909823677581864,ccaa4b40-8c07-4b51-8139-6b43c0ba7497,,,,OpenStreetMap,2023-05-10T04:31:23.000Z,,salt-lake-city,False
a2736761-0920-47f4-b0fc-019862f9f995,"Brenton G. Waters, PA-C",neurologist,"['physician_assistant', 'doctor', 'health_and_medical']",UT,Murray,84107.0,5171 Cottonwood St Bldg 1 Ste 810,40.65830210000001,-111.891588,Microsoft,2024-04-06T06:23:50.880Z,0.77,2834be80-c62a-40dc-930a-82ad2ec27922,South Office Building,medical,hospital,OpenStreetMap,2023-05-08T02:28:48.000Z,,salt-lake-city,False
1172b315-e49c-47b7-b48b-d85dbc659640,Raging Waters,sports_and_recreation_venue,"['active_life', 'bar']",UT,Salt Lake City,84104.0,1200 W 1700 S,40.7330833,-111.9250664,meta,2025-06-02T07:00:00.000Z,0.3961437335670464,,,,,,,,salt-lake-city,False
3c6bf7c7-38a3-4697-af7f-9adf226e516f,Living Waters International,religious_organization,['church_cathedral'],UT,Salt Lake City,84115.0,355 W Bugatti Dr,40.7212496,-111.9005848,meta,2025-06-02T07:00:00.000Z,0.3376623376623376,,,,,,,,salt-lake-city,False
c0d33ceb-7fab-4a44-ba09-01552a07859e,Wild Waters Soapery,beauty_and_spa,"['aromatherapy', 'beauty_salon']",UT,Salt Lake City,84105.0,727 E Kensington Ave,40.736509,-111.8701455,meta,2025-06-02T07:00:00.000Z,0.8831168831168831,853cca5a-e577-460e-b728-4b85c25cc14f,,residential,house,OpenStreetMap,2018-03-30T06:28:11.000Z,,salt-lake-city,False
a16e090a-eb09-4aa9-afa6-3f301944c298,Jim Waters Corporation,building_supply_store,"['hardware_store', 'construction_services']",NY,Albany,12205.0,6 Brown Rd,42.7012053,-73.8260036,meta,2025-06-02T07:00:00.000Z,0.9300613496932516,138cfbb3-a4d9-40c5-9d46-b6ede998eb8f,,,,OpenStreetMap,2019-01-17T18:08:49.000Z,,albany,True
e498c22a-260c-45b1-a73c-1800f0c104cb,Jodi Waters REMAX Platinum,real_estate_agent,['real_estate'],NY,Troy,12180.0,52 N Greenbush Rd,42.6928932,-73.6871844,meta,2025-06-02T07:00:00.000Z,0.4929396662387676,,,,,,,,albany,False
5492c51c-c197-4410-bb04-ccab632e3dfe,Jim Waters,professional_services,"['commercial_industrial', 'industrial_company']",NY,Latham,12110.0,10 Hemlock St,42.735979,-73.794117,meta,2025-06-02T07:00:00.000Z,0.4929396662387676,adc2e520-7bac-40f9-97fe-5a66e361470d,,,,Microsoft ML Buildings,2021-11-08T00:00:00.000Z,,albany,False
a0e6e7b5-6340-4c16-8ae0-289bb55feaa2,"Peter M. Waters, MD",doctor,['health_and_medical'],NC,Winston-Salem,27103.0,131 Miller St,36.0915358,-80.2732899,Microsoft,2024-01-30T09:46:18.253Z,0.77,5502756e-e8a0-4c60-9d17-6bf60c2bff5a,,transportation,parking,OpenStreetMap,2023-04-07T07:56:31.000Z,,winston-salem,False
da6c95a8-f3f0-46f1-bfb7-c1888d9c4d20,Maureen Waters Real Estate,real_estate,['real_estate_agent'],AZ,Phoenix,85048.0,1345 E Chandler Blvd,33.30497,-112.05319,meta,2025-06-02T07:00:00.000Z,0.3376623376623376,3a1355e8-3685-4878-8f00-3741ee4ddd10,,,,OpenStreetMap,2013-01-30T03:06:18.000Z,,phoenix,False
6d205931-9416-4a20-a1fe-cb5d4801932f,Aquaman Pools - Pool Service Gilbert (formerly Tropical Waters),pool_and_hot_tub_services,,AZ,Gilbert,85233.0,1035 N McQueen Rd Ste 123,33.370336,-111.8234467,Microsoft,2024-06-12T17:47:47.810Z,0.77,21fbe107-a5f7-41bc-bdfe-f3de2fc0b701,,,,OpenStreetMap,2021-05-29T16:43:09.000Z,,phoenix,False
61e961da-4bf1-4459-a603-c165e251c12e,Natural Healing Waters Colon Hydrotherapy,spas,"['health_and_medical', 'aromatherapy']",AZ,Goodyear,85395.0,14535 W Indian School Rd,33.4859011,-112.3722438,meta,2025-06-02T07:00:00.000Z,0.9300613496932516,0ba3a6db-53de-4d57-99e0-755636438ae8,,,,OpenStreetMap,2023-04-26T03:32:46.000Z,,phoenix,False
6ee95fc7-5834-4560-9ef2-320e96088c91,Whispering Waters Assisted,retirement_home,['professional_services'],AZ,Youngtown,85363.0,11596 W Purdue Ave,33.5730161,-112.3091777,meta,2025-06-02T07:00:00.000Z,0.9297091412742382,2f9964b2-4098-462e-9e43-7da949429849,,,,OpenStreetMap,2023-04-01T23:04:40.000Z,,phoenix,False
05af7e87-b548-44b2-a775-1d5916873360,Living Waters Pool Service and Repair,pool_cleaning,['home_service'],AZ,Peoria,85381.0,8201 W Country Gables Dr,33.6206631,-112.2355597,meta,2025-06-02T07:00:00.000Z,0.8860580325548478,,,,,,,,phoenix,False
d1e84da3-d0f2-4472-86cb-8572292b0650,Waters Aesthetics,skin_care,"['beauty_salon', 'hair_removal']",AZ,Phoenix,85016.0,3115 E Indian School Rd,33.4940957,-112.0145693,meta,2025-06-02T07:00:00.000Z,0.9784508333782836,0023d152-cac0-46b1-8919-4cb211b27006,,,,OpenStreetMap,2022-04-28T19:33:11.000Z,,phoenix,False
228455bd-a785-44bf-984b-f0c0c64c817a,Joan Waters Design,art_gallery,['arts_and_entertainment'],AZ,Tempe,85281.0,2141 E Cedar St,33.4118262,-111.894437,meta,2025-06-02T07:00:00.000Z,0.8860580325548478,645a9868-f058-48c1-bf69-b030467977a2,,,,OpenStreetMap,2021-01-14T21:19:42.000Z,,phoenix,False
becdb1e2-471b-4483-bd29-782d3ea62ccb,Round House Cafe at Two Waters,cafe,"['restaurant', 'indian_restaurant']",AZ,Scottsdale,85256.0,10047 E Osborn Rd,33.4862991,-111.8641236,meta,2025-06-02T07:00:00.000Z,0.9784508333782836,1e384096-6450-46ff-a6a1-e14339e1fb95,,,,OpenStreetMap,2023-07-02T20:51:33.000Z,,phoenix,False
05fafaa8-4ab5-4e1d-88fe-d7030f64a4a4,Waters Business Consulting Group,professional_services,,AZ,Scottsdale,85251.0,7272 E Indian School Rd,33.4955722,-111.9242104,meta,2025-06-02T07:00:00.000Z,0.9204819277108434,,,,,,,,phoenix,False
c4fd24c9-0b39-4269-97b1-137164dbe29e,Two Waters,event_planning,"['central_government_office', 'town_hall']",AZ,Scottsdale,85256.0,10005 E Osborn Rd,33.4864597,-111.8636653,meta,2025-06-02T07:00:00.000Z,0.7548172757475083,418c9998-bc75-4fc9-8325-b604fbd50c72,Two Waters Building B,,,OpenStreetMap,2023-07-02T20:51:33.000Z,,phoenix,True
1e613e7a-d3ed-4246-a8c2-e9e87a66244b,Living Waters Romanian Church,church_cathedral,,AZ,Phoenix,85029.0,3720 W Sweetwater Ave,33.6036336,-112.1389206,meta,2025-06-02T07:00:00.000Z,0.9459263554653524,,,,,,,,phoenix,False
fac1e302-7eb1-479d-a6b0-87b92dbafb12,Neptune's Waters,ice_cream_shop,"['bottled_water_company', 'smoothie_juice_bar']",AZ,Phoenix,85310.0,23425 N 39th Dr,33.6988923,-112.142123,meta,2025-06-02T07:00:00.000Z,0.9459263554653524,31fa1d66-3202-48b1-8602-a67c359a9c65,,commercial,retail,OpenStreetMap,2024-12-31T16:25:21.000Z,,phoenix,False
382f7367-5600-43e5-a5d9-25160145f301,Tribal Waters LLC,contractor,"['pool_cleaning', 'construction_services']",AZ,Phoenix,85027.0,2630 W Deer Valley Rd,33.6841128,-112.1171052,meta,2025-06-02T07:00:00.000Z,0.9300613496932516,ea9cc1f6-430b-4809-856d-a3c870124ea4,,commercial,commercial,OpenStreetMap,2023-06-16T02:16:58.000Z,,phoenix,False
f9851a15-2cf7-4ce1-bfb0-09b025ae85fe,Tribal Waters Custom Pools,hot_tubs_and_pools,"['pool_and_hot_tub_services', 'retail']",AZ,Phoenix,85027.0,2630 W Deer Valley Rd,33.6831295,-112.09713,Microsoft,2025-05-07T18:22:14.923Z,0.77,9f33b077-cc43-45c3-af91-ee4acc52f7b2,,commercial,commercial,OpenStreetMap,2020-11-20T04:55:34.000Z,,phoenix,False
9e3b3b70-346d-45bc-ad42-6c75b996428e,"Sonoran Waters Custom Pool & Spa, LLC",landscape_architect,"['landscaping', 'pool_and_hot_tub_services', 'retail']",AZ,Scottsdale,85254.0,6621 E Hearn Rd,33.6147397,-111.9377386,Microsoft,2025-05-03T22:42:37.360Z,0.77,a759f112-1392-43ed-a796-9d31096452b6,,residential,house,OpenStreetMap,2020-07-23T03:42:33.000Z,,phoenix,False
7c957e91-27b9-461e-ab95-737730b09163,Waters and Co Salon,hair_salon,"['beauty_and_spa', 'beauty_salon']",AZ,Scottsdale,85260.0,8664 E Shea Blvd,33.5850422,-111.8937195,meta,2025-06-02T07:00:00.000Z,0.9784508333782836,5466285e-3203-4b16-b02f-131ec74a1574,,,,OpenStreetMap,2023-03-20T02:33:02.000Z,,phoenix,False
a8004a0a-e3ce-4d2f-ba2f-e1fb1aaf0a46,Tranquil Waters Med Spa,medical_spa,"['health_and_medical', 'massage']",AZ,Gilbert,85298.0,6510 S Higley Rd,33.2319253,-111.7211546,meta,2025-06-02T07:00:00.000Z,0.9784508333782836,4ceee2cd-2cf6-4ca0-b84f-c032470db085,,commercial,retail,OpenStreetMap,2024-02-19T12:56:32.000Z,,phoenix,False
c5ce3b11-798a-42e1-9f98-6b95d5cd0e9d,Lisa Waters Realtor,real_estate_agent,"['professional_services', 'real_estate']",AZ,Queen Creek,85142.0,22243 S Ellsworth Rd,33.2860849,-111.757284,meta,2025-06-02T07:00:00.000Z,0.9204819277108434,6fc1e784-4229-4d7d-a2d0-7b7944cec890,,,,OpenStreetMap,2023-07-11T03:56:14.000Z,,phoenix,False
80265740-4afb-46a0-a265-94a2cbc6110a,Creative Custom Waters Pools,pool_cleaning,"['active_life', 'swimming_pool']",AZ,Queen Creek,85142.0,21176 E Nightingale Rd,33.2569444,-111.6267511,meta,2025-06-02T07:00:00.000Z,0.8540983606557377,afb95d73-5e2b-4bb4-9d8e-e12f7e25f99d,,residential,house,OpenStreetMap,2022-02-18T23:40:01.000Z,,phoenix,False
406d1bac-a173-4cd0-a6e6-bf383c20ea56,Living Waters Bible Church,church_cathedral,['religious_organization'],AZ,San Tan Valley,85140.0,39731 N Kennedy Dr,33.2400676,-111.573645,meta,2025-06-02T07:00:00.000Z,0.9784508333782836,,,,,,,,phoenix,False
19cd566a-4926-4a14-a0b3-f6920359453a,The Waters at Chenal,accommodation,"['landmark_and_historical_building', 'real_estate']",AR,Little Rock,72211.0,13500 Chenal Pkwy,34.75749,-92.42408,meta,2025-06-02T07:00:00.000Z,0.9784508333782836,,,,,,,,little-rock,False
8629c94a-4c53-4486-89e4-7d0b5b1faf07,"The Waters Team, Realtors",real_estate,['real_estate_agent'],AR,Little Rock,72227.0,10020 N Rodney Parham Rd,34.76599,-92.38577,meta,2025-06-02T07:00:00.000Z,0.3961437335670464,,,,,,,,little-rock,False
5e1c6f94-2455-4510-a8c0-b63d34153dc0,Charles Clary Waters House,landmark_and_historical_building,"['real_estate', 'fountain']",AR,Little Rock,0.0,,34.7283333,-92.2936111,meta,2025-06-02T07:00:00.000Z,0.4929396662387676,,,,,,,,little-rock,False
d44a611c-57e6-4a56-9ece-1d9cac870ba6,The Waters of North Little Rock,retirement_home,"['health_and_medical', 'hospital']",AR,North Little Rock,72114.0,2501 John Ashley Dr,34.779491,-92.290861,meta,2025-06-02T07:00:00.000Z,0.7548172757475083,9fd98e7d-1ba3-49a1-b5e9-4a029438ba5d,,,,Microsoft ML Buildings,2022-05-29T00:00:00.000Z,,little-rock,False
ed2139c8-adee-4272-83d1-0c4e0cf60a74,Waters Temple Church Of God In Christ,church_cathedral,['catholic_church'],AR,Little Rock,72206.0,2615 Cumberland St,34.722976,-92.271342,meta,2025-06-02T07:00:00.000Z,0.7548172757475083,9418e16f-8d85-4c4b-b371-d662343e0141,,,,Microsoft ML Buildings,2022-05-29T00:00:00.000Z,,little-rock,False
839c75db-d5c8-4c07-acfc-05414db4b86f,Still Waters Church,religious_organization,['church_cathedral'],IN,Camby,46113.0,10740 E County Road 700 S,39.6634276,-86.3324137,meta,2025-06-02T07:00:00.000Z,0.7548172757475083,,,,,,,,indianapolis,False
9eee0ee1-e808-4980-8800-9e1791fc5f46,Nestle Waters North America,professional_services,"['public_service_and_government', 'bottled_water_company']",IN,Greenwood,46143.0,900 Commerce Parkway West Dr,39.6054903,-86.0651108,meta,2025-06-02T07:00:00.000Z,0.9784508333782836,,,,,,,,indianapolis,False
99d69b85-c5c1-4316-b6e7-5e41588c53e1,Nestle Waters North America,bottled_water_company,"['eat_and_drink', 'train_station']",IN,Greenwood,46143.0,125 Airport Pkwy,39.617206,-86.088441,meta,2025-06-02T07:00:00.000Z,0.3961437335670464,779edbbe-841d-40b2-8fdb-4a87f4015653,,,,OpenStreetMap,2019-01-04T15:19:47.000Z,,indianapolis,False
9d9c85d7-0de5-4a19-a901-fc25f874b39d,The Waters of Indianapolis,retirement_home,"['medical_service_organizations', 'health_and_medical']",IN,Indianapolis,46227.0,3895 S Keystone Ave,39.7099299,-86.1197363,meta,2025-06-02T07:00:00.000Z,0.9784508333782836,7926faed-b786-42c6-a47b-fabcbf1c8d3e,,,,OpenStreetMap,2022-02-21T02:29:31.000Z,,indianapolis,False
9de88838-92b0-434b-b173-ba1fb54253dd,Carter Waters Material,construction_services,,IN,Indianapolis,46218.0,3201 E Roosevelt Ave,39.79752,-86.11098,meta,2025-06-02T07:00:00.000Z,0.5662921348314607,53ccd8d5-d816-491e-b194-b9fecacca83a,White Cap,,,OpenStreetMap,2023-07-26T16:00:15.000Z,,indianapolis,False
2d670436-8f3a-40fd-ae59-c5778b7c342d,Cleansing Waters Holistic Health,naturopathic_holistic,"['spas', 'health_and_medical']",IN,Indianapolis,46219.0,1201 N Post Rd,39.8829974,-86.0753607,meta,2025-06-02T07:00:00.000Z,0.5662921348314607,32e612e8-4e08-43e5-ae03-740a3b626b68,,commercial,retail,OpenStreetMap,2024-07-30T15:15:58.000Z,,indianapolis,False
563d1590-dd29-4adf-9e69-0fd9eafa74f6,Still Waters Adult Day Center,social_service_organizations,"['senior_citizen_services', 'professional_services']",IN,Indianapolis,46256.0,7160 Shadeland Sta,39.8844736,-86.0431552,meta,2025-06-02T07:00:00.000Z,0.9784508333782836,10bcadb4-3e9b-44c7-9549-c4372ee94c75,,,,OpenStreetMap,2013-08-23T13:11:18.000Z,,indianapolis,False
4890e7d3-d6f9-4734-8964-a33fab85880d,Cleansing Waters Wellness Center,medical_spa,"['health_consultant', 'doctor', 'spas', 'active_life', 'beauty_and_spa', 'health_and_medical']",IN,Indianapolis,46256.0,8004 Hague Rd,39.9003003,-86.0333609,Microsoft,2020-02-06T22:35:02.713Z,0.77,f046cb4a-3fd9-4b8e-bdc7-b613e6f7382c,,residential,house,OpenStreetMap,2022-02-02T00:53:20.000Z,,indianapolis,False
9aece4ae-96da-4b34-b332-0c3049a71810,Laura Waters and Wellbaum Real Estate,real_estate_agent,"['real_estate', 'pediatrician']",IN,Indianapolis,46240.0,8500 Keystone Xing,39.9119377,-86.1111394,meta,2025-06-02T07:00:00.000Z,0.8384615384615385,,,,,,,,indianapolis,False
37543a01-c985-41bc-86bc-05fc42e557f2,Still Waters Spa,spas,"['massage_therapy', 'massage']",IN,Indianapolis,46240.0,2805 E 96th St,39.926212,-86.1171115,meta,2025-06-02T07:00:00.000Z,0.909823677581864,051abb17-2591-4eac-9470-48b741085d3d,,,,OpenStreetMap,2012-12-04T13:35:41.000Z,,indianapolis,False
39de49b8-eb81-4404-b866-f84d362d90fe,The Waters of Indiana,retirement_home,"['accommodation', 'health_and_medical']",IN,Carmel,46032.0,2325 Pointe Pkwy,39.955325,-86.116624,meta,2025-06-02T07:00:00.000Z,0.3961437335670464,64c8c323-61ac-4178-84a1-56ede2bb3a69,,commercial,retail,OpenStreetMap,2018-09-16T22:16:05.000Z,,indianapolis,False
08b7cd3e-5d1e-4e19-8d48-2d717d7baa77,The Waters of Castleton,retirement_home,['hospital'],IN,Indianapolis,46256.0,8400 Clearvista Pl,39.911724,-86.0398202,meta,2025-06-02T07:00:00.000Z,0.9784508333782836,6c8f5daa-440f-4e0a-b9bf-6c74073fddd5,,,,OpenStreetMap,2022-01-07T18:46:04.000Z,,indianapolis,False
fd382947-0391-40ed-8bbb-d59e35fa3343,Prairie Waters Event Center,venue_and_event_space,,IN,Westfield,46062.0,4180 Westfield Rd,40.043298,-86.101749,Microsoft,2025-05-21T15:07:55.103Z,0.77,,,,,,,,indianapolis,False
edbdd96c-7774-4854-98de-c64f855426ad,Blue Waters Wealth Advisors,financial_advising,"['investing', 'professional_services']",OH,Westlake,44145.0,29638 Detroit Rd,41.4644639,-81.9485172,meta,2025-06-02T07:00:00.000Z,0.9415384615384615,f6f0e0ad-b93b-4d54-a4e1-5ab5f03ea99f,,,,Microsoft ML Buildings,2020-09-25T00:00:00.000Z,0.994599997997284,cleveland,False
1867edbb-e380-466d-a3c7-32a1511660a1,P Waters Michael DDS,cosmetic_dentist,"['general_dentistry', 'pediatric_dentist', 'dentist', 'health_and_medical']",OH,Cleveland,44130.0,7155 Pearl Rd Ste 103,41.3711090087891,-81.8002395629883,Microsoft,2015-03-25T17:10:19.727Z,0.77,2a223b1c-510a-4416-9881-013d2327cbb7,,,,Microsoft ML Buildings,2020-10-14T00:00:00.000Z,,cleveland,False
d756d222-6299-4248-9e8d-1bb51f422795,Michael P. Waters DDS,dentist,"['doctor', 'optometrist']",OH,Middleburg Heights,44130.0,7155 Pearl Rd,41.3712576,-81.8004088,meta,2025-06-02T07:00:00.000Z,0.9459263554653524,,,,,,,,cleveland,False
19c31281-bdcd-4d9c-b88c-064d9070c9fa,Living Waters Apostolic Church,church_cathedral,['religious_organization'],OH,Parma,44130.0,12970 Huffman Rd,41.3953184,-81.7831851,meta,2025-06-02T07:00:00.000Z,0.5662921348314607,c11ad13e-e8ba-4be3-b06c-6272087797aa,,,,Microsoft ML Buildings,2020-09-25T00:00:00.000Z,,cleveland,False
5eb42255-9244-47dd-8aca-347131c9884b,Living Waters Church,church_cathedral,,OH,Cleveland,44144.0,4153 Ridge Rd,41.44384,-81.73491,meta,2025-06-02T07:00:00.000Z,0.7548172757475083,886cc12c-0202-4443-819c-fde9ea63f05a,,religious,church,OpenStreetMap,2021-02-14T19:07:27.000Z,,cleveland,False
99907c49-d929-4181-8efb-17bc87a39619,Sacred Waters Kava Bar,coffee_shop,"['tea_room', 'internet_cafe']",OH,Lakewood,44107.0,15319 Detroit Ave,41.4846409,-81.8034557,meta,2025-06-02T07:00:00.000Z,0.9784508333782836,5241017e-4a5d-447c-823a-48c6847d4eb9,,commercial,retail,OpenStreetMap,2022-03-11T03:07:06.000Z,,cleveland,False
1b573a61-3e70-408f-a3d5-ebe24d24635c,Muddy Waters Kava Bar,tea_room,['restaurant'],OH,Lakewood,44107.0,15319 Detroit Ave,41.4850458,-81.8034092,Microsoft,2022-10-08T21:44:15.580Z,0.77,,,,,,,,cleveland,False
5fd50762-448e-4526-b167-f4524d80f648,Healing Waters,naturopathic_holistic,,OH,Solon,44139.0,6200 Som Center Rd,41.3905647,-81.4381834,meta,2025-06-02T07:00:00.000Z,0.8860580325548478,,,,,,,,cleveland,False
2f432993-f3b5-4429-8ddf-0e4dfefa1270,Living Waters Church of God,church_cathedral,['religious_organization'],OH,Euclid,44132.0,970 E 250th St,41.5981058,-81.5095544,meta,2025-06-02T07:00:00.000Z,0.9784508333782836,,,,,,,,cleveland,False
a8078ac7-a065-4e93-a101-770c9d4378a5,Waters Edge,accommodation,"['landmark_and_historical_building', 'real_estate']",OH,Euclid,44123.0,23951 Lakeshore Blvd,41.6165564,-81.5153294,meta,2025-06-02T07:00:00.000Z,0.9784508333782836,,,,,,,,cleveland,False
ae84e0f5-6147-4b24-b089-8a21b2c12fd9,"Living Waters Market, minnesota",health_and_medical,"['water_treatment_equipment_and_services', 'bottled_water_company']",MN,Eden Prairie,55347.0,17205 Vantage Ct,44.843176,-93.495735,meta,2025-06-02T07:00:00.000Z,0.4929396662387676,75b05ef0-33fa-4ec3-948f-91b1743188cf,,residential,house,OpenStreetMap,2015-10-20T16:08:21.000Z,,minneapolis,False
1cc38e67-1440-4f8d-ae51-aa73f0645d40,The Waters of Eden Prairie,retirement_home,"['landmark_and_historical_building', 'health_and_medical']",MN,Eden Prairie,55344.0,431 Prairie Center Dr,44.8512558,-93.422221,meta,2025-06-02T07:00:00.000Z,0.9784508333782836,4502f2db-9ab1-4740-b6e5-f8b3cc6fbd88,The Colony,residential,apartments,OpenStreetMap,2023-01-26T18:44:55.000Z,,minneapolis,False
6ff32665-e61d-46fa-8869-26ad1871d3d8,Healing Waters Counseling,counseling_and_mental_health,['marriage_or_relationship_counselor'],MN,Bloomington,55439.0,7801 E Bush Lake Rd,44.8608902,-93.3607959,meta,2025-06-02T07:00:00.000Z,0.9204819277108434,90a5c12e-0506-4b76-8497-b898822f4c71,,,,OpenStreetMap,2019-12-20T23:24:58.000Z,,minneapolis,False
5883f8f1-c9f9-4192-9a4d-4ab606ff4d2e,Johnson Waters Marketing,retail,['advertising_agency'],MN,Minnetonka,55343.0,10301 Bren Rd W,44.897309,-93.41262,meta,2025-06-02T07:00:00.000Z,0.242152466367713,d1d75394-5e3a-4af9-ac6f-098c6a0d48a6,,,,OpenStreetMap,2018-03-06T21:52:20.000Z,,minneapolis,False
e857eaa2-71d3-48b8-b2f1-63a9cf8d50c9,The Waters of Edina,retirement_home,['landmark_and_historical_building'],MN,Edina,55436.0,6300 Colonial Way,44.8893104,-93.3714289,meta,2025-06-02T07:00:00.000Z,0.9784508333782836,,,,,,,,minneapolis,False
7322dbc0-a2fe-4227-9164-87990019dde6,The Waters of Plymouth,retirement_home,"['nurse_practitioner', 'home_developer']",MN,Plymouth,55441.0,11305 Olson Memorial Hwy,44.9875414,-93.4236471,meta,2025-06-02T07:00:00.000Z,0.9784508333782836,,,,,,,,minneapolis,False
0e80d129-b484-42ae-beb0-6cfdf59f12cd,Laughing Waters Spa,spas,"['beauty_salon', 'beauty_and_spa']",MN,Bloomington,55425.0,2100 Killebrew Dr,44.8530272,-93.2421778,meta,2025-06-02T07:00:00.000Z,0.9784508333782836,d288273b-910c-4581-9c3c-984225d2aeeb,Radisson Blu Mall of America,,,OpenStreetMap,2025-02-15T06:30:43.000Z,,minneapolis,False
025a49f9-6111-46ba-99bc-97e6a390c207,Waters Plumbing LLC,plumbing,,MN,Eagan,55121.0,3028 Woodlark Ln,44.846828,-93.172623,Microsoft,2013-01-29T00:56:34.377Z,0.77,050cb9b8-f87d-4134-85a4-4e94aad4da5c,,residential,house,OpenStreetMap,2020-02-02T22:20:07.000Z,,minneapolis,False
c7d71a29-fdb5-4401-929d-1a53a5f93f55,The Waters on 50th,retirement_home,['landmark_and_historical_building'],MN,Minneapolis,55410.0,3500 50th St W,44.9131393,-93.3245937,meta,2025-06-02T07:00:00.000Z,0.9784508333782836,fb7a56a9-2d7b-41e6-8336-4b7c9ccd9762,,,,Microsoft ML Buildings,2023-09-13T00:00:00.000Z,0.9635000228881836,minneapolis,False
5d1be4f7-58b8-4e44-98ec-e0ca449b9c0b,Icy Waters of Lake Minnetonka,lake,,,,55419.0,,44.922271,-93.271019,meta,2025-06-02T07:00:00.000Z,0.3376623376623376,e5354e79-eace-4fff-a871-8f67a160ab31,,residential,garage,OpenStreetMap,2020-05-01T01:16:35.000Z,,minneapolis,False
f0c0a1b9-cd90-42ef-b073-dc53210517da,Laughing Waters Studio,art_gallery,"['art_school', 'professional_services']",MN,Minneapolis,55406.0,3718 E Minnehaha Pkwy,44.9165369,-93.2183174,meta,2025-06-02T07:00:00.000Z,0.9784508333782836,,,,,,,,minneapolis,False
fb101e12-7da8-48bb-8891-15efdcb8acc5,The Waters of Highland Park,retirement_home,"['landmark_and_historical_building', 'senior_citizen_services']",MN,St Paul,55116.0,678 Snelling Ave S,44.9209933,-93.1668246,meta,2025-06-02T07:00:00.000Z,0.9879256218304756,4be6abed-3761-48d0-a1f9-8d88feab6b6a,,,,OpenStreetMap,2021-04-30T23:26:02.000Z,,minneapolis,False
b2343209-fe2a-4e79-8e5c-1aa335173856,Premium Waters,bottled_water_company,"['professional_services', 'food_beverage_service_distribution']",MN,Minneapolis,55414.0,720 SE 29th Ave,44.9827485,-93.2087372,meta,2025-06-02T07:00:00.000Z,0.93,,,,,,,,minneapolis,False
56149427-c1c0-42d4-a6c9-28c017da947e,Friends of the Boundary Waters Wilderness,community_services_non_profits,"['social_service_organizations', 'environmental_conservation_organization']",MN,St Paul,55114.0,2550 University Ave W,44.9658674,-93.2040895,meta,2025-06-02T07:00:00.000Z,0.8384615384615385,49333ba1-a35e-4a1d-affd-398c19063978,Court International,commercial,office,OpenStreetMap,2023-10-09T14:18:03.000Z,,minneapolis,False
1407a1d1-4d26-4b40-85f3-ec1d3c38250d,Green Lands Blue Waters,agriculture,['agricultural_service'],MN,St Paul,55108.0,1991 Upper Buford Cir,44.9874443,-93.1839763,meta,2025-06-02T07:00:00.000Z,0.242152466367713,a316be6b-14a5-427a-a4db-8cae5c029367,Hodson Hall,,,OpenStreetMap,2014-05-01T20:16:21.000Z,,minneapolis,False
ac7de189-2d3e-491f-bae5-509da3958088,Great Waters Brewing Company,brewery,"['barbecue_restaurant', 'restaurant']",MN,Saint Paul,55102.0,426 Saint Peter St,44.94670209312186,-93.09680775381484,Microsoft,2018-09-17T12:22:54.747Z,0.77,6fdfe9d2-e01a-416f-9205-cb9da6693388,Hamm Building,commercial,office,OpenStreetMap,2024-05-22T16:37:14.000Z,,minneapolis,True
e58004c9-b088-4b73-9df2-c5aaab998eb2,Tamed Waters,pet_store,['aquatic_pet_store'],MN,St Paul,55106.0,1440 Arcade St,44.9843946,-93.065812,meta,2025-06-02T07:00:00.000Z,0.9784508333782836,,,,,,,,minneapolis,False
18871b02-a5db-45ca-900d-49db6e321276,The Waters of Oakdale,assisted_living_facility,"['memory_care', 'health_and_medical']",MN,Oakdale,55128.0,7088 11th St N,44.96507233,-92.9622425,Microsoft,2025-01-21T19:58:13.303Z,0.77,f68c21fe-742c-4ab5-80fc-dba36b95a5da,,residential,apartments,OpenStreetMap,2024-03-07T15:26:00.000Z,,minneapolis,False
528a3d11-a060-4d14-937c-c8d9a5cb4288,Dancing Waters Woodbury,home_developer,"['gym', 'social_service_organizations']",MN,Woodbury,0.0,,44.9221345,-92.888643,meta,2025-06-02T07:00:00.000Z,0.3376623376623376,be5a6838-e052-4f39-9816-e5235b628989,,,,Microsoft ML Buildings,2023-09-13T00:00:00.000Z,0.9869999885559082,minneapolis,False
0ebd3ce3-af7b-4d7e-9c8c-b81d0201f611,Dancing Waters Neighborhood Pool & Park,swimming_pool,"['park', 'public_plaza']",,,55129.0,,44.9242047,-92.882701,meta,2025-06-02T07:00:00.000Z,0.7548172757475083,,,,,,,,minneapolis,False
09b97308-a843-4428-abad-7392a5f7992d,Boundary Waters Caf??,coffee_shop,"['cafe', 'restaurant']",MN,Minneapolis,55428.0,7025 Northland Dr N,45.0817666,-93.394373,Microsoft,2015-05-15T06:46:46.567Z,0.77,,,,,,,,minneapolis,False
c4211725-d046-444c-9107-5887f16e5b30,Soothing Waters Colonics,health_and_medical,['naturopathic_holistic'],MN,St Anthony,55418.0,2500 CR-88,45.0136688,-93.2201214,meta,2025-06-02T07:00:00.000Z,0.909823677581864,,,,,,,,minneapolis,False
e5f1b585-7a35-464d-b839-bb202c037977,Soothing Waters Colonics,colonics,"['hydrotherapy', 'spas', 'health_and_wellness_club', 'beauty_and_spa', 'health_and_medical']",MN,St. Anthony,55418.0,2500 New Brighton Blvd Ste 218,45.018294,-93.216955,Microsoft,2020-01-30T19:58:00.430Z,0.77,adb6e038-8ee2-4d90-ab40-12a3fb383e33,,,,OpenStreetMap,2023-04-11T11:43:48.000Z,,minneapolis,False
196ba17e-90a3-4de4-b0c5-392f84796b01,Quiet Waters Salon,hair_salon,"['beauty_salon', 'beauty_and_spa']",MN,Roseville,55113.0,3063 Evelyn St,45.0329679,-93.1840434,meta,2025-06-02T07:00:00.000Z,0.9784508333782836,,,,,,,,minneapolis,False
6ac7a62a-15ad-414e-90c3-fe03ef1fedcc,Merging Waters Unitarian Universalist Congregation ( formerly Michael Servetus Unitarian),religious_organization,['church_cathedral'],MN,New Brighton,55112.0,"United Church of Christ in New Brighton, 1000 Long Lake Rd",45.0660468,-93.2035941,meta,2025-06-02T07:00:00.000Z,0.9415384615384615,bc7229cb-d510-4410-bd80-1567f095a2a4,,,,OpenStreetMap,2022-08-21T12:36:10.000Z,,minneapolis,False
2b74b207-375d-4ca5-9807-8183b4c5469a,Great Waters Financial,financial_advising,"['investing', 'financial_service']",MN,Shoreview,55126.0,4100 Lexington Ave N,45.0639002,-93.1460826,meta,2025-06-02T07:00:00.000Z,0.9688311688311688,ece811ed-9a96-4851-b593-d047cd17f40e,,,,OpenStreetMap,2012-06-03T01:47:53.000Z,,minneapolis,False
cf8d9b4f-942f-4ce1-9461-b364f482263e,Living Waters Lutheran Church,church_cathedral,,MN,Lino Lakes,55014.0,865 Birch St,45.1448787,-93.0987356,meta,2025-06-02T07:00:00.000Z,0.9784508333782836,,,,,,,,minneapolis,False
2205c218-62b4-4d9f-bca9-7527b68d8fee,The Enclave at Lexington Waters,landmark_and_historical_building,,MN,Blaine,55449.0,13202 Jewell St NE,45.2085309,-93.1568832,meta,2025-06-02T07:00:00.000Z,0.296943231441048,,,,,,,,minneapolis,False
2991abbc-9ffe-4963-a2ee-882a1edd9b8c,The Enclave at Lexington Waters,apartments,,MN,Blaine,55449.0,13110 Isetta Circle NE,45.20967,-93.15526,Microsoft,2025-05-23T18:52:19.133Z,0.77,,,,,,,,minneapolis,False
16d80ee4-eba2-4244-8b0c-e19f5c3ba589,Indian Waters Council BSA,community_services_non_profits,['youth_organizations'],SC,Columbia,29210.0,715 Betsy Dr,34.01761,-81.08684,meta,2025-06-02T07:00:00.000Z,0.4929396662387676,af8ce5b3-8c32-4836-8d11-24bcf614dcbd,,,,OpenStreetMap,2017-12-10T17:58:13.000Z,,columbia-south-carolina,False
d0e91063-9227-4aeb-bd69-50f112f3813a,Waters at Berryhill Apartments,landmark_and_historical_building,"['hotel', 'social_service_organizations']",SC,Columbia,29210.0,18 Berryhill Rd,34.0406006,-81.1159649,meta,2025-06-02T07:00:00.000Z,0.9784508333782836,0c6ca880-8651-4d1b-a20d-56756e2becc8,,residential,apartments,OpenStreetMap,2019-02-18T04:03:09.000Z,,columbia-south-carolina,False
4243c019-8838-403e-a8b8-5a73f6f337ae,Waters at Longcreek,landmark_and_historical_building,['accommodation'],SC,Columbia,29210.0,1401 Longcreek Dr,34.0413617,-81.0850118,meta,2025-06-02T07:00:00.000Z,0.9784508333782836,35f8619d-9f38-4ad7-b99e-22cd0f4448e7,,residential,apartments,OpenStreetMap,2019-02-24T04:45:46.000Z,,columbia-south-carolina,False
69144461-8c54-4a14-adf3-9d2300d9e362,Deep Waters Jiu Jitsu,active_life,"['martial_arts_club', 'sports_club_and_league']",SC,Columbia,29201.0,1901 Hampton St,34.0089067,-81.0239276,meta,2025-06-02T07:00:00.000Z,0.9784508333782836,08413353-edaa-4639-8171-f87db49b2740,,commercial,commercial,OpenStreetMap,2025-01-20T20:31:37.000Z,,columbia-south-carolina,False
151a60ce-9865-417e-9734-6e249bd72b78,Waters at Fairfield,landmark_and_historical_building,"['bar', 'social_service_organizations']",,,29203.0,5313 Fairfield Rd,34.0584088,-81.0290688,meta,2025-06-02T07:00:00.000Z,0.9459263554653524,ab6f6677-e988-4570-9854-36efcf3d8b61,,,,OpenStreetMap,2019-03-02T02:36:38.000Z,,columbia-south-carolina,False
fe56f070-5f3e-4ac5-9e5b-4a6b423fdda4,Living Waters Restoration Christian Center,religious_organization,['church_cathedral'],SC,Columbia,29223.0,117 Alpine Cir,34.0880262,-80.9380137,meta,2025-06-02T07:00:00.000Z,0.9784508333782836,2c222b31-9bb1-4ec4-9399-73e1999ca3ac,,,,OpenStreetMap,2017-12-13T02:58:37.000Z,,columbia-south-carolina,False
ef50af20-1e77-45ce-ad1d-85ee3f059b76,Nestle Waters North America,real_estate,"['professional_services', 'public_service_and_government']",VA,Chesapeake,23323.0,925 Cavalier Blvd,36.775712,-76.360987,meta,2025-06-02T07:00:00.000Z,0.4929396662387676,a1089473-6308-4ae8-b58a-6d5f06c81b4f,Millers Dairy Spring Water,industrial,industrial,OpenStreetMap,2016-01-01T22:10:06.000Z,,virginia-beach,False
b711bbe0-a081-48bd-902a-bfd19f5b5406,William E. Waters Middle School,middle_school,"['education', 'school']",VA,Portsmouth,23701.0,600 Roosevelt Blvd,36.7936607,-76.3570753,meta,2025-06-02T07:00:00.000Z,0.9784508333782836,7afd1e3a-b1f5-45f3-9116-ca0150e54f41,,education,school,OpenStreetMap,2022-12-03T01:07:57.000Z,,virginia-beach,False
e2973d9e-5507-4bb8-bb92-23e7b5ced14c,Living Waters Ministries,religious_organization,['church_cathedral'],VA,Virginia Beach,23462.0,5606 Virginia Beach Blvd,36.8054735,-76.3761147,meta,2025-06-02T07:00:00.000Z,0.7548172757475083,,,,,,,,virginia-beach,False
a911939a-14df-47dd-ad8e-fc53c84ec41b,Living Waters Christian Fellowship,church_cathedral,"['religious_organization', 'baptist_church']",VA,Chesapeake,23321.0,2700 Gum Rd,36.8333595,-76.4315448,meta,2025-06-02T07:00:00.000Z,0.9784508333782836,,,,,,,,virginia-beach,False
0992a17f-4658-4b87-9cef-4392ee13e473,Present Waters,professional_services,['spas'],VA,Chesapeake,23321.0,3325 Taylor Rd,36.8452907,-76.4253569,meta,2025-06-02T07:00:00.000Z,0.9415384615384615,023238d5-358a-461d-b74a-d84071b72a8c,,commercial,commercial,OpenStreetMap,2019-04-27T19:24:50.000Z,,virginia-beach,False
8b30286b-7ba6-4c40-8f91-4c773bb3ede7,"Waters Edge Construction, LLC",contractor,"['construction_services', 'boat_service_and_repair']",VA,Chesapeake,23321.0,3105 Western Branch Blvd,36.8614988,-76.4005196,meta,2025-06-02T07:00:00.000Z,0.8860580325548478,4ef7b2b6-fd39-4153-a4a4-612090739255,,commercial,commercial,OpenStreetMap,2016-02-04T18:12:47.000Z,,virginia-beach,False
21dd5a96-0a50-4379-bbd1-7a878940350a,Waters Edge at the Riverfront,landmark_and_historical_building,,VA,Suffolk,0.0,,36.891407,-76.4414043,meta,2025-06-02T07:00:00.000Z,0.5662921348314607,fea4ee5e-8052-42a4-962e-301fc5e5f194,,residential,residential,OpenStreetMap,2015-12-02T02:53:05.000Z,,virginia-beach,False
eebf9bea-5b14-47e9-ad32-8b4d857bea7f,Waters Law,lawyer,"['legal_services', 'central_government_office']",VA,Norfolk,23510.0,150 Boush St,36.8479492,-76.2929014,meta,2025-06-02T07:00:00.000Z,0.9784508333782836,79463af9-72d0-458e-8df8-301839684074,Towne Point Center,commercial,commercial,OpenStreetMap,2020-08-25T21:56:05.000Z,,virginia-beach,False
e3e2bea7-f21b-48ee-9924-54600d62f265,Waters Edge Winery & Bistro,winery,['restaurant'],VA,Norfolk,23508.0,6464 Hampton Blvd,36.9002579,-76.3029674,meta,2025-06-02T07:00:00.000Z,0.9784508333782836,50e3c900-d91b-4fac-af74-5d0dd653a477,Waters Edge Winery,commercial,commercial,OpenStreetMap,2023-03-21T16:26:38.000Z,,virginia-beach,False
607c25e0-4186-4c22-a081-450e373d570c,Chartered Waters Financial,financial_service,['insurance_agency'],,,23510.0,999 Waterside Dr,36.8435136,-76.2874573,meta,2025-06-02T07:00:00.000Z,0.242152466367713,,,,,,,,virginia-beach,False
c8ecf588-ada7-4d8e-b304-172ff77ed6f6,Living Waters Music,music_school,['music_production'],VA,Virginia Beach,23455.0,4452 Ocean View Ave,36.915959,-76.1225602,meta,2025-06-02T07:00:00.000Z,0.909823677581864,bf14d27e-ce6d-44e3-8c63-2822109e4df5,,residential,house,OpenStreetMap,2016-03-07T20:04:38.000Z,,virginia-beach,False
8fa5f3a3-1020-43bb-a527-51aad56bfd39,Waters Residence Hall,college_university,"['accommodation', 'campus_building']",WI,Madison,53706.0,1200 Observatory Dr,43.0766778,-89.4069414,meta,2025-06-02T07:00:00.000Z,0.9784508333782836,fbbc13b9-6f1f-4e2b-bd9a-2aa2b9401daa,Waters Residence Hall,residential,dormitory,OpenStreetMap,2025-04-12T20:40:23.000Z,,madison,True
e908f048-cb4f-45fe-94e4-750195705701,Elizabeth Waters Dining Room,american_restaurant,"['italian_restaurant', 'steakhouse']",WI,Madison,53706.0,1200 Observatory Dr,43.07698,-89.407235,meta,2025-06-02T07:00:00.000Z,0.5662921348314607,fbbc13b9-6f1f-4e2b-bd9a-2aa2b9401daa,Waters Residence Hall,residential,dormitory,OpenStreetMap,2025-04-12T20:40:23.000Z,,madison,False
e233dd89-bd43-400f-b047-169c7fe421cc,Gathering Waters,environmental_conservation_organization,['community_services_non_profits'],WI,Madison,53703.0,211 S Paterson St,43.0807521,-89.3704598,meta,2025-06-02T07:00:00.000Z,0.9297091412742382,2b983bf3-6f45-45a3-90f4-e2ca621c45b2,,commercial,office,OpenStreetMap,2024-11-23T19:15:42.000Z,,madison,False
b1c14e33-8f3c-479c-9bb1-8bc45456cb66,Waters Edge Apartments,apartments,['condominium'],MI,Lansing,48917.0,7530 Waters Edge,42.75242,-84.661274,Microsoft,2025-04-14T06:51:39.380Z,0.77,fd4d51c7-2c82-4e42-ae37-7bea893ecde1,,,,OpenStreetMap,2022-08-15T22:21:43.000Z,,lansing,False
c90747d8-f51c-488d-a308-92f396048f7e,Waters Edge Apartments,apartments,['condominium'],MI,Lansing,48917.0,7530 Waters Edge,42.7519540423274,-84.66002637688469,Microsoft,2021-08-20T21:46:31.340Z,0.77,,,,,,,,lansing,False
dd5ec7c6-3157-40b7-a97c-20d447321a33,Waters Edge Apartments,landmark_and_historical_building,"['accommodation', 'real_estate']",MI,East Lansing,48823.0,1050 Waters Edge Dr,42.7290816,-84.4697182,meta,2025-06-02T07:00:00.000Z,0.9459263554653524,be29ceb8-65d0-4dd5-8e59-8ade82759431,,residential,apartments,OpenStreetMap,2020-02-15T02:48:33.000Z,,lansing,False
4c3d89d6-13a6-4550-93e2-43f80f0062e8,Uncharted Waters,church_cathedral,['religious_organization'],CO,Colorado Springs,80904.0,2501 W Colorado Ave,38.847078,-104.86316,meta,2025-06-02T07:00:00.000Z,0.4929396662387676,05e373a2-1d34-459d-aff3-17ee719c4abb,,,,OpenStreetMap,2024-05-06T15:05:13.000Z,,colorado-springs,False
b2bc859a-3ccc-4f94-b87c-e6192fad700d,Healing Waters Colorado Springs,health_and_medical,"['naturopathic_holistic', 'counseling_and_mental_health']",CO,Colorado Springs,80904.0,2501 W Colorado Ave,38.84733,-104.86321,meta,2025-06-02T07:00:00.000Z,0.3961437335670464,05e373a2-1d34-459d-aff3-17ee719c4abb,,,,OpenStreetMap,2024-05-06T15:05:13.000Z,,colorado-springs,False
73bd79ba-0c56-4bfd-929a-01e7208f6f17,Frank Waters Park,park,"['education', 'wedding_planning']",CO,Colorado Springs,80903.0,"Frank Waters Park, 251 N Corona St",38.8369674,-104.8161652,meta,2025-06-02T07:00:00.000Z,0.9784508333782836,,,,,,,,colorado-springs,False
779d84ec-f48c-42e9-bbef-b7ff164c5ba3,Jeff Waters PA-C,doctor,['health_and_medical'],CO,Colorado Springs,80907.0,320 E Fontanero St Ste 100,38.8603901,-104.817191,Microsoft,2025-04-30T14:33:27.590Z,0.77,,,,,,,,colorado-springs,False
621eee2d-afe5-4262-854c-cbddd115ef3e,Project Healing Waters Fly Fishing,community_services_non_profits,"['charity_organization', 'active_life']",CO,Colorado Springs,80907.0,913 E Fillmore St,38.8735471,-104.8096525,meta,2025-06-02T07:00:00.000Z,0.9300613496932516,c14934c3-a660-46fd-abff-a7002ceac7b6,,,,OpenStreetMap,2013-03-13T16:46:16.000Z,,colorado-springs,False
76a7e4e6-28e7-4a13-b4b9-a0bde8434b10,Blue Waters Development Group,home_developer,"['real_estate', 'professional_services']",FL,Cape Coral,33904.0,2503 Del Prado Blvd S,26.6059427,-81.9405449,meta,2025-06-02T07:00:00.000Z,0.9300613496932516,523d022f-2d0f-4bee-980e-7be553eba66d,,commercial,commercial,OpenStreetMap,2022-08-11T23:32:52.000Z,,cape-coral,False
bc81755c-cf87-4fc0-8838-780998fc73b2,Living Waters Family Worship Center,church_cathedral,['religious_organization'],FL,Cape Coral,33990.0,1315 Viscaya Pkwy,26.6363388,-81.9451713,meta,2025-06-02T07:00:00.000Z,0.9784508333782836,,,,,,,,cape-coral,False
3bf137b2-8d03-47ab-8518-3b547b5b2504,Grace Veterinary Center Fort Myers: Still Waters Veterinary Center,veterinarian,['professional_services'],FL,Fort Myers,33901.0,4400 Cleveland Ave,26.5987104,-81.8720623,meta,2025-06-02T07:00:00.000Z,0.8860580325548478,2e6362ba-d564-4265-afa9-22fb500b9504,,,,OpenStreetMap,2022-05-01T14:10:31.000Z,,cape-coral,False
eb83c09e-8a2f-47b2-8233-f4d55e7833d8,Palms At Waters Edge,accommodation,"['landmark_and_historical_building', 'pet_services']",FL,North Fort Myers,33903.0,3322 N Key Dr,26.6588043,-81.8858424,meta,2025-06-02T07:00:00.000Z,0.9459263554653524,32170bba-e964-4c75-bbd6-dc077034868d,,,,OpenStreetMap,2015-07-24T01:40:19.000Z,,cape-coral,False
c90258ef-fb85-40fc-bb93-6494836a17d7,Southern Waters,event_planning,['topic_concert_venue'],FL,North Fort Myers,33917.0,16400 Daughtreys Creek Rd,26.703503,-81.8407644,meta,2025-06-02T07:00:00.000Z,0.9784508333782836,,,,,,,,cape-coral,False
3b670403-6016-49cf-98de-086883e2ce32,Chap Waters - State Farm Insurance Agent,auto_insurance,['home_and_rental_insurance'],IL,Lake Forest,60045.0,27899 Irma Lee Cir Unit 102,42.267434,-87.903208,Microsoft,2023-10-31T04:17:37.367Z,0.77,9e33b740-e1f8-472b-be8a-3da74f2ca7a7,,industrial,industrial,OpenStreetMap,2015-09-26T03:11:30.000Z,,round-lake-beach-mchenry-grayslake,False
f7b06097-4afa-4db7-8286-bf1452928f1a,Chap Waters State Farm Agency,insurance_agency,,IL,Lake Forest,60045.0,27899 N Irma Lee Cir,42.2675,-87.90313,meta,2025-06-02T07:00:00.000Z,0.5662921348314607,9e33b740-e1f8-472b-be8a-3da74f2ca7a7,,industrial,industrial,OpenStreetMap,2015-09-26T03:11:30.000Z,,round-lake-beach-mchenry-grayslake,False
69ecc565-e36f-4e0a-98ee-8c6c0263767f,Living Waters Assembly of God,religious_organization,['church_cathedral'],IL,Grayslake,60030.0,525 N Atkinson Rd,42.350861,-88.023183,meta,2025-06-02T07:00:00.000Z,0.9784508333782836,,,,,,,,round-lake-beach-mchenry-grayslake,False
577a2f92-7e8d-41a0-b8e6-0f3a3c103f6b,Falling Waters,accommodation,"['community_services_non_profits', 'landmark_and_historical_building']",IL,Lindenhurst,60046.0,3198 Falling Waters Ln,42.4034138,-88.0058896,meta,2025-06-02T07:00:00.000Z,0.7548172757475083,ee4373ae-94b9-4aa5-af58-912928df4bdd,,,,OpenStreetMap,2018-06-17T00:31:20.000Z,,round-lake-beach-mchenry-grayslake,False
b21bc971-da59-4d90-b596-52a04d6733e6,Healing Waters Yoga & Wellness,yoga_studio,"['active_life', 'naturopathic_holistic']",IL,Minooka,60447.0,25949 W Shepley Rd,41.469144,-88.243195,meta,2025-06-02T07:00:00.000Z,0.242152466367713,81079417-fd54-451a-adfe-51cf981cd5a4,,,,Esri Community Maps,2024-10-15T00:00:00.000Z,,chicago,False
b21bc971-da59-4d90-b596-52a04d6733e6,Healing Waters Yoga & Wellness,yoga_studio,"['active_life', 'naturopathic_holistic']",IL,Minooka,60447.0,25949 W Shepley Rd,41.469144,-88.243195,meta,2025-06-02T07:00:00.000Z,0.242152466367713,b7fd415f-c8db-425e-96c2-18dbb89f2302,,,,Esri Community Maps,2024-10-15T00:00:00.000Z,,chicago,False
34be9b40-e939-44ad-ab3d-c0dbcf977694,Living Waters Children's Center,day_care_preschool,"['home_service', 'school']",IL,Manhattan,60442.0,22811 S Cedar Rd,41.4734144,-87.9631882,meta,2025-06-02T07:00:00.000Z,0.9784508333782836,,,,,,,,chicago,False
5af02f08-a6f3-4a8c-941a-7a42be604a87,Woods and Waters Construction,real_estate,"['construction_services', 'professional_services']",IN,St John,46373.0,9148 Zinnia Dr,41.4379365,-87.4451093,meta,2025-06-02T07:00:00.000Z,0.8831168831168831,,,,,,,,chicago,False
3279a998-a6c3-44ae-b2ed-0c418576ae3d,Deep Waters Worship Center,religious_organization,['social_service_organizations'],IL,Aurora,60506.0,888 S Edgelawn Dr,41.7454671,-88.3579994,meta,2025-06-02T07:00:00.000Z,0.9297091412742382,08d54594-eed9-4b80-9d22-ee742d538389,,,,OpenStreetMap,2020-09-28T01:35:46.000Z,,chicago,False
689c86de-cff2-455d-b6ed-1b766d69a63e,Waters Edge,fast_food_restaurant,"['restaurant', 'bar']",IL,Joliet,60436.0,334 Water St,41.5174491,-88.0857871,meta,2025-06-02T07:00:00.000Z,0.5662921348314607,59b10004-12a1-4c1a-b847-c65c3fd01ea2,,residential,house,OpenStreetMap,2024-12-26T14:33:12.000Z,,chicago,False
689c86de-cff2-455d-b6ed-1b766d69a63e,Waters Edge,fast_food_restaurant,"['restaurant', 'bar']",IL,Joliet,60436.0,334 Water St,41.5174491,-88.0857871,meta,2025-06-02T07:00:00.000Z,0.5662921348314607,b70d4bbf-5e38-4d54-b437-6e396404cf6b,,residential,house,OpenStreetMap,2024-12-26T14:37:56.000Z,,chicago,False
4262a6ef-6a29-4588-b334-d5c09d5d0aec,Waters Of America,storage_facility,"['bottled_water_company', 'professional_services']",IL,Woodridge,60517.0,10220 Werch Dr,41.700269,-88.0271751,meta,2025-06-02T07:00:00.000Z,0.9459263554653524,5d1e48df-928c-4061-81de-f89612271541,,,,OpenStreetMap,2013-01-23T02:04:14.000Z,,chicago,False
088f0de8-8023-4eea-bb1b-b496f8b645c6,Nestle Waters North America,bottled_water_company,"['food_beverage_service_distribution', 'grocery_store']",IL,Woodridge,60517.0,10335 Argonne Woods Dr,41.6986227,-88.0083239,meta,2025-06-02T07:00:00.000Z,0.9459263554653524,73c8d27b-8518-4db4-8ce9-e89db6f4f4b4,,,,OpenStreetMap,2023-09-16T23:48:42.000Z,,chicago,False
17ce429b-2f23-48f0-8551-e4b8d2271787,Healing Waters Park,park,"['water_park', 'social_service_organizations']",,,60480.0,,41.735639,-87.89066,meta,2025-06-02T07:00:00.000Z,0.9415384615384615,,,,,,,,chicago,False
64789fcb-94cc-43c1-81ed-e444f68265c1,Courts of the Falling Waters,landmark_and_historical_building,"['retirement_home', 'real_estate']",IL,Downers Grove,60516.0,7330 Fairmount Ave,41.7548227,-88.000363,meta,2025-06-02T07:00:00.000Z,0.9784508333782836,,,,,,,,chicago,False
b9da775b-f031-481d-8a6e-a0806332e4d3,Muddy Waters Park,park,"['water_park', 'transportation']",IL,Westmont,0.0,,41.7682812,-87.9919158,meta,2025-06-02T07:00:00.000Z,0.4929396662387676,,,,,,,,chicago,False
6d13be40-2fd6-4f1e-80fe-4d5345e3cc4e,"Thaddeus Waters, MD, AAOMS",obstetrician_and_gynecologist,"['doctor', 'womens_health_clinic', 'health_and_medical']",IL,Burr Ridge,60527.0,6800 N Frontage Rd,41.7595836,-87.9142501,Microsoft,2019-10-07T19:07:46.343Z,0.77,f8049ad5-e038-4997-a1a1-aa0dec0fa077,,commercial,commercial,OpenStreetMap,2018-04-19T16:32:01.000Z,,chicago,False
0a863ac4-203d-4d59-a75c-dcff938cda12,Kohler Waters Spa at Burr Ridge,spas,"['beauty_and_spa', 'hair_removal']",IL,Burr Ridge,60527.0,775 Village Center Dr,41.7539815,-87.912518,meta,2025-06-02T07:00:00.000Z,0.9784508333782836,52c8d977-3531-44d9-87c4-e9be877bc51c,,transportation,parking,OpenStreetMap,2024-03-30T01:32:11.000Z,,chicago,False
0a863ac4-203d-4d59-a75c-dcff938cda12,Kohler Waters Spa at Burr Ridge,spas,"['beauty_and_spa', 'hair_removal']",IL,Burr Ridge,60527.0,775 Village Center Dr,41.7539815,-87.912518,meta,2025-06-02T07:00:00.000Z,0.9784508333782836,c18772d4-a861-4211-be17-d901b6bfcdba,,,,OpenStreetMap,2024-03-30T01:32:11.000Z,,chicago,False
5a454cb9-c1a4-4386-8c27-189f6cd5d1d8,Blue Waters,clothing_store,['fashion'],IL,Hinsdale,60521.0,827 W North St,41.80888,-87.94577,meta,2025-06-02T07:00:00.000Z,0.3961437335670464,e55c8651-fc05-4412-a070-af468a0adf80,,,,Microsoft ML Buildings,2020-07-06T00:00:00.000Z,,chicago,False
ab380bab-30dd-4db2-9c3d-25f3e6a44395,Midwest Waters Angling Co.,fishing_club,"['professional_services', 'attractions_and_activities']",IL,Elburn,60119.0,Keslinger Road,41.88217,-88.41698,meta,2025-06-02T07:00:00.000Z,0.296943231441048,,,,,,,,chicago,True
34855687-68d8-4019-a056-0b2ed05f0ade,Shining Waters Park,park,"['water_park', 'active_life']",,,60188.0,Birchbark Trl,41.918238,-88.152078,meta,2025-06-02T07:00:00.000Z,0.5662921348314607,40551140-af10-407d-a42c-85e0f3feee99,,,,Microsoft ML Buildings,2023-09-01T00:00:00.000Z,0.9884999990463256,chicago,False
c87d2ece-7449-438d-9905-22a39a8f8dac,Waters Edge,american_restaurant,"['restaurant', 'bar']",IL,Oak Brook,60523.0,2815 Jorie Blvd,41.8364622,-87.9469372,meta,2025-06-02T07:00:00.000Z,0.9784508333782836,27d40ebc-83e9-4096-968a-a455b069d85c,Hyatt Lodge Oak Brook Chicago,commercial,hotel,OpenStreetMap,2024-01-17T03:51:07.000Z,,chicago,False
6feb3454-3e7e-49eb-bdd4-26d5ad396b07,Waters Millwork Sales,home_improvement_store,"['funeral_services_and_cemeteries', 'industrial_equipment']",IL,Elmhurst,60126.0,0S701 Old York Rd,41.8638435,-87.9297912,meta,2025-06-02T07:00:00.000Z,0.909823677581864,,,,,,,,chicago,False
baf296d0-fe74-4a98-b279-433dcae7238e,Fountain of Living Waters Church,church_cathedral,['religious_organization'],IL,Chicago,60624.0,4244 W Madison St,41.87521,-87.8957,meta,2025-06-02T07:00:00.000Z,0.4929396662387676,64de1285-f07b-4174-a301-a81a96db1d01,,,,Microsoft ML Buildings,2023-09-01T00:00:00.000Z,0.9649999737739564,chicago,False
4c965089-6442-4f6d-9e81-f2ca6f74cf9c,Living Waters Community Church in Hoffman Estates,church_cathedral,,IL,Hoffman Estates,60192.0,2425 S Barrington Rd,42.06864,-88.14275,meta,2025-06-02T07:00:00.000Z,0.3961437335670464,d6c4013c-1e25-4d51-aad2-8f08a2c6e975,Hilton Garden Inn Hoffman Estates,commercial,hotel,OpenStreetMap,2024-03-17T10:24:46.000Z,,chicago,False
62dc356d-4252-4559-9d4d-beec4d2bb543,Big Waters Federation,charity_organization,"['community_services_non_profits', 'bank_credit_union']",IL,Des Plaines,60016.0,570 E Northwest Hwy,42.051967,-87.91022,meta,2025-06-02T07:00:00.000Z,0.242152466367713,3bdf3808-7f2b-4960-b1e4-23d193c9e5a3,,,,Microsoft ML Buildings,2023-09-01T00:00:00.000Z,0.9721999764442444,chicago,False
b7c7ffcf-58dd-45d3-a180-3ccc0fce2cc8,Big Waters Federation,community_services_non_profits,['topic_concert_venue'],IL,Mt Prospect,60056.0,119 S Emerson St,42.0634645,-87.9350958,meta,2025-06-02T07:00:00.000Z,0.9204819277108434,a27a71ed-8aec-4e2d-8e68-6d2abecbc243,,,,OpenStreetMap,2019-02-23T05:18:07.000Z,,chicago,False
b4ac79bd-3a37-403a-8786-66d27386d6ba,Waters Edge Condominiums,landmark_and_historical_building,"['home_developer', 'hotel']",IL,Hazel Crest,60429.0,3505 Lakeview Dr,41.554358,-87.703168,meta,2025-06-02T07:00:00.000Z,0.3376623376623376,506498dd-5259-4361-a62c-ef8517dfbcd3,,,,Microsoft ML Buildings,2020-10-13T00:00:00.000Z,,chicago,False
5d1ce9ee-3493-435a-9d7f-3e50bb5bf440,Laughing Waters,landscaping,"['water_treatment_equipment_and_services', 'construction_services']",IL,Palos Heights,60463.0,11721 Southwest Hwy,41.677755,-87.812644,meta,2025-06-02T07:00:00.000Z,0.3961437335670464,4eba9f35-295e-4f6c-b3f6-c556846af351,,,,Microsoft ML Buildings,2020-07-03T00:00:00.000Z,,chicago,False
26781469-2ec0-4574-b9b6-768103a0c361,Waters Edge Golf Course,active_life,['golf_course'],IL,Worth,60482.0,11605 S Harlem Ave,41.680523,-87.795991,meta,2025-06-02T07:00:00.000Z,0.4929396662387676,b05b0a39-3407-48c2-a817-72f5dfb41add,,,,OpenStreetMap,2013-08-06T10:37:46.000Z,,chicago,False
6784b831-999d-4e60-876f-52051ef2bbad,Living Waters Counseling & Consulting Services,counseling_and_mental_health,,IL,Oak Lawn,60453.0,4550 W 103rd St,41.7057654,-87.7347138,meta,2025-06-02T07:00:00.000Z,0.8384615384615385,20236d8a-b803-4699-90f0-6f0c989b3b89,,,,OpenStreetMap,2023-10-21T14:22:37.000Z,,chicago,False
b8b38f73-42e1-4c31-a783-2c3b741dd836,DS Waters Of America L. P.,eat_and_drink,"['seafood_restaurant', 'grocery_store']",IL,Chicago,60638.0,6055 S Harlem Ave,41.78135,-87.800042,meta,2025-06-02T07:00:00.000Z,0.242152466367713,ad7c8c86-54bf-4253-8eb3-c82f0318598e,,,,OpenStreetMap,2021-03-24T02:57:30.000Z,,chicago,False
5f08adc0-6cc4-4dd3-a6b2-cf1caec28334,Healing Waters Ministries,counseling_and_mental_health,"['public_service_and_government', 'pentecostal_church']",IL,Chicago,60643.0,9905 S Winston Ave,41.7139524,-87.6572001,meta,2025-06-02T07:00:00.000Z,0.9415384615384615,,,,,,,,chicago,False
c2530c29-4630-4631-b804-fe74eb35aef5,7251 at Waters Edge Apartment Homes,apartments,,IL,Chicago,60649.0,7251 S South Shore Dr,41.76489,-87.56087,Microsoft,2022-07-16T11:55:32.473Z,0.77,0b2333e3-2a35-4094-b656-bcb8fb3408ac,Michigan Beach Apartments,residential,apartments,OpenStreetMap,2024-01-16T21:00:14.000Z,,chicago,False
05c9a2ae-0c77-4796-84fa-6ef5d2cfea88,Muddy Waters MOJO Museum,museum,"['community_services_non_profits', 'topic_concert_venue']",,,60653.0,4339 S Lake Park Ave,41.8158913,-87.5979702,meta,2025-06-02T07:00:00.000Z,0.9297091412742382,,,,,,,,chicago,False
49c86fc7-93f8-498f-8e94-8c795129c310,Muddy Waters Chicago Home,bar,"['accommodation', 'furniture_store']",IL,Chicago,60653.0,4339 S Lake Park Ave,41.815876,-87.597739,meta,2025-06-02T07:00:00.000Z,0.5662921348314607,57c7fe84-7d5f-4275-b73e-9b4a170bc4e9,,,,OpenStreetMap,2013-03-21T05:34:10.000Z,,chicago,False
49c86fc7-93f8-498f-8e94-8c795129c310,Muddy Waters Chicago Home,bar,"['accommodation', 'furniture_store']",IL,Chicago,60653.0,4339 S Lake Park Ave,41.815876,-87.597739,meta,2025-06-02T07:00:00.000Z,0.5662921348314607,82a886d0-41b9-4081-b498-33a847b640d4,,,,OpenStreetMap,2013-03-21T05:34:10.000Z,,chicago,False
6f427e75-025e-40e3-8cf0-1a62a9851413,"Waters Edge Gift, Garden & Pond Center",nursery_and_gardening,"['flowers_and_gifts_shop', 'boutique']",IN,Munster,46321.0,5 Ridge Rd,41.5636122,-87.525115,meta,2025-06-02T07:00:00.000Z,0.9784508333782836,f3c5fcf3-1207-4a99-b5f1-cf50df4b375d,,,,Microsoft ML Buildings,2020-07-29T00:00:00.000Z,,chicago,False
135ef3fc-101a-478f-be8c-488573e5e9e0,Living Waters Church,church_cathedral,['religious_organization'],IN,Gary,46406.0,2009 Cline Ave,41.582452,-87.4321,meta,2025-06-02T07:00:00.000Z,0.7548172757475083,91f9eb3b-4f0a-4983-be31-91cc2bb6801b,,,,OpenStreetMap,2024-10-25T00:48:04.000Z,,chicago,False
c36a547c-3758-4be6-958b-1bc7380cc4e8,The Waters of Hobart,retirement_home,['hospital'],IN,Hobart,46342.0,2901 W 37th Ave,41.5500665,-87.2936911,meta,2025-06-02T07:00:00.000Z,0.9784508333782836,,,,,,,,chicago,False
64fafe1c-7ebe-49f4-b6d2-74242ef97a5c,The Fountain of Living Waters Ministries,religious_organization,,IL,Chicago,60639.0,5818 W North Ave,41.90961,-87.77108,meta,2025-06-02T07:00:00.000Z,0.3961437335670464,e9ae0f98-eb20-46d6-b900-2b3d3cf8bb51,,,,OpenStreetMap,2015-05-14T21:05:07.000Z,,chicago,False
64fafe1c-7ebe-49f4-b6d2-74242ef97a5c,The Fountain of Living Waters Ministries,religious_organization,,IL,Chicago,60639.0,5818 W North Ave,41.90961,-87.77108,meta,2025-06-02T07:00:00.000Z,0.3961437335670464,cc4c5930-fb06-483d-9e86-62da6a3f8749,,,,OpenStreetMap,2015-05-14T21:05:07.000Z,,chicago,False
7eab287f-5fba-49f9-9dff-fa671d8af579,Garfield Waters Funeral Home,funeral_services_and_cemeteries,,IL,Chicago,60624.0,3409 W Madison St,41.8806304,-87.7115891,meta,2025-06-02T07:00:00.000Z,0.9784508333782836,3ac08b09-5bb9-4844-8604-572fffbe9506,,,,OpenStreetMap,2012-05-16T06:24:27.000Z,,chicago,False
3b054110-37d8-41cd-a301-ca9352264fd2,John R. Waters & Company,accountant,"['financial_service', 'trusts']",IL,Chicago,60606.0,225 W Washington St,41.8830353,-87.6351685,meta,2025-06-02T07:00:00.000Z,0.9459263554653524,01815113-ad22-474e-970c-4f6ff04ce202,Marmon Building,commercial,office,OpenStreetMap,2023-05-25T19:57:42.000Z,,chicago,False
132c9904-5f99-4b52-8ddb-19e9978d926c,Joshua Waters,marriage_or_relationship_counselor,['health_and_medical'],IL,Chicago,60601.0,1 E Wacker Dr,41.8864646,-87.6275005,meta,2025-06-02T07:00:00.000Z,0.8860580325548478,f5e3fa90-c8f9-4778-9e3f-31c40a97bac5,Kemper Building,commercial,office,OpenStreetMap,2023-08-15T09:46:40.000Z,,chicago,False
7a5d5177-3858-402e-bc8a-3ae120736af6,Waters Craft Market,shopping,"['arts_and_crafts', 'furniture_store']",IL,Chicago,60625.0,4540 N Campbell Ave,41.964291,-87.691986,meta,2025-06-02T07:00:00.000Z,0.4929396662387676,d248f4f5-336b-4ca6-b9cc-4a54b5a6283d,,education,school,OpenStreetMap,2024-04-30T18:59:41.000Z,,chicago,False
a24ea3f4-7808-413a-ab98-ad325cf40abd,Waters Elementary School,elementary_school,"['public_school', 'school']",IL,Chicago,60625.0,4540 N Campbell Ave,41.9642118,-87.6915701,meta,2025-06-02T07:00:00.000Z,0.9784508333782836,,,,,,,,chicago,False
c8b82386-5c75-4cbc-8e9b-b70bd9337076,Waters Garden,attractions_and_activities,['gardener'],,,60625.0,,41.963128,-87.681305,meta,2025-06-02T07:00:00.000Z,0.9459263554653524,,,,,,,,chicago,False
a2293d15-6a79-4f36-ab6e-60db3b32ba02,"Kohler Waters Spa at Lincoln Park, Chicago",day_spa,"['massage', 'skin_care', 'massage_therapy', 'wellness_program', 'spas', 'beauty_and_spa', 'health_and_medical', 'retail']",IL,Chicago,60614.0,2358 N Lincoln Ave,41.9249284,-87.6480042,Microsoft,2025-05-15T10:29:38.083Z,0.77,,,,,,,,chicago,False
e0957dcb-4b22-46c7-95f2-663cb559ba52,Mystic Waters Family Aquatic Center,water_park,"['amusement_park', 'swimming_pool']",IL,Des Plaines,60016.0,2025 Miner St,42.0378765,-87.8742393,meta,2025-06-02T07:00:00.000Z,0.9784508333782836,,,,,,,,chicago,False
892df132-bb42-448a-84a6-14700287f8d6,Tranquil Waters Float,medical_spa,"['massage', 'float_spa', 'wellness_program', 'spas', 'health_and_wellness_club', 'beauty_and_spa', 'health_and_medical', 'retail']",IL,Chicago,60631.0,7258 N Harlem Ave,42.013356,-87.807101,Microsoft,2020-01-28T20:53:35.450Z,0.77,ff203fee-78a3-4fe7-a6b2-7a98071b033c,,commercial,retail,OpenStreetMap,2021-02-12T01:51:28.000Z,,chicago,False
79aeaeff-1379-47ee-9ff1-e36c3b0e8635,Nestle Waters North America,eyewear_and_optician,"['train_station', 'installment_loans']",IL,Northbrook,60062.0,310 Huehl Rd,42.14708,-87.86375,meta,2025-06-02T07:00:00.000Z,0.3376623376623376,254a44fb-478c-4e9f-b07a-6e14ae2736dc,,industrial,industrial,OpenStreetMap,2023-10-14T15:45:10.000Z,,chicago,False
b046c258-70a6-4586-9393-e4b5469fab0b,Living Waters Lutheran Church,church_cathedral,['religious_organization'],IL,Crystal Lake,60014.0,1808 Miller Rd,42.1908121,-88.3602,meta,2025-06-02T07:00:00.000Z,0.9784508333782836,eb39e78d-8961-4a47-986d-00d04b771be1,,,,OpenStreetMap,2019-11-30T02:17:05.000Z,,chicago,False
5b809af5-b32c-48ce-ac93-0b532b050f85,Waters Edge Housing Development,real_estate,['professional_services'],,,60014.0,,42.2241889,-88.3090635,meta,2025-06-02T07:00:00.000Z,0.9297091412742382,,,,,,,,chicago,False
3b670403-6016-49cf-98de-086883e2ce32,Chap Waters - State Farm Insurance Agent,auto_insurance,['home_and_rental_insurance'],IL,Lake Forest,60045.0,27899 Irma Lee Cir Unit 102,42.267434,-87.903208,Microsoft,2023-10-31T04:17:37.367Z,0.77,9e33b740-e1f8-472b-be8a-3da74f2ca7a7,,industrial,industrial,OpenStreetMap,2015-09-26T03:11:30.000Z,,chicago,False
f7b06097-4afa-4db7-8286-bf1452928f1a,Chap Waters State Farm Agency,insurance_agency,,IL,Lake Forest,60045.0,27899 N Irma Lee Cir,42.2675,-87.90313,meta,2025-06-02T07:00:00.000Z,0.5662921348314607,9e33b740-e1f8-472b-be8a-3da74f2ca7a7,,industrial,industrial,OpenStreetMap,2015-09-26T03:11:30.000Z,,chicago,False
69ecc565-e36f-4e0a-98ee-8c6c0263767f,Living Waters Assembly of God,religious_organization,['church_cathedral'],IL,Grayslake,60030.0,525 N Atkinson Rd,42.350861,-88.023183,meta,2025-06-02T07:00:00.000Z,0.9784508333782836,,,,,,,,chicago,False
64e6e38e-4035-46a5-ba15-926fea5de428,Nestle Waters North America,shopping,"['professional_services', 'eyewear_and_optician']",VA,Lorton,22079.0,7408 Lockport Pl,38.717885,-77.197439,meta,2025-06-02T07:00:00.000Z,0.5662921348314607,cb5e48c1-f318-4663-8067-b26cedaece8c,,,,OpenStreetMap,2021-03-27T11:20:30.000Z,,washington-dc,False
64e6e38e-4035-46a5-ba15-926fea5de428,Nestle Waters North America,shopping,"['professional_services', 'eyewear_and_optician']",VA,Lorton,22079.0,7408 Lockport Pl,38.717885,-77.197439,meta,2025-06-02T07:00:00.000Z,0.5662921348314607,9033dd86-c5bc-4668-a834-0d3b6c51efef,,,,OpenStreetMap,2021-03-27T11:20:30.000Z,,washington-dc,False
377ef73b-a624-4915-be0a-54c6e6a53fde,Brackish Waters,clothing_store,"['sporting_goods', 'shopping']",MD,Oxon Hill,20745.0,178 Waterfront St,38.7836662,-77.0169669,meta,2025-06-02T07:00:00.000Z,0.9784508333782836,eee63647-00a1-4d1c-a485-ec869089d851,,commercial,retail,OpenStreetMap,2025-02-03T04:37:44.000Z,,washington-dc,False
8176e8f6-75f0-4e26-920a-edd05d4fb4bb,Waters and Caffi Fields,attractions_and_activities,"['park', 'stadium_arena']",VA,Vienna,22180.0,120 Cherry St SE,38.9002959,-77.2617024,meta,2025-06-02T07:00:00.000Z,0.9784508333782836,,,,,,,,washington-dc,False
41082c80-d178-4fbe-a6a3-da81306e7f30,Congresswoman Maxine Waters,public_service_and_government,"['central_government_office', 'public_and_government_association']",DC,Washington,20024.0,"Rayburn House Office Building, 45 Independence Ave SW",38.887108,-77.0104769,meta,2025-06-02T07:00:00.000Z,0.9415384615384615,b5908425-a8be-4150-bbf3-db6af0e25f0c,Rayburn House Office Building,,,OpenStreetMap,2023-02-22T05:48:27.000Z,,washington-dc,False
5d3ca72d-328f-4b40-a9d4-1e306a9cc837,Verma and Waters,employment_law,"['legal_services', 'lawyer']",DC,Washington,20006.0,2020 Pennsylvania Ave NW,38.900141,-77.0457548,meta,2025-06-02T07:00:00.000Z,0.8831168831168831,677ac911-82e6-4196-bbba-77163efd091d,,,,OpenStreetMap,2019-04-02T02:30:08.000Z,,washington-dc,False
5d3ca72d-328f-4b40-a9d4-1e306a9cc837,Verma and Waters,employment_law,"['legal_services', 'lawyer']",DC,Washington,20006.0,2020 Pennsylvania Ave NW,38.900141,-77.0457548,meta,2025-06-02T07:00:00.000Z,0.8831168831168831,c7816412-1643-4707-a2f8-90006a144b0f,2000 Penn,,,OpenStreetMap,2019-07-12T17:26:17.000Z,,washington-dc,False
8a5474dc-5c9a-4dea-a06c-84531ae3a701,Alex Waters First Home Mortgage,mortgage_broker,['transportation'],DC,Washington,20005.0,1015 15th St NW,38.9030938,-77.0343999,meta,2025-06-02T07:00:00.000Z,0.8831168831168831,73454e98-f016-4080-a9b2-6b56be08a039,,,,OpenStreetMap,2010-01-11T04:43:37.000Z,,washington-dc,False
4f1f9673-2546-46c6-8ea3-7b6d9a2add06,Blue Waters CS Grill,seafood_restaurant,"['caribbean_restaurant', 'restaurant']",MD,Camp Springs,0.0,,38.80153,-76.90631,meta,2025-06-02T07:00:00.000Z,0.5662921348314607,096c234a-0d3d-41f5-84cf-c34554e9c2ad,,,,OpenStreetMap,2013-06-03T02:06:52.000Z,,washington-dc,False
2c519717-407a-4b33-8e94-a6543ceebfdc,Blue Waters Caribbean & Seafood Grill,caribbean_restaurant,"['restaurant', 'bar']",MD,Temple Hills,20748.0,6349 Old Branch Ave,38.8016158,-76.9062694,meta,2025-06-02T07:00:00.000Z,0.9459263554653524,096c234a-0d3d-41f5-84cf-c34554e9c2ad,,,,OpenStreetMap,2013-06-03T02:06:52.000Z,,washington-dc,False
0d52c1b5-3d35-499b-aaef-4043a5afcf39,Church of Living Waters,church_cathedral,['religious_organization'],MD,Oxon Hill,20745.0,4915 Wheeler Rd,38.8218485,-76.9686477,meta,2025-06-02T07:00:00.000Z,0.9784508333782836,,,,,,,,washington-dc,False
35a612de-4e56-4c0d-89d6-08ab4ba599ab,Terrell A Waters Community Dental Centers,orthodontist,"['dentist', 'health_and_medical']",DC,Washington,20032.0,4300 Wheeler Rd SE,38.8326121,-76.9880111,meta,2025-06-02T07:00:00.000Z,0.9784508333782836,1196d15b-0c1e-470a-971e-163d541ab55a,,residential,semidetached_house,OpenStreetMap,2023-11-06T23:46:36.000Z,,washington-dc,False
35a612de-4e56-4c0d-89d6-08ab4ba599ab,Terrell A Waters Community Dental Centers,orthodontist,"['dentist', 'health_and_medical']",DC,Washington,20032.0,4300 Wheeler Rd SE,38.8326121,-76.9880111,meta,2025-06-02T07:00:00.000Z,0.9784508333782836,4c6476ba-31f4-4c6c-a144-59a187b88be3,,residential,semidetached_house,OpenStreetMap,2023-11-06T23:46:36.000Z,,washington-dc,False
de71e393-26cb-49fc-bc5e-1c606103f4e6,Oasis of Living Waters Ministries,church_cathedral,['religious_organization'],MD,Germantown,20874.0,12500 Wisteria Dr,39.1676944,-77.2610106,meta,2025-06-02T07:00:00.000Z,0.5662921348314607,14929d50-6809-481d-87f7-f375eb281667,,education,school,OpenStreetMap,2015-11-28T06:35:57.000Z,,washington-dc,False
3d550ffa-858f-41c1-a74f-a3ff75f372e8,Waters Landing Pool B,swimming_pool,"['active_life', 'pool_cleaning']",MD,Germantown,20874.0,13501 Waters Landing Dr,39.1953478,-77.2836092,meta,2025-06-02T07:00:00.000Z,0.9459263554653524,,,,,,,,washington-dc,False
5c3af68f-a76b-464c-b91f-b0802fd14412,Waters Landing Association,home_service,"['community_services_non_profits', 'preschool']",MD,Germantown,20874.0,20000 Father Hurley Blvd,39.183907,-77.275505,meta,2025-06-02T07:00:00.000Z,0.3961437335670464,df06b729-74bc-4d22-8ad5-5c9020ecc0f7,Canterbury Apartments,,,Esri Community Maps,2024-10-15T00:00:00.000Z,,washington-dc,False
9f1b2c67-96d5-4750-8dc3-6c6fab863143,Waters Landing Pool,swimming_pool,"['pool_cleaning', 'active_life']",,,20874.0,20000 Father Hurley Blvd,39.1895934,-77.2740649,meta,2025-06-02T07:00:00.000Z,0.9459263554653524,ddc16c0b-bfaf-4a0b-88e4-354bef2af6ed,,,,OpenStreetMap,2009-06-28T11:31:37.000Z,,washington-dc,False
b5dee9e2-c5fb-48f3-89d7-9a11a12c8c32,Waters Landing Elementary School,elementary_school,"['education', 'school']",MD,Germantown,20874.0,13100 Waters Landing Dr,39.1894176,-77.2683267,meta,2025-06-02T07:00:00.000Z,0.9784508333782836,,,,,,,,washington-dc,False
18e3e8ed-f913-4ce6-abae-fe7f8f15e8e0,Waters Landing Local Park,playground,"['park', 'social_service_organizations']",MD,Germantown,20874.0,13701 Waters Landing Dr,39.1957399,-77.2753634,meta,2025-06-02T07:00:00.000Z,0.9459263554653524,,,,,,,,washington-dc,False
e9039fef-1b95-463a-83b9-0bf782ec4636,Heritage at Waters Landing,real_estate,"['landmark_and_historical_building', 'property_management']",MD,Germantown,20874.0,20700 Crystal Hill Cir,39.196869,-77.2752274,meta,2025-06-02T07:00:00.000Z,0.9879256218304756,3bf0dca4-051f-4c29-8ebf-6137bd1f4c1b,,residential,apartments,OpenStreetMap,2020-10-27T14:10:55.000Z,,washington-dc,False
d5ca8508-1de8-45a6-bf18-0e635a7e1459,Adler at Waters Landing Apartments,apartments,,MD,Germantown,20874.0,20700 Crystal Hill Cir,39.19695,-77.27493,Microsoft,2019-06-03T21:22:16.743Z,0.77,5459714a-8cdd-49c5-8d67-74ac3e086c63,,residential,apartments,OpenStreetMap,2020-10-28T14:39:12.000Z,,washington-dc,False
47802f08-745c-4879-92a6-253d50381ad5,Endless Waters,bottled_water_company,"['grocery_store', 'eat_and_drink']",MD,Gaithersburg,20879.0,7901 Beechcraft Ave,39.163912,-77.1623867,meta,2025-06-02T07:00:00.000Z,0.9415384615384615,b7ef60da-c0d6-4e22-8d3a-8b7b0cc9bcad,,commercial,commercial,OpenStreetMap,2015-09-16T10:57:34.000Z,,washington-dc,False
a64ce9a9-630c-4004-9a8a-04db82addc8a,Waters House Special Park,landmark_and_historical_building,"['museum', 'arts_and_entertainment']",MD,Germantown,20876.0,12535 Milestone Manor Ln,39.2065234,-77.2582057,meta,2025-06-02T07:00:00.000Z,0.9415384615384615,,,,,,,,washington-dc,False
14451ac3-69be-4ac0-a6ce-b06abfb4e548,Crystal Waters Counseling Centers LLC,counseling_and_mental_health,['professional_services'],MD,Columbia,21046.0,9861 Broken Land Pkwy,39.1832144,-76.8508908,meta,2025-06-02T07:00:00.000Z,0.8860580325548478,300dedd7-2563-4393-ba99-5104e7c8d365,,commercial,office,OpenStreetMap,2024-11-23T21:17:35.000Z,,washington-dc,False
85d0062e-e0da-4ef5-ab8d-585a31638d0f,Tropical Waters Snowball Stand,ice_cream_shop,"['desserts', 'shaved_ice_shop']",MD,Clarksville,21029.0,12260 Clarksville Pike,39.2106502,-76.939387,meta,2025-06-02T07:00:00.000Z,0.9784508333782836,a0f6260e-e52c-4f46-96bc-c30689915541,Kendall Hardware,,,OpenStreetMap,2015-06-30T22:35:53.000Z,,washington-dc,False
633b1d51-6875-44d8-ad21-1cdaf37912b5,Sara Waters Design Group,advertising_agency,"['web_designer', 'business_advertising']",CA,Walnut Creek,94596.0,1630 N Main St,37.9010986,-122.0613039,meta,2025-06-02T07:00:00.000Z,0.242152466367713,8b9bd9b0-e315-4f23-9db1-06151213dc50,,,,OpenStreetMap,2022-04-03T04:14:21.000Z,,concord,False
018e1616-ee1d-4c65-b955-a939d08f02c4,Waters,amusement_park,"['public_utility_company', 'industrial_equipment']",CA,Pleasanton,94588.0,5720 Stoneridge Dr,37.690943,-121.8939201,meta,2025-06-02T07:00:00.000Z,0.8831168831168831,2534cc20-5952-421f-8d31-a426089a8ce3,,,,OpenStreetMap,2020-09-18T20:13:28.000Z,,concord,False
02c3d2d2-c73f-4115-a0f1-16ed56efad3f,San Ramon Waters by Wedgewood Weddings,venue_and_event_space,['wedding_planning'],CA,San Ramon,94583.0,9430 Fircrest Ln,37.7343135,-121.9285014,Microsoft,2025-05-24T00:24:49.040Z,0.77,,,,,,,,concord,False
c2f16871-5354-4c54-902b-7dbaac6cc838,Clear Waters Swimming Pool & Spa Service,pool_cleaning,"['spas', 'home_improvement_store']",CA,Clayton,94517.0,5433 Clayton Rd,37.9528333,-121.954284,meta,2025-06-02T07:00:00.000Z,0.9297091412742382,,,,,,,,concord,False
429a19bf-08c5-44f0-92b8-00cb1270bc41,Waters Moving & Storage,movers,"['storage_facility', 'packing_supply']",CA,Martinez,94553.0,37 Bridgehead Rd,38.0294415,-122.1176,meta,2025-06-02T07:00:00.000Z,0.9784508333782836,0b1aa47b-283f-4933-92ac-09645cd1f0e3,,,,Microsoft ML Buildings,2019-04-29T00:00:00.000Z,,concord,False
138abffd-96d7-4f7a-9232-1510c4bad8fa,Rose Waters Care Home,retirement_home,,CA,Concord,94521.0,1719 Mendocino Dr,37.974186,-121.989423,meta,2025-06-02T07:00:00.000Z,0.4929396662387676,c37417bc-dbde-4963-80b4-9bf308bbd8f4,,,,OpenStreetMap,2015-12-13T02:58:58.000Z,,concord,False
6a514913-bd3e-4477-89d5-d134084f5ddf,Living Waters Health Advisors,insurance_agency,,FL,Tampa,33619.0,615 S Ware Blvd,27.9417357,-82.3478342,meta,2025-06-02T07:00:00.000Z,0.8860580325548478,3930051a-e9be-4048-928d-9ebfd8bd81bd,,,,OpenStreetMap,2017-09-11T21:57:14.000Z,,tampa,False
94afab4e-7785-44c0-a024-c9230dd76fde,Waters Edge,real_estate_agent,,FL,Tampa,33615.0,7610 W Waters Ave,28.0240898132324,-82.5658645629883,Microsoft,2016-08-15T17:33:35.673Z,0.77,,,,,,,,tampa,False
223907c1-ade7-4046-8892-a56b000bcb6d,Town Furniture - Waters Ave,furniture_store,['mattress_store'],FL,Tampa,33634.0,7322 W Waters Ave,28.024552,-82.561576,meta,2025-06-02T07:00:00.000Z,0.5662921348314607,280ebcfb-032d-4900-99d3-2a970e89cfcb,,,,OpenStreetMap,2017-09-10T19:36:30.000Z,,tampa,False
6c9cb1bd-6cb2-4146-adee-b2a31a513dd8,Waters Coin Laundry,laundromat,"['dry_cleaning', 'shopping']",FL,Tampa,33634.0,7302 W Waters Ave,28.024603,-82.5606506,meta,2025-06-02T07:00:00.000Z,0.9784508333782836,280ebcfb-032d-4900-99d3-2a970e89cfcb,,,,OpenStreetMap,2017-09-10T19:36:30.000Z,,tampa,False
b4e99ff2-6508-4400-b11c-218e609072d6,BayCare Urgent Care (Waters),hospital,"['urgent_care_clinic', 'health_and_medical']",FL,Tampa,33634.0,6909 W Waters Ave,28.02581,-82.55666,Microsoft,2016-12-12T21:58:28.690Z,0.77,,,,,,,,tampa,False
3b223be5-12a9-47e2-845a-094cb9de50b0,Walmart Tampa - W Waters Ave,supermarket,"['shopping', 'superstore']",FL,Tampa,33634.0,7011 W Waters Ave,28.0269999,-82.5590912,meta,2025-06-02T07:00:00.000Z,0.9459263554653524,4106eaec-4216-4bd4-9a45-25b49724c3b0,,,,OpenStreetMap,2017-09-12T06:28:09.000Z,,tampa,False
70cc15bf-b757-4a55-8f65-e3fb5c4ff6b1,Waters Avenue Car Wash,car_wash,"['auto_detailing', 'travel']",FL,Tampa,33634.0,6913 W Waters Ave,28.0261347,-82.5574976,meta,2025-06-02T07:00:00.000Z,0.9784508333782836,c5b6afe4-83bf-48db-a97d-1cacc752723a,,,,OpenStreetMap,2017-09-12T06:28:43.000Z,,tampa,False
95283824-f482-4871-be8f-0d421674574a,Sanctuary Cannabis Tampa Waters Dispensary,online_shop,['retail'],FL,Tampa,33634.0,5712 W Waters Ave,28.0255826,-82.5436934,Microsoft,2025-05-17T20:32:46.160Z,0.77,,,,,,,,tampa,False
d5b8fa3c-cb74-460e-b19a-28a2fe267668,U-Haul Moving & Storage at West Waters Ave,truck_rentals,['automotive'],FL,Tampa,33634.0,5404 W Waters Ave,28.0253516,-82.53417313,Microsoft,2025-05-16T16:56:53.903Z,0.77,,,,,,,,tampa,False
981aa547-49a2-41d2-942a-b96b772178de,GFC Courageous - Waters,religious_organization,['church_cathedral'],FL,Tampa,33634.0,5100 W Waters Ave,28.0248823,-82.5307529,meta,2025-06-02T07:00:00.000Z,0.5662921348314607,1fbc450a-5f28-474f-9fa9-c021a10bfcf6,,commercial,commercial,OpenStreetMap,2017-09-12T06:29:31.000Z,,tampa,False
1b8d763b-66c3-4201-b469-90ce274fc0df,Amy Waters,mortgage_broker,"['installment_loans', 'real_estate']",FL,Tampa,33607.0,1408 N Westshore Blvd,27.9553702,-82.5251743,meta,2025-06-02T07:00:00.000Z,0.909823677581864,fb32c049-e9b8-4a4b-8979-3f915754e052,,,,OpenStreetMap,2017-09-11T18:28:18.000Z,,tampa,False
57a1d009-a5a3-4d14-acca-b6cc05d22baa,"Alicia Waters, MD",pediatrician,"['surgeon', 'doctor', 'health_and_medical']",FL,Tampa,33614.0,"3001 W Doctor Martin Luther King Junior Blvd, SJCH 1st Floor Stop 2845",27.9820619,-82.4921115,Microsoft,2022-12-05T13:26:20.017Z,0.77,0fbd9764-b42f-461d-8618-8a38bc2d4018,,medical,hospital,OpenStreetMap,2022-10-10T10:54:59.000Z,,tampa,False
329d957a-872e-424d-9396-268f779c9f70,Medical Academy at D.W. Waters,high_school,"['education', 'school']",FL,Tampa,33602.0,2704 N Highland Ave,27.9677834,-82.4630143,meta,2025-06-02T07:00:00.000Z,0.9784508333782836,918d6af4-9c90-4276-81c4-6d4fd13095f9,,,,Microsoft ML Buildings,2023-09-01T00:00:00.000Z,0.9969000220298768,tampa,False
329d957a-872e-424d-9396-268f779c9f70,Medical Academy at D.W. Waters,high_school,"['education', 'school']",FL,Tampa,33602.0,2704 N Highland Ave,27.9677834,-82.4630143,meta,2025-06-02T07:00:00.000Z,0.9784508333782836,16cfa764-e8e1-422a-8235-e1419d92bbfe,Water's Career Center,,,OpenStreetMap,2017-09-13T09:52:29.000Z,,tampa,False
6f83af6f-9e03-499b-90d0-111c2767530d,Waters Express Laundry Center,laundromat,"['dry_cleaning', 'eat_and_drink']",FL,Tampa,33614.0,4333 W Waters Ave,28.0257589,-82.5163367,meta,2025-06-02T07:00:00.000Z,0.9879256218304756,84456103-93e6-4046-b8a9-0f5a8d26a843,,,,OpenStreetMap,2017-09-10T19:42:02.000Z,,tampa,False
37ab2d36-2b7b-4450-870c-5874c785acff,InnovaCare Health - Waters Medical,doctor,"['medical_center', 'health_and_medical']",FL,Tampa,33614.0,8408 N Grady Ave,28.0260933,-82.5093379,Microsoft,2023-09-19T14:48:57.793Z,0.77,ca7a720c-dea7-412e-a52e-6887ff068591,,,,OpenStreetMap,2017-09-10T19:42:03.000Z,,tampa,False
5446ece9-8eaf-42d1-aa00-8293fdeed712,Waters Medical Clinic,doctor,"['hospital', 'family_practice']",FL,Tampa,33614.0,8408 Grady Ave N,28.02605,-82.50926,meta,2025-06-02T07:00:00.000Z,0.7548172757475083,ca7a720c-dea7-412e-a52e-6887ff068591,,,,OpenStreetMap,2017-09-10T19:42:03.000Z,,tampa,False
ff9f6c1c-9d9d-42eb-8262-e2644835f84a,Waters Wellness Center,naturopathic_holistic,['nutritionist'],FL,Tampa,33614.0,3911 W Waters Ave,28.0260216,-82.5085577,meta,2025-06-02T07:00:00.000Z,0.9297091412742382,ffb3166f-5e6f-47c9-8e41-d8dc207a1481,Oak Tree Plaza,commercial,retail,OpenStreetMap,2017-09-10T19:43:17.000Z,,tampa,False
411e0ca2-e3d5-4301-a5e5-007e43582648,VIPcare Tampa - Waters,medical_center,['health_and_medical'],FL,Tampa,33614.0,8201 N Dale Mabry Highway Ste 2,28.0230994,-82.5048979,Microsoft,2025-01-23T22:16:58.073Z,0.77,,,,,,,,tampa,False
4aba7de3-8da6-4475-a3c5-fef0f670c659,Innovo Living on Waters,landmark_and_historical_building,"['real_estate', 'home_developer']",FL,Tampa,33614.0,8421 Del Lago Cir,28.0259398,-82.4971558,meta,2025-06-02T07:00:00.000Z,0.9879256218304756,cdfffe9b-1ee9-4c86-a30a-dce39a27150c,,,,OpenStreetMap,2017-09-10T10:14:31.000Z,,tampa,False
93298e95-7e91-4973-b55a-0ccf13827c59,Dance on Waters,dance_wear,"['sports_wear', 'performing_arts', 'specialty_school', 'active_life', 'arts_and_entertainment', 'education', 'retail']",FL,Tampa,33614.0,3301 W Waters Ave Ste 102,28.025414,-82.494552,Microsoft,2014-04-19T23:23:11.823Z,0.77,,,,,,,,tampa,False
bacbaac7-16ca-4438-8ded-267b6bc30252,The Park on Waters,landmark_and_historical_building,"['park', 'real_estate']",FL,Tampa,33614.0,2701 W Waters Ave,28.0260533,-82.486902,meta,2025-06-02T07:00:00.000Z,0.9784508333782836,2590831f-624a-46eb-aa0c-efc0b853b191,,,,OpenStreetMap,2017-09-10T10:14:09.000Z,,tampa,False
b02918e3-9417-4c39-8798-e54e0f3a095d,Chinawok at Waters ave & Armenia ave,chinese_restaurant,"['restaurant', 'asian_restaurant']",FL,Tampa,33604.0,8412 N Armenia Ave,28.026079,-82.486014,meta,2025-06-02T07:00:00.000Z,0.5662921348314607,52479c75-deee-4016-901c-0b30098680c5,,,,OpenStreetMap,2017-09-10T10:14:53.000Z,,tampa,False
e33e2a43-778c-4723-b70f-ace8cba89840,Melrose at Waters Apartments,landmark_and_historical_building,"['accommodation', 'real_estate']",FL,Tampa,33604.0,1915 W Waters Ave,28.0257771,-82.4794705,meta,2025-06-02T07:00:00.000Z,0.9459263554653524,95b92640-8fc4-4775-8ddf-8d46871884b4,,,,OpenStreetMap,2017-09-11T23:17:56.000Z,,tampa,False
2eef6e51-a573-4768-ae13-066e9d0c3262,West Waters Dental,dentist,"['medical_service_organizations', 'landmark_and_historical_building']",FL,Tampa,33604.0,1804 W Waters Ave,28.0251861,-82.4776668,meta,2025-06-02T07:00:00.000Z,0.9784508333782836,,,,,,,,tampa,False
a21ed3f7-ab80-4f85-b182-8fac4bb299df,Waters Avenue Church,church_cathedral,['religious_organization'],FL,Tampa,33604.0,609 W Waters Ave,28.0257132,-82.4657614,meta,2025-06-02T07:00:00.000Z,0.9784508333782836,8db16a3d-ff2d-4b50-8042-497c5583547b,,,,OpenStreetMap,2017-09-11T23:19:21.000Z,,tampa,False
c01cf476-27a4-4d32-b0cc-13ce3cf8a84f,Waters and Armenia Plaza,event_planning,['social_service_organizations'],FL,Tampa,33604.0,8415 N Armenia Ave,28.0261414,-82.4849532,meta,2025-06-02T07:00:00.000Z,0.9204819277108434,,,,,,,,tampa,True
890cead6-35cf-485b-80ec-b8985110da60,Carlyle at Waters Apartments,apartments,,FL,Tampa,33604.0,8415 N Armenia Ave,28.0264309,-82.48308,Microsoft,2019-09-15T08:00:49.627Z,0.77,,,,,,,,tampa,False
1e3b0248-f54f-4944-bfa8-40955d4faae1,Haven at Waters Edge,apartments,,FL,Tampa,33604.0,8415 N Armenia Ave,28.0265225,-82.4831001,Microsoft,2021-04-16T10:38:10.097Z,0.77,80417aff-b58a-42fa-befc-7fd759b50c6a,,,,OpenStreetMap,2017-09-11T23:19:39.000Z,,tampa,False
df4d190e-dc08-4f08-b57f-eb677d4da59d,Haven Waters Edge Apartments,landmark_and_historical_building,"['real_estate', 'accommodation']",FL,Tampa,33604.0,8415 N Armenia Ave,28.0271602,-82.4839672,meta,2025-06-02T07:00:00.000Z,0.9688311688311688,953bf5f6-f94e-416b-b2af-34b228f5e1a5,,,,OpenStreetMap,2017-09-11T23:18:25.000Z,,tampa,False
daa8a100-2123-4e41-ae2a-a436a817db15,Checkers at 107 W. Waters Ave,fast_food_restaurant,"['burger_restaurant', 'american_restaurant']",FL,Tampa,33604.0,107 W Waters Ave,28.0257072,-82.4598875,meta,2025-06-02T07:00:00.000Z,0.9784508333782836,b3010c61-d151-43f6-b2fe-13e9ba091bef,,outbuilding,roof,OpenStreetMap,2021-12-30T15:16:00.000Z,,tampa,False
daa8a100-2123-4e41-ae2a-a436a817db15,Checkers at 107 W. Waters Ave,fast_food_restaurant,"['burger_restaurant', 'american_restaurant']",FL,Tampa,33604.0,107 W Waters Ave,28.0257072,-82.4598875,meta,2025-06-02T07:00:00.000Z,0.9784508333782836,26bf35d4-4d49-4a77-8775-998bfa1ff4c9,Checkers,commercial,,OpenStreetMap,2024-01-17T03:39:38.000Z,,tampa,False
92e7efb2-dad0-4f0b-9fb0-0a824d9c0108,Nestle Waters North America,professional_services,"['grocery_store', 'shopping']",FL,Tampa,33610.0,6403 Harney Rd,28.001231,-82.380065,meta,2025-06-02T07:00:00.000Z,0.296943231441048,bdecf6c0-8ae1-4081-8c00-a6cd2138dee4,,,,OpenStreetMap,2017-09-09T20:11:25.000Z,,tampa,False
0ea9db71-60a8-4f97-9f95-b6b77eb1fd48,Waters Engineering,engineering_services,"['real_estate_agent', 'real_estate_service']",CA,Visalia,93292.0,13247 Perry Ct,36.365698,-119.278261,meta,2025-06-02T07:00:00.000Z,0.242152466367713,cf86f708-2083-492f-ac25-07c9e7d95e4a,,residential,house,OpenStreetMap,2024-11-06T19:32:22.000Z,,visalia,False
aafa7c06-2d16-40dd-9e64-2dbd795a4dc3,Living Waters GSO,religious_organization,"['church_cathedral', 'community_services_non_profits']",NC,Greensboro,27406.0,1808 Mack St,36.02637,-79.82083,meta,2025-06-02T07:00:00.000Z,0.7548172757475083,a732a542-f702-4c2c-a90c-4d5e03933e88,,,,OpenStreetMap,2020-10-30T22:31:25.000Z,,greensboro,False
53f0eefb-4779-4717-a039-51b4cfb6c42e,Waters Family Insurance,insurance_agency,,KY,Fort Thomas,41075.0,155 N Fort Thomas Ave,39.0814444,-84.4502339,meta,2025-06-02T07:00:00.000Z,0.9297091412742382,,,,,,,,cincinnati,False
0a7b0485-ac60-444f-8813-ad416e5d346f,Robert Waters | Waters Family Insurance,health_insurance_office,['health_and_medical'],KY,Fort Thomas,41075.0,155 N Fort Thomas Ave,39.0815834,-84.450015,Microsoft,2025-03-26T00:15:38.860Z,0.77,,,,,,,,cincinnati,False
bb9e4e70-d476-4a45-b160-2c320e22fbf4,Three Waters Recovery Center,counseling_and_mental_health,"['abuse_and_addiction_treatment', 'health_and_medical']",OH,Cincinnati,45245.0,754B Old State Route 74,39.0693849,-84.312856,meta,2025-06-02T07:00:00.000Z,0.9879256218304756,,,,,,,,cincinnati,False
05d47c12-2ffa-4adf-b77d-e6326063631b,The Church At Waters Edge,church_cathedral,['religious_organization'],OH,Hamilton,45013.0,240 Park Ave,39.4044979,-84.5676526,meta,2025-06-02T07:00:00.000Z,0.9784508333782836,fc526e46-ca69-4283-802c-0895bcea857c,,,,OpenStreetMap,2023-09-23T11:53:49.000Z,,cincinnati,False
24e22a17-4636-456f-aaa7-cf07776bf759,Living Waters Women's Health,hospital,['health_and_medical'],TX,El Paso,79938.0,3270 Joe Battle Blvd,31.7894595,-106.2650834,meta,2025-06-02T07:00:00.000Z,0.9784508333782836,,,,,,,,el-paso,False
da5691c5-1c4c-4845-bf6d-f09944b44df7,Still Waters Catering Company,caterer,,CA,Lancaster,93536.0,2801 W Avenue H,34.6612,-118.18143,Microsoft,2018-05-21T17:50:34.310Z,0.77,,,,,,,,lancaster-palmdale,False
b9e6b4d2-4084-404c-aa9e-a4f62fddf55e,Still Waters Catering Company,venue_and_event_space,,CA,Lancaster,93534.0,44206 10th St W,34.6860457,-118.1479738,Microsoft,2025-05-19T14:02:50.483Z,0.77,,,,,,,,lancaster-palmdale,True
c89de3bf-c5b3-4c52-b78b-1ebfebbce100,Still Waters Catering Company,caterer,"['grocery_store', 'restaurant']",CA,Lancaster,93536.0,2801 W Avenue H,34.7218081,-118.1814673,meta,2025-06-02T07:00:00.000Z,0.9300613496932516,b3e6cd69-c47b-459f-a39b-498b0d5e608f,Rite Aid Customer Support Center,industrial,industrial,OpenStreetMap,2023-08-26T01:15:29.000Z,,lancaster-palmdale,False
deb39594-c816-4169-bc53-75feae227b5c,Calm Waters Massage,massage,"['spas', 'beauty_and_spa']",TX,Fort Worth,76119.0,5138 Mansfield Hwy,32.6676467,-97.2469131,meta,2025-06-02T07:00:00.000Z,0.9784508333782836,0376426a-2d5c-49b8-baf8-cc61b06a932f,,,,OpenStreetMap,2020-05-16T17:17:05.000Z,,fort-worth,False
ec87251c-547a-4264-8e9b-215e4b275d9e,"Waters, Vollmering Beavers & Adams LLP",tax_services,,TX,Mansfield,76063.0,990 N Walnut Creek Dr Ste 2000,32.5799208,-97.1323822,Microsoft,2025-04-27T00:26:07.510Z,0.77,,,,,,,,fort-worth,False
d1ef824d-83c8-45d6-a845-eeb2c9395c67,Waters Edge at Mansfield,landmark_and_historical_building,['real_estate'],TX,Grand Prairie,75052.0,3651 Prairie Waters Dr,32.6067933,-97.0726704,meta,2025-06-02T07:00:00.000Z,0.9784508333782836,,,,,,,,fort-worth,False
e11cf189-dccc-4140-87ec-9ca4390ee72d,Waters Edge at Mansfield,apartments,['condominium'],TX,Grand Prairie,75052.0,3651 Prairie Waters Dr,32.6072511,-97.0725327,Microsoft,2025-01-16T19:05:39.080Z,0.77,,,,,,,,fort-worth,False
7a4df69e-a7fb-404b-bea9-6a11acfb8357,Mighty Waters Pressure Washing Service,home_cleaning,['professional_services'],TX,Fort Worth,76107.0,5004 Lovell Ave,32.7311595,-97.3954181,meta,2025-06-02T07:00:00.000Z,0.3313953488372093,,,,,,,,fort-worth,False
8c139694-3f0b-42a7-bf75-2ddcde7c195b,Cathy Waters Realtor,real_estate_agent,['real_estate'],TX,Fort Worth,76179.0,8101 Boat Club Rd,32.871407,-97.426562,meta,2025-06-02T07:00:00.000Z,0.672566371681416,f74eb910-31de-4049-bf95-7394525168e2,,,,OpenStreetMap,2022-11-03T18:39:42.000Z,,fort-worth,False
3f76478b-1625-4464-b1d8-3d5a29bbf1e9,Waters Restaurant - Sundance Square,seafood_restaurant,"['cocktail_bar', 'restaurant']",TX,Fort Worth,76102.0,301 Main St,32.7557415,-97.3318544,meta,2025-06-02T07:00:00.000Z,0.9879256218304756,d136a24b-df9f-4d05-b701-9474a64a822b,,,,OpenStreetMap,2019-02-13T17:27:07.000Z,,fort-worth,False
385f8b23-8284-4fb5-801d-47d101fc92d3,Living Waters Park,park,"['topic_concert_venue', 'nature_reserve']",TX,Fort Worth,76119.0,6000 Wilbarger St,32.697483,-97.226735,meta,2025-06-02T07:00:00.000Z,0.7548172757475083,ca0ac98a-d910-4515-ae22-7ea2f8cb3402,,,,OpenStreetMap,2017-06-29T17:56:56.000Z,,fort-worth,False
be766234-f053-4184-a2ce-979f590aa659,Dismuke & Waters,wills_trusts_and_probate,"['lawyer', 'real_estate_law']",TX,Arlington,76006.0,2000 E Lamar Blvd,32.7620457,-97.0766605,meta,2025-06-02T07:00:00.000Z,0.5662921348314607,58749b68-4f8a-492c-960d-7bc4f51a85d1,Bank of America Building,commercial,office,OpenStreetMap,2020-01-23T15:46:21.000Z,,fort-worth,False
be766234-f053-4184-a2ce-979f590aa659,Dismuke & Waters,wills_trusts_and_probate,"['lawyer', 'real_estate_law']",TX,Arlington,76006.0,2000 E Lamar Blvd,32.7620457,-97.0766605,meta,2025-06-02T07:00:00.000Z,0.5662921348314607,f3d82a0a-6a4f-4f3d-8f63-330d32d72b07,,,,OpenStreetMap,2020-01-23T15:46:21.000Z,,fort-worth,False
c6fed410-22f1-477d-a51a-0856527a607f,Waters Park,landmark_and_historical_building,"['real_estate', 'accommodation']",TX,Bedford,76021.0,1401 Shady Ln,32.8464729,-97.1464402,meta,2025-06-02T07:00:00.000Z,0.9784508333782836,,,,,,,,fort-worth,False
d5090162-8be2-4c9c-a2e7-bf7843b85f60,Waters Custom Roofing,roofing,"['contractor', 'home_improvement_store']",TX,Fort Worth,76244.0,9500 Ray White Rd,32.9119022,-97.2718291,meta,2025-06-02T07:00:00.000Z,0.9415384615384615,ca07ad39-32f6-46cf-b7f5-0d0685a486d6,,,,OpenStreetMap,2022-11-11T18:57:28.000Z,,fort-worth,False
5a6f8645-a90e-4b92-bd6b-53a6718f721f,Premium Waters,bottled_water_company,"['commercial_industrial', 'professional_services']",TX,Fort Worth,76177.0,5651 Alliance Gateway Fwy,32.987293,-97.2416112,meta,2025-06-02T07:00:00.000Z,0.9784508333782836,63bd1bb7-cb93-48eb-a251-de50447491a9,Premium Waters,industrial,industrial,OpenStreetMap,2020-06-11T21:47:18.000Z,,fort-worth,False
bc82dbb2-67fb-4eae-821a-5d3514252df3,Waters Financial Planning,financial_advising,['financial_service'],TX,Southlake,76092.0,1312 Powder River Trl,32.978989,-97.128458,meta,2025-06-02T07:00:00.000Z,0.9415384615384615,bbdfa6ae-72a8-4c57-b3d5-ae12c4519045,,residential,house,OpenStreetMap,2019-06-25T15:27:05.000Z,,fort-worth,False
80c53604-a5ea-4a5c-9295-5e502030dfca,Waters Car Wash - W Osceola Pkwye,car_wash,['professional_services'],FL,Kissimmee,34741.0,1040 W Osceola Pkwy,28.3405292,-81.4134009,meta,2025-06-02T07:00:00.000Z,0.9784508333782836,023817e5-51c8-4f5e-9db9-41ff68b09e20,,,,OpenStreetMap,2023-05-25T11:38:52.000Z,,kissimmee,False
0909548b-c8ef-47d9-8b5d-f1f4243341a1,Waters Car Wash,car_wash,['professional_services'],FL,Orlando,32837.0,12491 Orange Blossom Trl S,28.3841395,-81.4039679,meta,2025-06-02T07:00:00.000Z,0.9784508333782836,f5004b4e-fd28-4d10-b726-6d8d050497cf,,,,OpenStreetMap,2020-05-31T03:58:20.000Z,,kissimmee,False
406e49f7-a013-445b-8944-652993547629,Waters Car Wash - E Osceola Pkwy,car_wash,['automotive'],FL,Buena Ventura Lakes,34743.0,2835 E Osceola Pkwy,28.3433285,-81.3282286,Microsoft,2025-05-23T00:26:10.940Z,0.77,,,,,,,,kissimmee,False
5057acc3-df44-4b40-b438-5da64fd5cf7b,Renewing Waters of OC,spas,['beauty_and_spa'],CA,Costa Mesa,92626.0,3151 Airway Ave Ste P-1,33.677614,-117.873515,Microsoft,2019-05-17T02:15:52.690Z,0.77,,,,,,,,mission-viejo,False
a8584fed-7893-4fe7-9276-2772b41cb8ef,Renewing Waters of OC,spas,"['active_life', 'naturopathic_holistic']",CA,Costa Mesa,92626.0,3151 Airway Ave,33.678896,-117.8733932,meta,2025-06-02T07:00:00.000Z,0.8540983606557377,868efd6c-776c-4937-8b00-3013673f2138,,,,OpenStreetMap,2024-03-13T18:50:40.000Z,,mission-viejo,False
776af402-b199-48cd-ad69-d56220178234,Waters Restaurant,seafood_restaurant,"['restaurant', 'american_restaurant']",CA,Irvine,92604.0,4615 Barranca Pkwy,33.678923,-117.798768,meta,2025-06-02T07:00:00.000Z,0.4929396662387676,,,,,,,,mission-viejo,False
8ff2eadc-2aaa-4d0d-8c88-c03383e8d444,Cleansing Waters Colonics,massage,"['colonics', 'massage_therapy', 'wellness_program', 'spas', 'health_and_wellness_club', 'beauty_and_spa', 'health_and_medical']",SC,Fort Mill,29715.0,"3071 US-21, Ste 105",35.075644,-80.936097,Microsoft,2025-05-21T22:45:00.823Z,0.77,9e04f3c8-37ab-458c-a3b9-95398c4fdeb2,,,,OpenStreetMap,2021-09-30T16:39:23.000Z,,charlotte,False
0bbbc5c3-b0e9-4b92-a81d-fe942b583f84,Cleansing Waters Colonics,massage,['spas'],SC,Fort Mill,29715.0,3071 Highway 21 Byp,35.0757323,-80.9360627,meta,2025-06-02T07:00:00.000Z,0.9459263554653524,9e04f3c8-37ab-458c-a3b9-95398c4fdeb2,,,,OpenStreetMap,2021-09-30T16:39:23.000Z,,charlotte,False
fc4239a8-ac2f-48ee-b187-15e9baa5bf16,Blue Waters Construction,contractor,"['pool_cleaning', 'patio_covers']",NC,Pineville,28134.0,9628 Industrial Dr,35.1032913,-80.8875436,meta,2025-06-02T07:00:00.000Z,0.8540983606557377,44ed848a-5cec-48eb-84d7-ffcd6687fd5d,,,,OpenStreetMap,2024-05-06T20:20:19.000Z,,charlotte,False
297dc983-3721-49b2-824a-bd8cfc7f82f2,Curtis Waters at Real Estate Realty,real_estate_agent,"['real_estate_service', 'real_estate']",NC,Charlotte,28210.0,6000 Fairview Rd,35.1501999,-80.839241,meta,2025-06-02T07:00:00.000Z,0.242152466367713,7e769774-74fe-4a4f-a33f-9f91e920d0e9,,commercial,commercial,OpenStreetMap,2023-10-30T06:26:22.000Z,,charlotte,False
96dcc46d-bbe8-4619-9276-9a03a9d71d64,Blue Waters Financial Group,financial_advising,['financial_service'],NC,Charlotte,28210.0,6849 Fairview Rd,35.1474642,-80.8262529,meta,2025-06-02T07:00:00.000Z,0.9415384615384615,f98595e6-21bb-415b-8b8a-a0de1098daa5,Nationwide,,,OpenStreetMap,2024-01-17T03:38:31.000Z,,charlotte,False
ba16ecce-d3e1-4b93-ba32-ad2d12283df0,The Villa at Waters Edge,hotel,"['bed_and_breakfast', 'holiday_rental_home']",NC,Belmont,28012.0,170 Charity Ln,35.2030935,-81.0094338,meta,2025-06-02T07:00:00.000Z,0.9459263554653524,59b1415e-19f3-410a-beb6-83781cd3e270,The Villa at Waters Edge,,,OpenStreetMap,2022-10-04T11:30:47.000Z,,charlotte,False
f99cc516-785a-42ab-9ea6-2e238a5bb72e,Calming Waters Counseling Services,counseling_and_mental_health,"['doctor', 'massage']",NC,Charlotte,28211.0,447 S Sharon Amity Rd,35.1729407,-80.8045532,meta,2025-06-02T07:00:00.000Z,0.9459263554653524,7e7d46fc-401c-46f9-830c-8a8c4e940fac,,,,OpenStreetMap,2023-01-18T22:06:27.000Z,,charlotte,False
b396170c-119d-4644-be69-cfe2a786563a,"Peter M. Waters, MD, MMSc",orthopedist,"['doctor', 'health_and_medical']",NC,Charlotte,28207.0,1915 Randolph Rd,35.2094831,-80.8233573,Microsoft,2025-04-26T03:11:34.100Z,0.77,,,,,,,,charlotte,False
44c321db-ef37-40d7-99d7-b110f79ee374,Living Waters Eastern Bible University College,college_university,['education'],NC,Charlotte,28215.0,2216 Lanecrest Dr,35.2423537,-80.7477252,meta,2025-06-02T07:00:00.000Z,0.9297091412742382,,,,,,,,charlotte,False
838cac61-f2e8-4a0b-8f1a-7bf65d93b526,Fountain of Living Waters,church_cathedral,['religious_organization'],NC,Charlotte,28269.0,4100 Nevin Rd,35.287941,-80.8220291,meta,2025-06-02T07:00:00.000Z,0.5662921348314607,0e8ff9a1-056e-4adb-800c-9405a14824bf,,residential,house,OpenStreetMap,2023-06-30T20:44:53.000Z,,charlotte,False
26b41e91-7e99-45c1-a23e-7be9b590cc09,Wolff Waters Place,landmark_and_historical_building,"['real_estate_service', 'real_estate']",CA,La Quinta,92253.0,47795 Dune Palms Rd,33.7018226,-116.2781436,meta,2025-06-02T07:00:00.000Z,0.9459263554653524,2f6d7a06-7c48-4a40-9b67-15757165cabf,,,,Microsoft ML Buildings,2022-05-28T00:00:00.000Z,,indio,False
46f1f9fb-5e75-4001-bceb-b88705877231,Indian Waters RV Resort and Cottages,rv_park,"['hotel', 'campground']",CA,Indio,92201.0,47202 Jackson St,33.7062977,-116.2157741,meta,2025-06-02T07:00:00.000Z,0.9784508333782836,9e0444ac-cfcb-4131-8c33-b402da9d2f7f,,,,Microsoft ML Buildings,2022-05-28T00:00:00.000Z,,indio,False
d9e9e3f1-346f-46aa-9a75-1005cd7d3d0a,Shaun Waters Real Estate brokered by Equity Union.,real_estate_service,['real_estate'],CA,Palm Springs,92264.0,610 S Belardo Rd,33.8165099,-116.5465367,meta,2025-06-02T07:00:00.000Z,0.3376623376623376,b19bea86-beea-4664-a43e-3359ee190646,,,,OpenStreetMap,2017-03-15T21:42:32.000Z,,indio,False
16c48f90-5a22-4b22-86f0-e7526845fa35,Waters Cafe,cafe,"['restaurant', 'american_restaurant']",CA,Rancho Mirage,92270.0,32250 Bob Hope Dr,33.8145406,-116.4090858,meta,2025-06-02T07:00:00.000Z,0.9784508333782836,983712a9-6bbe-43f9-90cb-a0365eeca6b9,Agua Caliente Resort Casino Spa Rancho Mirage,entertainment,,OpenStreetMap,2024-08-22T19:05:56.000Z,,indio,False
3d8c31c8-9b6b-4cc5-b4b5-084a6dcdd99d,Church of Living Waters,church_cathedral,,TX,Rosenberg,77471.0,4808 Airport Ave,29.5412178,-95.7775516,meta,2025-06-02T07:00:00.000Z,0.9784508333782836,d45d9649-65fc-499c-891f-dddb6398374b,Living Water Christian School,education,school,OpenStreetMap,2024-01-11T20:07:40.000Z,,houston,False
28397638-3d0d-44b0-a6d7-dd2d96ed4e57,Waters Edge Winery & Bistro,winery,"['wine_bar', 'burger_restaurant']",TX,Richmond,77407.0,4828 Waterview Town Center Dr,29.66053,-95.7162336,meta,2025-06-02T07:00:00.000Z,0.9784508333782836,,,,,,,,houston,False
f6d3e14a-7908-4b0a-b940-89eba4e67bda,DS Waters of America,commercial_industrial,"['grocery_store', 'industrial_company']",TX,Katy,77494.0,27815 Highway Blvd,29.7851794,-95.8544578,meta,2025-06-02T07:00:00.000Z,0.9459263554653524,,,,,,,,houston,False
a34d593e-179d-45cf-a8aa-110893a5c2ba,The Waters Church,church_cathedral,['religious_organization'],TX,Katy,77493.0,2210 Katy Fort Bend Rd,29.8067229,-95.8048978,meta,2025-06-02T07:00:00.000Z,0.9784508333782836,,,,,,,,houston,False
4de33017-703e-4e6b-8413-6733c08df35f,Abundant Waters Fellowship,church_cathedral,['religious_organization'],TX,Houston,77084.0,17810 French Rd,29.8468441,-95.6717238,meta,2025-06-02T07:00:00.000Z,0.9784508333782836,f30e3003-10dc-4fe8-b54f-97a171132bff,,,,OpenStreetMap,2017-09-03T01:19:13.000Z,,houston,False
b46741e0-88e7-4d0e-a91f-002b10a096eb,Living Waters Assembly of God,religious_organization,"['pentecostal_church', 'church_cathedral']",TX,Magnolia,77355.0,622 Commerce,30.2096012,-95.7528527,meta,2025-06-02T07:00:00.000Z,0.9784508333782836,5f764f92-8c60-41ec-bba5-abd8790e5187,Living Waters Church,religious,,OpenStreetMap,2021-01-03T03:42:34.000Z,,houston,False
f5d7f6ba-b2c2-43e5-a816-dff215c33976,By Still Waters-A fine art photography service,professional_services,['shopping'],TX,League City,77573.0,321 Camellia Way,29.5196034,-95.0617553,meta,2025-06-02T07:00:00.000Z,0.242152466367713,9afa0daf-772e-46ef-b453-aff5606b90cc,,,,Microsoft ML Buildings,2022-03-25T00:00:00.000Z,,houston,False
f5d7f6ba-b2c2-43e5-a816-dff215c33976,By Still Waters-A fine art photography service,professional_services,['shopping'],TX,League City,77573.0,321 Camellia Way,29.5196034,-95.0617553,meta,2025-06-02T07:00:00.000Z,0.242152466367713,bbb73de5-3f87-41df-a960-ac6863ae796b,,,,Microsoft ML Buildings,2022-03-25T00:00:00.000Z,,houston,False
af2f04df-110d-4f24-98bc-136daaaab4fe,Living Waters Christian Church,church_cathedral,['religious_organization'],TX,Stafford,77477.0,845 Staffordshire Rd,29.6070725,-95.5500528,meta,2025-06-02T07:00:00.000Z,0.9784508333782836,2a3ae27c-2ffa-45af-ae3f-e6ce30b93f6c,,,,Microsoft ML Buildings,2023-09-01T00:00:00.000Z,0.9771999716758728,houston,False
ab226e31-2034-46ca-afaf-28b0cc3024ee,Waters at Westchase Apartments,landmark_and_historical_building,"['real_estate', 'real_estate_agent']",TX,Houston,77072.0,11490 Harwin Dr,29.7157463,-95.5744354,meta,2025-06-02T07:00:00.000Z,0.9879256218304756,,,,,,,,houston,False
3085144e-11be-4b4b-8526-911c0970dd4b,Tranquil Waters Spa,spas,"['beauty_and_spa', 'counseling_and_mental_health']",TX,Houston,77036.0,6600 Harwin Dr,29.7200856,-95.4987138,meta,2025-06-02T07:00:00.000Z,0.9297091412742382,b812aa02-85e8-4a72-a856-82d34bbf1c0d,,,,OpenStreetMap,2023-06-14T04:14:13.000Z,,houston,False
1cae11c1-c6b7-48d1-9ac9-3692bac8f7fb,Waters of Winrock,landmark_and_historical_building,"['real_estate', 'real_estate_service']",TX,Houston,77057.0,6403 Del Monte Dr,29.7455062,-95.4990335,meta,2025-06-02T07:00:00.000Z,0.9459263554653524,b98998c3-90e2-41dd-9a6b-ff5e73184d3b,,,,OpenStreetMap,2021-09-19T16:14:04.000Z,,houston,False
5ae9bbb0-4c47-48fd-acab-0822d4542dce,Waters of Winrock,apartments,['condominium'],TX,Houston,77057.0,6403 Del Monte Dr,29.7456965,-95.4985761,Microsoft,2012-01-26T13:25:40.920Z,0.77,,,,,,,,houston,False
ef52a44e-13de-4fe8-80d1-3c1d9a2c2f0e,Waters Group,professional_services,['amusement_park'],TX,Houston,77056.0,2800 Post Oak Blvd,29.7372427,-95.4618628,meta,2025-06-02T07:00:00.000Z,0.8860580325548478,637a24f4-93a5-4e6d-9dd9-13626f23c842,,transportation,parking,OpenStreetMap,2022-05-31T13:35:09.000Z,,houston,False
ef52a44e-13de-4fe8-80d1-3c1d9a2c2f0e,Waters Group,professional_services,['amusement_park'],TX,Houston,77056.0,2800 Post Oak Blvd,29.7372427,-95.4618628,meta,2025-06-02T07:00:00.000Z,0.8860580325548478,079ed95a-a92e-48a6-8ba7-5aec73feffd7,Williams Tower,,,OpenStreetMap,2024-09-17T20:31:37.000Z,,houston,False
addb36e3-7611-4c11-8f08-ecc3f9f4bf3e,Jamie Waters Realty,real_estate_agent,"['real_estate', 'real_estate_service']",TX,Houston,77057.0,1220 Augusta Dr,29.75467,-95.48345,meta,2025-06-02T07:00:00.000Z,0.8860580325548478,8cc6a1fc-def8-4155-8c5f-8b6ede33bce4,,,,Microsoft ML Buildings,2023-09-01T00:00:00.000Z,0.972599983215332,houston,False
a84e1a56-88f3-4645-990d-13e57b5aa778,Strias Waters,bottled_water_company,"['food_beverage_service_distribution', 'grocery_store']",TX,Houston,77040.0,5124 Steadmont Dr,29.8401102,-95.5091196,meta,2025-06-02T07:00:00.000Z,0.909823677581864,242226b9-41bf-453c-a2e2-bfc4aa4f5f45,,,,OpenStreetMap,2020-09-17T21:47:10.000Z,,houston,False
2843a1b2-2e22-4587-ac18-f38ba3cf0955,V3 Waters International Inc,commercial_real_estate,"['bottled_water_company', 'real_estate_agent']",TX,Houston,77002.0,1010 Lamar St,29.755941,-95.365316,meta,2025-06-02T07:00:00.000Z,0.242152466367713,2f110b85-08e2-4357-abbf-0f240e040472,Younan Square,,,OpenStreetMap,2017-07-26T00:43:38.000Z,,houston,True
aaf6a241-4ea0-48af-938a-394f6c591e41,Living Waters International Ministries,church_cathedral,,TX,Houston,0.0,,29.7601989,-95.3694,meta,2025-06-02T07:00:00.000Z,0.672566371681416,3a31b464-8751-4ad9-a851-12b7871ced22,Houston City Hall,civic,,OpenStreetMap,2024-05-08T11:18:15.000Z,,houston,False
84ae8e87-3260-48d9-b19a-b573e6e78405,James Waters Creations,contractor,"['home_improvement_store', 'hardware_store']",TX,Houston,77007.0,1218 Spring St,29.77553,-95.36992,meta,2025-06-02T07:00:00.000Z,0.242152466367713,,,,,,,,houston,False
ac41cc27-d36a-4ac3-81c2-899af0b23c5e,Deep Waters Academy,religious_school,"['school', 'elementary_school']",TX,Houston,77062.0,770 Pineloch Dr,29.5708968,-95.1472898,meta,2025-06-02T07:00:00.000Z,0.9784508333782836,45ce0625-1c3b-4e5e-a3b1-f4002d5d1117,,,,Microsoft ML Buildings,2022-03-25T00:00:00.000Z,,houston,False
dc4179e8-d2bd-48e0-bdcb-cea7daa36428,"The Bridge Over Troubled Waters, Inc.",social_service_organizations,"['homeless_shelter', 'public_service_and_government']",TX,Pasadena,77504.0,3811 Allen Genoa Rd,29.6524767,-95.2047385,meta,2025-06-02T07:00:00.000Z,0.9784508333782836,0e69a992-ff68-4fbb-9382-8332e1cc6bda,,,,OpenStreetMap,2020-10-02T17:07:38.000Z,,houston,True
29810b8f-21bc-4983-a0e6-77f3558e31e2,Waters Edge,event_planning,,TX,El Lago,77586.0,3901 Nasa Pkwy,29.5636555,-95.0504139,meta,2025-06-02T07:00:00.000Z,0.9879256218304756,,,,,,,,houston,True
75b09672-cb94-4ba8-8df0-fd7cc95079be,Nestle Waters Corp,bottled_water_company,"['professional_services', 'eat_and_drink']",TX,Pasadena,77507.0,10525 Red Bluff Rd,29.6122046,-95.0756137,meta,2025-06-02T07:00:00.000Z,0.7548172757475083,0ee7378d-562c-4884-8cad-5311fbdaf202,Republic Distribution Center,commercial,commercial,OpenStreetMap,2015-09-21T01:31:30.000Z,,houston,False
156e11d4-c367-4978-9a57-22e915573cdb,Church of the Living Waters,church_cathedral,['religious_organization'],TX,Houston,77044.0,12621 Ticonderoga Rd,29.8460083,-95.2074412,meta,2025-06-02T07:00:00.000Z,0.7548172757475083,,,,,,,,houston,False
327bd984-390c-43ff-be7d-ef95d20c9ca5,Susan Waters,real_estate_agent,['real_estate'],TX,Houston,77070.0,22530 Tomball Pkwy,30.0125915,-95.5882694,meta,2025-06-02T07:00:00.000Z,0.909823677581864,fde3b48f-5175-408a-8d9e-1f3d41e48d2d,,commercial,retail,OpenStreetMap,2021-03-07T19:45:39.000Z,,houston,False
