id_left,primary_name_left,primary_category,alternate_category,id_right,primary_name_right,subtype,class,source_city,region,locality,zipcode,address,latitude,longitude,plc_source_dataset,plc_source_update_time,plc_source_confidence,bldg_dataset,bldg_update_time,bldg_confidence,is_office_by_pipeline
9ce69369-a5dd-411f-847e-9ba41818ac5c,Whirlpool Appliance Repair,home_improvement_store,"['professional_services', 'appliance_repair_service']",851033f3-efcc-409d-8ecc-b145143e57cf,,,,denver,CO,Littleton,80120.0,5600 S Bannock St,39.6147554,-104.9899289,meta,2025-06-02T07:00:00.000Z,0.8831168831168831,OpenStreetMap,2019-05-08T15:15:17.000Z,,False
8a17baee-6f3b-4991-b941-6a979f05474e,Whirlpool Corporation,appliance_store,['shopping'],599c6781-c74e-4c00-9814-691294d83438,,,,knoxville,TN,Knoxville,37922.0,414 Peters Rd,35.91526,-84.09967,meta,2025-06-02T07:00:00.000Z,0.3961437335670464,OpenStreetMap,2020-05-22T21:59:25.000Z,,True
3374856d-e615-4985-a1ff-aef09bbc3e5a,Whirlpool Corporation,freight_and_cargo_service,"['professional_services', 'shopping']",,,,,seattle,WA,Spanaway,98387.0,19700 38th Ave E,47.0803987,-122.3793798,meta,2025-06-02T07:00:00.000Z,0.9415384615384615,,,,True
a7038e11-bd57-4f42-b8cb-0b1bb27dce33,Whirlpool Whirlpool Overseas,shopping,['american_restaurant'],11cd32dc-9566-4f39-9ed5-fead29d6ad1e,,,,miami,FL,Miami,33122.0,7000 NW 33rd Ter,25.803884,-80.311302,meta,2025-06-02T07:00:00.000Z,0.296943231441048,OpenStreetMap,2018-11-04T15:48:16.000Z,,False
8aa66478-10be-4001-9bae-d427af38dd5e,Niagara Whirlpool Prods,contractor,"['home_improvement_store', 'bar']",d53f6914-cd48-4401-b7e8-47f80a7a2456,,,,buffalo,NY,Clarence Center,14032.0,9150 Clarence Center Rd,43.015269,-78.650461,meta,2025-06-02T07:00:00.000Z,0.3376623376623376,Microsoft ML Buildings,2023-05-27T00:00:00.000Z,0.991699993610382,False
80eef248-df55-4492-b228-143d06df747b,Whirlpool,home_improvement_store,"['travel', 'shopping']",472f3e2e-c0e9-49d7-8883-1903e8759004,,,,st-louis,MO,Bridgeton,63044.0,65 Corporate Woods Dr,38.785246,-90.465093,meta,2025-06-02T07:00:00.000Z,0.3961437335670464,OpenStreetMap,2020-02-26T22:13:50.000Z,,False
5f33ff44-8f73-483c-98be-751fe5cf141a,Whirlpool,shopping,"['bar', 'real_estate']",cd158744-a91f-4ba3-b94b-3d05f5fd9d3b,,,,indianapolis,IN,Plainfield,46168.0,2801 Airwest Blvd,39.6870436,-86.3447287,meta,2025-06-02T07:00:00.000Z,0.4929396662387676,OpenStreetMap,2013-10-07T16:07:11.000Z,,False
ee90e4a4-bdb6-41ae-b3e8-b6b23a7fb702,Elite inn- whirlpool suites & extended stay,hotel,"['accommodation', 'motel']",07080145-c413-42c3-83c1-48980e0b5310,Holland Inn & Suites,,,chicago,IL,South Holland,60473.0,1122 E 162nd St,41.601059,-87.5894869,meta,2025-06-02T07:00:00.000Z,0.8980891719745223,OpenStreetMap,2024-02-29T18:10:07.000Z,,False
ce31300a-4139-4b48-b809-b5de3d7f3d8b,J and D Whirlpool Kitchen and Bath Outlet,home_improvement_store,['contractor'],d49db315-8647-40c6-872c-22991f6bba01,,,,chicago,IL,Chicago,60647.0,2730 N Elston Ave,41.9311752,-87.6865941,meta,2025-06-02T07:00:00.000Z,0.9784508333782836,OpenStreetMap,2013-03-12T01:28:09.000Z,,False
df7f90b2-d7b5-4296-acb4-25f0b6d9b552,Marriott Marquis Swimming Pool & Whirlpool,spas,"['sports_club_and_league', 'active_life']",83955c81-eb25-4662-823b-4624374e30ea,San Francisco Marriott Marquis,commercial,hotel,oakland,CA,San Francisco,94103.0,55 4th St,37.7852262,-122.4039819,meta,2025-06-02T07:00:00.000Z,0.296943231441048,OpenStreetMap,2024-10-13T06:44:06.000Z,,False
5e04ac36-b0e3-4f8d-86b0-6ec903b25177,Whirlpool Home Appliances,appliance_store,"['appliance_repair_service', 'retail']",,,,,oakland,CA,Walnut Creek,94595.0,1100 Boulevard Way,37.8957042,-122.0718956,Microsoft,2015-05-15T09:12:00.370Z,0.77,,,,False
50625eec-3618-46f6-a741-b91898cedaa4,Whirlpool Quality Express,appliance_store,['shopping'],a80c80ae-9a07-4aea-9cfa-08984259c179,,industrial,industrial,honolulu,HI,Honolulu,96797.0,94-144 Leoole St,21.3752836,-158.0224618,meta,2025-06-02T07:00:00.000Z,0.9459263554653524,OpenStreetMap,2025-01-19T06:56:09.000Z,,False
df7f90b2-d7b5-4296-acb4-25f0b6d9b552,Marriott Marquis Swimming Pool & Whirlpool,spas,"['sports_club_and_league', 'active_life']",83955c81-eb25-4662-823b-4624374e30ea,San Francisco Marriott Marquis,commercial,hotel,san-francisco,CA,San Francisco,94103.0,55 4th St,37.7852262,-122.4039819,meta,2025-06-02T07:00:00.000Z,0.296943231441048,OpenStreetMap,2024-10-13T06:44:06.000Z,,False
60fd4a2a-adf3-4b4c-bac1-d20fd6655ac0,Whirlpool Cave Preserve,community_services_non_profits,"['landmark_and_historical_building', 'cave']",0f7eca4e-f3e5-442a-964b-7e59f3808b63,Life Time,,,austin,TX,Austin,0.0,BRUSH COUNTRY Rd,30.215294,-97.839462,meta,2025-06-02T07:00:00.000Z,0.5662921348314607,OpenStreetMap,2024-01-17T09:44:11.000Z,,False
7cc03b16-8d2f-4830-a80a-3ad3ffb93e24,Jacuzzi Whirlpool Bath,shopping,"['professional_services', 'furniture_store']",df7903ed-b18e-4301-924c-f9caf2a4ee76,,industrial,industrial,riverside-san-bernardino,CA,Chino,91710.0,14525 Monte Vista Ave,33.98823,-117.69681,meta,2025-06-02T07:00:00.000Z,0.3376623376623376,OpenStreetMap,2019-10-31T21:24:01.000Z,,False
ea09920f-5446-43b0-a641-74b7000b7f44,Vortex Whirlpool Systems,business_manufacturing_and_supply,"['commercial_industrial', 'bar']",,,,,riverside-san-bernardino,CA,Perris,92571.0,275 W Rider St,33.8300013,-117.232249,meta,2025-06-02T07:00:00.000Z,0.9300613496932516,,,,False
b875e5e3-15ac-4524-91b3-9b2769856f09,Whirlpool Island Trading Post,hobby_shop,['toy_store'],789e95de-ce60-40fd-8e8c-1e31aac5e85a,,,,boston,MA,Boston,2118.0,980 Massachusetts Ave,42.3287687,-71.0679469,meta,2025-06-02T07:00:00.000Z,0.9784508333782836,OpenStreetMap,2023-04-07T20:28:22.000Z,,False
9fbfb5e8-d1db-4b2c-ac4c-9bd15f3b6e54,Whirlpool Appliance Center,appliance_store,['retail'],45c751d8-b930-402f-8ecf-fb27aa6c21f2,,commercial,retail,colorado-springs,CO,Colorado Springs,80918.0,4414 Austin Bluffs Pkwy,38.897488,-104.750189,Microsoft,2025-05-18T21:26:54.730Z,0.77,OpenStreetMap,2020-02-24T14:33:49.000Z,,False
e9089fd2-34bd-489b-9c6d-d987216747b4,Whirlpool,travel,['freight_and_cargo_service'],ab0089dd-0e55-44aa-a803-d5bc6eb9054f,,industrial,industrial,dallas,TX,Wilmer,75172.0,500 Millers Ferry Rd,32.5820677,-96.6821891,meta,2025-06-02T07:00:00.000Z,0.3376623376623376,OpenStreetMap,2024-02-14T22:07:48.000Z,,False
b03ce288-b1a2-429e-997c-5b2dfb78ac90,Whirlpool - Wilmer Facility,real_estate,"['property_management', 'real_estate_agent']",ab0089dd-0e55-44aa-a803-d5bc6eb9054f,,industrial,industrial,dallas,TX,Wilmer,0.0,,32.5821433,-96.682031,meta,2025-06-02T07:00:00.000Z,0.4929396662387676,OpenStreetMap,2024-02-14T22:07:48.000Z,,False
5e04ac36-b0e3-4f8d-86b0-6ec903b25177,Whirlpool Home Appliances,appliance_store,"['appliance_repair_service', 'retail']",,,,,concord,CA,Walnut Creek,94595.0,1100 Boulevard Way,37.8957042,-122.0718956,Microsoft,2015-05-15T09:12:00.370Z,0.77,,,,False
192e5f03-dce8-4b2b-91ee-75328c641a36,Whirlpool Corporation,shopping,"['bar', 'laboratory_testing']",d7649b48-14eb-4500-9feb-455d339f4bd8,,,,tulsa,OK,Broken Arrow,74014.0,1204 S 34th St,36.041434,-95.750557,meta,2025-06-02T07:00:00.000Z,0.296943231441048,Microsoft ML Buildings,2019-04-08T00:00:00.000Z,,True
ecf3474c-d214-4e00-ab16-583bb8afbbc5,River Vale Whirlpool Repair,river,['hotel'],356e2fde-2129-4c2a-80b1-495918492155,,,,new-york,NJ,River Vale Twp,7675.0,512 Rivervale Rd,41.015243,-74.00939,meta,2025-06-02T07:00:00.000Z,0.242152466367713,Microsoft ML Buildings,2022-10-27T00:00:00.000Z,,False
b66e2ebc-2b5c-4d9a-815e-f3d749154ad1,Jacuzzi Built-In Whirlpool,appliance_store,['retail'],,,,,los-angeles,CA,North Hollywood,91605.0,12825 Vanowen St,34.1939416,-118.4129178,Microsoft,2015-05-14T09:47:46.533Z,0.77,,,,False
7cc03b16-8d2f-4830-a80a-3ad3ffb93e24,Jacuzzi Whirlpool Bath,shopping,"['professional_services', 'furniture_store']",df7903ed-b18e-4301-924c-f9caf2a4ee76,,industrial,industrial,los-angeles,CA,Chino,91710.0,14525 Monte Vista Ave,33.98823,-117.69681,meta,2025-06-02T07:00:00.000Z,0.3376623376623376,OpenStreetMap,2019-10-31T21:24:01.000Z,,False
d349de84-cca6-4f72-ad3d-17025e756a7f,Whirlpool,shopping,['home_improvement_store'],3c7a1f1d-00f6-4578-bf19-a07f494a0532,,,,kissimmee,FL,Orlando,32824.0,13201 Orange Ave S,28.37128,-81.37675,meta,2025-06-02T07:00:00.000Z,0.4929396662387676,OpenStreetMap,2021-04-29T10:55:48.000Z,,False
