id_left,primary_name_left,primary_category,alternate_category,region,locality,zipcode,address,latitude,longitude,plc_source_dataset,plc_source_update_time,plc_source_confidence,id_right,primary_name_right,subtype,class,bldg_dataset,bldg_update_time,bldg_confidence,source_city,is_office_by_pipeline
a6431d92-20c1-46f7-a745-12c24b513318,Waste Management,garbage_collection_service,['public_service_and_government'],FL,Tampa,33605.0,107 N 34th St,27.948268,-82.422117,meta,2025-06-02T07:00:00.000Z,0.3376623376623376,6bbbf6c5-4487-4169-9a0f-01e91dd73ba0,,,,OpenStreetMap,2019-11-02T08:08:32.000Z,,tampa,False
e72139ed-845d-4521-a78d-07a2f2b8937a,Waste Management Tampa Bay Area Material Recovery Facility,garbage_collection_service,"['public_service_and_government', 'recycling_center']",FL,Tampa,33605.0,3518 E 4th Ave,27.958829,-82.4204147,meta,2025-06-02T07:00:00.000Z,0.9784508333782836,ec5a5f31-e27c-4321-bbc8-021c088927cc,,,,OpenStreetMap,2017-09-13T10:49:24.000Z,,tampa,False
ba100d42-387e-43bb-8df3-ab85faa6ee00,Waste Management Tampa Transfer Station,garbage_collection_service,"['recycling_center', 'public_service_and_government']",FL,Tampa,33605.0,3411 N 40th St,27.9751154,-82.412356,meta,2025-06-02T07:00:00.000Z,0.9784508333782836,6020257d-2bee-4fb5-a412-3dbe62fafe08,,,,OpenStreetMap,2017-09-12T20:24:03.000Z,,tampa,False
438fcb5c-3bbf-4e42-882b-b8d6dee2b265,Waste Management,garbage_collection_service,"['professional_services', 'property_management']",FL,Tampa,33619.0,3403 Orient Rd,27.974432,-82.372512,meta,2025-06-02T07:00:00.000Z,0.242152466367713,a56ac684-8abb-4dfb-8d70-e54163029cdb,,,,OpenStreetMap,2017-09-09T19:47:35.000Z,,tampa,False
53122282-0922-4665-b794-d7fd4f369a3a,Rev. Robert Wm Parish,funeral_services_and_cemeteries,,NE,Ralston,68127.0,"NE-85, Omaha, NE 68127, United States",41.20071,-96.03214,meta,2025-06-02T07:00:00.000Z,0.3961437335670464,,,,,,,,omaha,False
91c4ab16-338a-4cb3-a6d6-fb90dfe4a2ee,WM Concrete LLC,contractor,['professional_services'],NE,Bellevue,68005.0,911 McLaughlin Cir,41.1383798,-95.9052289,meta,2025-06-02T07:00:00.000Z,0.8860580325548478,,,,,,,,omaha,False
5790e790-7536-455d-91a6-b559301cf46a,WM Concrete LLC,masonry_concrete,,NE,Bellevue,68005.0,911 Mclaughlin Cir,41.138376,-95.905024,Microsoft,2024-12-07T10:40:56.710Z,0.77,76037c5a-13e9-4f78-8cbf-24061efdfe38,,,,Esri Community Maps,2024-10-15T00:00:00.000Z,,omaha,False
d10443d9-7014-4f91-8ad5-f91672e7d75c,Waste Management - Omaha Dumpster Rental,garbage_collection_service,"['professional_services', 'public_service_and_government']",NE,Omaha,68110.0,5902 N 16th St,41.3131737,-95.9376148,meta,2025-06-02T07:00:00.000Z,0.3376623376623376,,,,,,,,omaha,False
f11ac958-0ddb-469b-8022-2d59a46e0062,Waste Management,garbage_collection_service,"['professional_services', 'public_utility_company']",CO,Fort Collins,80526.0,5887 S Taft Hill Rd,40.4981,-105.12031,meta,2025-06-02T07:00:00.000Z,0.3376623376623376,,,,,,,,fort-collins,False
7134799e-9a50-4bb6-9a21-3a4c871d0547,Waste Management - Larimer County Recycling Center,dumpster_rentals,"['utility_service', 'junk_removal_and_hauling', 'recycling_center']",CO,Fort Collins,80526.0,5887 S Taft Hill Rd,40.5035833073852,-105.116468667984,Microsoft,2018-06-20T21:21:01.293Z,0.77,aff1bae8-b440-43c5-977b-30a4636af645,,civic,government,OpenStreetMap,2022-09-09T20:41:38.000Z,,fort-collins,False
6e72ac73-426a-48f0-be03-983fc7289625,Waste Management,public_and_government_association,"['garbage_collection_service', 'public_service_and_government']",MD,Severn,21144.0,389 Burns Crossing Rd,39.084748,-76.676021,meta,2025-06-02T07:00:00.000Z,0.296943231441048,bc0348a2-b6cd-4596-a1e7-b8348f305a0d,,,,Microsoft ML Buildings,2022-08-13T00:00:00.000Z,,baltimore,False
eefa23df-cc97-4a21-a08d-ce0364297a3b,Waste Management Annapolis Junction Recycling and Transfer Station,garbage_collection_service,"['public_service_and_government', 'recycling_center']",MD,Jessup,20794.0,8077 Brock Bridge Rd,39.1276956,-76.7873062,meta,2025-06-02T07:00:00.000Z,0.9459263554653524,,,,,,,,baltimore,False
80245c4a-5522-4abe-b901-5fd327a277d6,"Waste Management - Columbia, MD",utility_service,['junk_removal_and_hauling'],MD,Columbia,21046.0,6994 Columbia Gateway Dr #200,39.1772313416004,-76.8007837235928,Microsoft,2018-06-20T21:21:01.293Z,0.77,,,,,,,,baltimore,False
b1fe2c86-d42a-4101-a8f0-66503418a9a6,"Waste Management - Columbia, MD",garbage_collection_service,"['recycling_center', 'professional_services']",MD,Columbia,21046.0,6994 Columbia Gateway Dr,39.177459,-76.802366,meta,2025-06-02T07:00:00.000Z,0.3376623376623376,225dd3eb-3533-44cd-b51e-b9b4bf3ccd3e,,commercial,office,OpenStreetMap,2023-01-03T03:00:55.000Z,,baltimore,False
12663e63-0b13-422f-81a2-4e5074f4f2f6,WM - AmeriWaste Transfer Station,garbage_collection_service,['utility_service'],MD,Elkridge,21075.0,7130 Kit Kat Rd,39.1757668,-76.7671698,Microsoft,2022-10-04T18:14:28.223Z,0.77,,,,,,,,baltimore,False
fc20c0c2-aa81-4b78-ab18-637ec5f22a51,Waste Management - Elkridge Material Recycling Facility,junk_removal_and_hauling,['recycling_center'],MD,Elkridge,21075.0,7175 Kit Kat Rd,39.175091,-76.765594,Microsoft,2018-06-20T21:55:15.380Z,0.77,,,,,,,,baltimore,False
63ef6747-05ba-49bb-8441-a99520971bbe,Waste Management,garbage_collection_service,"['professional_services', 'recycling_center']",MD,Baltimore,21226.0,3535 Fairfield Rd,39.2319829,-76.5753154,meta,2025-06-02T07:00:00.000Z,0.9297091412742382,,,,,,,,baltimore,False
d35b3459-7361-49cf-8af4-09083acde058,Waste Management Baltimore Resco,garbage_collection_service,"['professional_services', 'public_service_and_government']",MD,Baltimore,21230.0,1801 Annapolis Rd,39.2701421,-76.6287809,meta,2025-06-02T07:00:00.000Z,0.5662921348314607,c352027a-f05d-43c2-8ce4-883f63fd9f49,,,,OpenStreetMap,2015-04-03T14:34:52.000Z,,baltimore,False
d35b3459-7361-49cf-8af4-09083acde058,Waste Management Baltimore Resco,garbage_collection_service,"['professional_services', 'public_service_and_government']",MD,Baltimore,21230.0,1801 Annapolis Rd,39.2701421,-76.6287809,meta,2025-06-02T07:00:00.000Z,0.5662921348314607,637260b9-6b3f-4972-bea2-d6b948a56827,,,,OpenStreetMap,2015-04-03T14:33:26.000Z,,baltimore,False
89717750-c1ac-4077-8a69-d03a2ccd8b9b,Waste Management - Baltimore Processing Center,junk_removal_and_hauling,,MD,Baltimore,21230.0,1437 W Hamburg St,39.2768064,-76.6342437,Microsoft,2018-06-20T21:21:01.293Z,0.77,,,,,,,,baltimore,False
1ff09d04-a1d2-49ee-bcdb-9594e7935a2f,Waste Management - Baltimore Recycling Center,junk_removal_and_hauling,"['corporate_office', 'private_establishments_and_corporates']",MD,Baltimore,21205.0,6401 Quad Ave,39.2988739013672,-76.5390777587891,Microsoft,2018-06-20T21:21:01.293Z,0.77,599a1d3c-a9b3-4b74-92f0-84c5d6dc9bdd,UPS,,,OpenStreetMap,2015-04-26T03:18:50.000Z,,baltimore,True
1e58bdc9-8c8a-46ad-9e2d-53e222069c75,wm pro movers,storage_facility,"['movers', 'self_storage_facility']",TX,Austin,78726.0,9311 N FM 620,30.4334784,-97.8405963,meta,2025-06-02T07:00:00.000Z,0.9204819277108434,5e5efdd2-d5e9-4839-81af-94f04d2d5c35,,,,OpenStreetMap,2016-01-02T09:43:03.000Z,,austin,False
2899c85d-f365-4959-b921-ffe20b77c75d,Waste Management - Austin Community Landfill,garbage_collection_service,"['recycling_center', 'public_service_and_government']",TX,Austin,78754.0,9900 Giles Rd,30.336291,-97.62163,meta,2025-06-02T07:00:00.000Z,0.5662921348314607,eec7401b-6a5c-4926-9efa-a9ddf8ebd8c8,,,,OpenStreetMap,2015-11-27T17:14:17.000Z,,austin,False
f54218be-d8a8-4ecf-ba7e-a319d3f54436,Waste Management,garbage_collection_service,"['environmental_conservation_organization', 'property_management']",TX,Round Rock,78664.0,3920 Gattis School Rd,30.4986888,-97.6087296,meta,2025-06-02T07:00:00.000Z,0.242152466367713,,,,,,,,austin,False
2a118f3d-a4c4-4ac6-bf49-362f1af88722,Waste Management - Louisville Dumpster Rental,garbage_collection_service,"['public_service_and_government', 'environmental_conservation_and_ecological_organizations']",KY,Louisville,40219.0,7501 Grade Ln,38.134662,-85.73674,meta,2025-06-02T07:00:00.000Z,0.7548172757475083,01c2990d-f456-4010-8b9a-e77d4ac8e3dd,,,,OpenStreetMap,2015-02-24T21:56:13.000Z,,louisville,False
62001076-2a90-4532-8d5e-a29d2e557c9a,Waste Management,garbage_collection_service,"['public_service_and_government', 'water_treatment_equipment_and_services']",KY,Louisville,40219.0,2673 Outer Loop,38.1351577,-85.7197064,meta,2025-06-02T07:00:00.000Z,0.9459263554653524,,,,,,,,louisville,False
e4958ee5-991c-4328-9a82-9ed763f7247e,Waste Management,garbage_collection_service,"['professional_services', 'recycling_center']",KY,Louisville,40213.0,4690 Melton Ave,38.1453696,-85.723379,meta,2025-06-02T07:00:00.000Z,0.3376623376623376,5fd88792-708e-46cd-b3bf-ef4822b24a9f,,,,OpenStreetMap,2015-02-24T21:57:28.000Z,,louisville,False
9ba4b2f3-0764-4b65-b1bd-ee325bf9a85a,Metro Solid Waste Management Department,community_center,"['public_service_and_government', 'central_government_office']",KY,Louisville,40217.0,600 Meriwether Ave,38.22678,-85.74644,meta,2025-06-02T07:00:00.000Z,0.9879256218304756,68e65573-ddfd-4c57-88c5-ecb1f7e8e1fb,,,,OpenStreetMap,2015-04-03T18:19:15.000Z,,louisville,False
663ced08-5f34-40d8-9a26-7505190c7dfd,Wm. L. Brewer & Son,contractor,"['hvac_services', 'appliance_repair_service']",KY,Louisville,40220.0,4315 Lowe Rd,38.2238173,-85.6162273,meta,2025-06-02T07:00:00.000Z,0.9204819277108434,,,,,,,,louisville,False
c6b5b240-62a7-434c-9c21-ee5de92c2417,Waste Management - Stony Hollow Security Landfill,garbage_collection_service,['recycling_center'],OH,Dayton,45417.0,2460 S Gettysburg Ave,39.71576,-84.24852,meta,2025-06-02T07:00:00.000Z,0.3961437335670464,,,,,,,,dayton,False
80a5b1e6-4c6f-4226-8fd1-ba41f6d491ac,Solid Waste Management Department,public_and_government_association,"['environmental_conservation_organization', 'garbage_collection_service']",OH,Moraine,45439.0,2550 Sandridge Dr,39.717084,-84.213175,meta,2025-06-02T07:00:00.000Z,0.5662921348314607,8c33b3c5-91f1-4782-999a-8d3bdcc25d56,Montgomery South Transfer Facility,,,OpenStreetMap,2021-05-07T15:51:13.000Z,,dayton,False
c299eb90-d8a6-4f68-b16b-c76fe6468576,Waste Management,garbage_collection_service,"['public_service_and_government', 'professional_services']",OH,Moraine,45439.0,2250 Sandridge Rd,39.721012,-84.209572,meta,2025-06-02T07:00:00.000Z,0.3376623376623376,89bfa47c-6e25-4823-ba8b-629075e79a59,,,,OpenStreetMap,2019-08-06T05:38:12.000Z,,dayton,False
4f8d4cc9-d440-496e-a76c-7bf6e24d374a,Wm Properties,property_management,"['real_estate', 'real_estate_agent']",OH,Dayton,45415.0,7940 N Main St,39.8386817,-84.2577687,meta,2025-06-02T07:00:00.000Z,0.9459263554653524,5e104b7f-20ea-468e-8df4-dbaca6dbce7e,,,,Microsoft ML Buildings,2020-10-17T00:00:00.000Z,1.0,dayton,False
16c78142-4684-4372-a774-2bc0b8f0cbb5,"Waste Management - Dayton, OH",garbage_collection_service,"['water_treatment_equipment_and_services', 'recycling_center']",OH,Dayton,45414.0,3975 Wagner Ford Rd,39.80694,-84.17634,meta,2025-06-02T07:00:00.000Z,0.296943231441048,a54861a1-5041-435c-b7f7-f76254db9ae7,,,,OpenStreetMap,2012-01-30T05:43:33.000Z,,dayton,False
49df1dfb-7d23-4a86-bc98-ccd06f70cbde,"Waste Management - Montgomery, AL",recycling_center,,AL,Montgomery,36108.0,2810 Day St,32.3693087,-86.3389216,Microsoft,2018-06-20T21:21:01.293Z,0.77,,,,,,,,montgomery,False
46176dab-1ee5-4f41-9b75-db3d9a18da7c,Waste Management,garbage_collection_service,"['property_management', 'professional_services']",AL,Montgomery,36110.0,2101 N Belt Dr,32.426514,-86.255215,meta,2025-06-02T07:00:00.000Z,0.3376623376623376,,,,,,,,montgomery,False
831efedd-11d0-4304-a292-7cbf196cf042,Waste Management Recycle America,garbage_collection_service,"['recycling_center', 'professional_services']",AZ,Tucson,85705.0,3909 N Runway Dr,32.2775265,-111.0122859,meta,2025-06-02T07:00:00.000Z,0.3961437335670464,7944e9af-a4de-441f-87fc-989618f5b91c,,,,OpenStreetMap,2021-12-27T01:29:34.000Z,,tucson,False
e63027a2-565d-4eaf-b3c6-851281823bbf,Waste Management - Tucson Recycling Center,junk_removal_and_hauling,['recycling_center'],AZ,Tucson,85705.0,3909 N Runway Dr,32.2787017375231,-111.01280964911,Microsoft,2018-06-20T21:21:01.293Z,0.77,,,,,,,,tucson,False
630f7e77-7e7e-4afe-9c14-e6ac82421140,"Waste Management - Taylor, MI",garbage_collection_service,"['public_service_and_government', 'recycling_center']",MI,Taylor,48180.0,20510 Pennsylvania Rd,42.184862,-83.234915,meta,2025-06-02T07:00:00.000Z,0.3961437335670464,a019981b-6063-4bb4-ad41-102cda0aa010,Blue Water Trucking,,,OpenStreetMap,2022-12-17T00:54:46.000Z,,detroit,False
1986cb09-3a86-40cf-be62-4758e0a6fc61,WM Woodland Meadows Landfill,garbage_collection_service,"['park', 'professional_services']",MI,Wayne,48184.0,6390 Hannan Rd,42.25968,-83.43279,meta,2025-06-02T07:00:00.000Z,0.7548172757475083,,,,,,,,detroit,False
eb7f6c3e-e31d-4d6c-9787-41e5f5628c0c,Waste Management - Woodland Meadows Security Landfill,junk_removal_and_hauling,,MI,Wayne,48184.0,5900 Hannan Rd,42.265029,-83.431197,Microsoft,2018-06-20T21:21:01.293Z,0.77,,,,,,,,detroit,False
0930f897-02c3-4caf-b72b-0fff15f71143,Waste Management - Woodland Meadows Security Landfill,garbage_collection_service,"['recycling_center', 'environmental_conservation_and_ecological_organizations']",MI,Wayne,48184.0,5900 Hannan Rd,42.264388,-83.427652,meta,2025-06-02T07:00:00.000Z,0.4929396662387676,7055155d-4207-4f1a-aae7-a2f2f00e6e6a,,,,Esri Community Maps,2024-10-15T00:00:00.000Z,,detroit,False
c1bf92f3-0696-413b-b0e3-6c03fb5db7bd,Waste Management of Michigan,garbage_collection_service,"['home_improvement_store', 'water_treatment_equipment_and_services']",MI,Canton,48188.0,4620 Hannan Rd,42.273367,-83.428444,meta,2025-06-02T07:00:00.000Z,0.296943231441048,4a0ea041-696c-4291-8366-9b9247749bd0,,,,Microsoft ML Buildings,2022-10-04T00:00:00.000Z,,detroit,False
12ce4eac-3919-4cfd-b741-b6b8a2f3441b,"Wm Howard Agency, LLC",career_counseling,"['employment_agencies', 'marketing_agency']",MI,Livonia,48152.0,19500 Victor Pkwy Ste 540,42.43081556238396,-83.4223235819702,Microsoft,2013-03-12T06:23:20.670Z,0.77,,,,,,,,detroit,False
d33c6142-e875-44a6-8231-0b0115e48e6e,"Waste Management - Romulus, MI",garbage_collection_service,"['professional_services', 'freight_and_cargo_service']",MI,Romulus,48174.0,5980 Inkster Rd,42.266186,-83.309536,meta,2025-06-02T07:00:00.000Z,0.5662921348314607,fb557fbe-5983-4548-9064-fb6680408302,,,,OpenStreetMap,2018-11-05T08:45:58.000Z,,detroit,False
d1dc098a-9c12-4011-8fc9-8a6c52cd9224,Waste Management,garbage_collection_service,"['professional_services', 'public_service_and_government']",MI,Southfield,48075.0,19200 W 8 Mile Rd,42.4445227,-83.2307687,meta,2025-06-02T07:00:00.000Z,0.9415384615384615,44a89287-70ac-42d4-a121-1a66cea2f18b,,,,OpenStreetMap,2024-01-21T19:18:22.000Z,,detroit,False
0ddffb51-ffd6-4818-9648-30f0b7a146ac,Wm. Sullivan & Son Funeral Directors,funeral_services_and_cemeteries,"['business', 'topic_concert_venue']",MI,Royal Oak,48067.0,705 W 11 Mile Rd,42.4895114,-83.1518575,meta,2025-06-02T07:00:00.000Z,0.9879256218304756,d90f8a63-b397-4a87-a95a-ee507adadc65,,,,OpenStreetMap,2021-03-16T18:50:27.000Z,,detroit,False
6dd08c02-cd31-486e-8429-80203bfc200f,City Disposal Waste Management,garbage_collection_service,"['recycling_center', 'property_management']",MI,Detroit,48211.0,1550 Harper Ave,42.371443,-83.052141,meta,2025-06-02T07:00:00.000Z,0.242152466367713,43fbc962-081d-4ee3-84f5-b6b2e3079a3b,,,,OpenStreetMap,2023-05-22T18:15:29.000Z,,detroit,False
bd7093ac-0de3-428c-a7fc-ec8494984fc5,Waste Management,garbage_collection_service,"['environmental_conservation_and_ecological_organizations', 'property_management']",MI,Warren,48093.0,12200 E 13 Mile Rd,42.520612,-83.001855,meta,2025-06-02T07:00:00.000Z,0.242152466367713,,,,,,,,detroit,False
6d0d5a6b-ed57-466a-aa3a-d74fb5f3b188,Waste Management,garbage_collection_service,"['recycling_center', 'professional_services']",MI,Pontiac,48340.0,245 E Walton Blvd,42.6777667,-83.2915683,meta,2025-06-02T07:00:00.000Z,0.9784508333782836,ce0ddd6b-3ce2-4969-82f4-f95f961ae3e6,,,,OpenStreetMap,2024-12-13T15:47:01.000Z,,detroit,False
48165d6c-6320-43dd-abac-643b68f6e38d,Wm Sullivan & Son Funeral Homes Inc,funeral_services_and_cemeteries,,MI,Utica,48317.0,8459 Hall Rd,42.6258579,-83.027306,Microsoft,2015-05-15T09:12:55.023Z,0.77,,,,,,,,detroit,True
6c4c0914-c108-4ef3-a961-a41b762121ba,Wm. Sullivan & Son Funeral Directors,funeral_services_and_cemeteries,['lawyer'],MI,Utica,48317.0,8459 Hall Rd,42.6260883,-83.0272416,meta,2025-06-02T07:00:00.000Z,0.9784508333782836,,,,,,,,detroit,False
f271c306-041c-4cc5-9569-1be3c1aff867,Waste Management - Eagle Valley Security Landfill,garbage_collection_service,"['recycling_center', 'software_development']",MI,Lake Orion,48359.0,600 W Silverbell Rd,42.7228438,-83.2548868,meta,2025-06-02T07:00:00.000Z,0.7548172757475083,,,,,,,,detroit,False
d8d3c26f-6ff3-4bc6-b8f6-0eb830d19eac,Waste Management - Clinton Township Hauling,garbage_collection_service,"['public_service_and_government', 'recycling_center']",MI,Clinton Twp,48035.0,22650 Stevenson St,42.54256,-82.885558,meta,2025-06-02T07:00:00.000Z,0.242152466367713,0d4bf499-4e6c-414c-99b2-23a11d40c1c9,,,,Esri Community Maps,2024-10-15T00:00:00.000Z,,detroit,False
2f643bc0-7bf2-4ac1-9060-238aa8e20a48,WM Experience,marketing_agency,['mass_media'],,,0.0,,28.4633529,-81.4528298,meta,2025-06-02T07:00:00.000Z,0.3313953488372093,06a3b710-a206-4571-9915-4bab6b0c04a1,,,,OpenStreetMap,2011-12-13T01:15:23.000Z,,orlando,False
b403e32d-0599-429f-b16d-f4731d38cb25,WM Insurance Agency,insurance_agency,['health_and_medical'],FL,Orlando,32839.0,4700 Millenia Blvd,28.4846158,-81.4403136,meta,2025-06-02T07:00:00.000Z,0.9459263554653524,b7cd870b-f218-4f50-8fb6-14a1b74c18a9,,commercial,office,OpenStreetMap,2023-03-02T22:52:46.000Z,,orlando,False
5d992594-f64a-4c1f-979b-ab096bea92fe,WM HOMES Remodeling LLC,construction_services,['contractor'],,,0.0,,28.5133708,-81.4722436,meta,2025-06-02T07:00:00.000Z,0.3313953488372093,,,,,,,,orlando,False
61a96489-46cb-44ee-9867-eefb853e98fd,Waste Management - Orlando Transfer Station,garbage_collection_service,"['recycling_center', 'professional_services']",FL,Orlando,32811.0,4978 LB McLeod Rd,28.502814,-81.445567,meta,2025-06-02T07:00:00.000Z,0.4929396662387676,16c4ff42-8c71-4316-bd16-c4d31a93c5e0,,,,OpenStreetMap,2021-12-07T21:12:02.000Z,,orlando,False
cc422705-273a-4fb4-9c73-f6568f486de4,Eco Waste Management LLC,garbage_collection_service,['professional_services'],FL,Orlando,32839.0,4530 S Orange Blossom Trl,28.4974357,-81.3979523,meta,2025-06-02T07:00:00.000Z,0.8831168831168831,8a6624d0-8356-4950-a206-276feae34e01,Dollar Tree,,,OpenStreetMap,2024-07-12T08:39:00.000Z,,orlando,False
2b691461-71e3-426b-977c-64e895cbc6e7,"Waste Management - Orlando, FL",garbage_collection_service,"['professional_services', 'public_service_and_government']",FL,Orlando,32805.0,3510 Rio Vista Ave,28.506282,-81.424659,meta,2025-06-02T07:00:00.000Z,0.4929396662387676,7b6b7631-5c4b-418e-95a3-1df5f0e3ea24,,,,OpenStreetMap,2020-05-31T17:22:31.000Z,,orlando,False
a2d15b44-a4ba-4b07-ac29-e6b4471aedf7,Waste Management - Vista Landfill,garbage_collection_service,"['recycling_center', 'water_treatment_equipment_and_services']",FL,Apopka,32703.0,242 W Keene Rd,28.6392476,-81.5141231,meta,2025-06-02T07:00:00.000Z,0.9415384615384615,,,,,,,,orlando,False
59378bff-b000-4106-bbf5-d07eabf9dadf,WM Hair Studio,beauty_salon,"['hair_salon', 'cosmetic_and_beauty_supplies']",FL,Orlando,32806.0,"Phenix Salon Suites, 30 W Grant St",28.5159646,-81.3777695,meta,2025-06-02T07:00:00.000Z,0.9784508333782836,20076172-134c-482f-b43a-c39a112a9a72,,,,OpenStreetMap,2020-10-26T16:36:37.000Z,,orlando,False
3e963fb6-0dd3-45d8-861c-b6b1d59f40c6,WM Orlando Recycling Center,garbage_collection_service,"['professional_services', 'environmental_conservation_and_ecological_organizations']",FL,Orlando,32829.0,12100 Young Pine Rd,28.4788112,-81.2070581,meta,2025-06-02T07:00:00.000Z,0.9300613496932516,fd2b1b35-8d80-4681-a429-4ad42369fac6,,,,OpenStreetMap,2024-11-24T21:37:51.000Z,,orlando,False
442ac014-8b2e-44c8-9096-463abf19fcfd,Wm. Werkhaven & Son,jewelry_store,"['wholesale_store', 'fashion_accessories_store']",OH,Columbus,43202.0,2630 N High St,40.0158913,-83.011609,meta,2025-06-02T07:00:00.000Z,0.9784508333782836,52ba9ea2-3134-482b-bd36-3b9535f7bfdf,,,,OpenStreetMap,2019-07-14T23:05:37.000Z,,columbus-ohio,False
76654159-4bec-4204-b157-3cc6d2ca8c35,Zale Brian Wm DPM,podiatrist,"['doctor', 'family_practice']",TX,Rosenberg,77471.0,3926 Avenue H,29.5608283,-95.7867519,meta,2025-06-02T07:00:00.000Z,0.9784508333782836,,,,,,,,houston,False
f1fc02e6-2374-4cf8-aee8-a5669352945e,WM Import and Export,professional_services,"['freight_and_cargo_service', 'food_delivery_service']",TX,Katy,77450.0,168 Applewhite Dr,29.783039,-95.7550754,meta,2025-06-02T07:00:00.000Z,0.8831168831168831,c2efd1d9-1204-47e6-bb36-99e63ec6a2b0,,,,OpenStreetMap,2020-01-28T14:20:56.000Z,,houston,False
ccdb628f-e693-4485-a899-23b252d216f1,WM Trucking & Excavating Inc.,excavation_service,,TX,Hockley,77447.0,25400 Jack Rd,29.9683,-95.8168951,Microsoft,2024-02-02T13:29:53.807Z,0.77,,,,,,,,houston,True
089373ef-f2fe-44a3-9197-2bf20b339e72,Shep Boys Waste Management,event_planning,"['garbage_collection_service', 'storage_facility']",TX,Cypress,77433.0,17719 South Dr,29.9495856,-95.6867038,meta,2025-06-02T07:00:00.000Z,0.9204819277108434,ed918985-934d-42ac-b514-97d31fef0f70,,,,OpenStreetMap,2022-06-20T00:59:04.000Z,,houston,True
00eb10b0-788c-4635-90c7-f2d3fb050b09,WM Warmbloods,horse_trainer,['pet_breeder'],TX,Magnolia,77355.0,31630 Wisteria Rd,30.2051072,-95.7809633,meta,2025-06-02T07:00:00.000Z,0.909823677581864,,,,,,,,houston,False
a4e0a092-9a2b-4509-824b-eb3d599f9d14,Waste Management Landfills,health_and_medical,"['medical_service_organizations', 'naturopathic_holistic']",TX,Manvel,77578.0,21000 Highway 6,29.4615674,-95.341399,meta,2025-06-02T07:00:00.000Z,0.3376623376623376,8bfff1f7-983c-4554-80e2-5390a62dc834,,,,Microsoft ML Buildings,2022-03-25T00:00:00.000Z,,houston,False
a36cc32b-213a-40f5-8b3c-8750c45468b1,WM Home Restoration,home_improvement_store,"['furniture_store', 'professional_services']",TX,Houston,77072.0,12082 Sela Ln,29.6958378,-95.5921851,meta,2025-06-02T07:00:00.000Z,0.8540983606557377,8fbed057-a4f3-4cee-8531-158aed893ab9,,,,OpenStreetMap,2022-09-30T09:33:23.000Z,,houston,False
7db0c7fe-a5bb-4b92-b9d5-ef1c9271f03e,Waste Management,garbage_collection_service,"['public_service_and_government', 'recycling_center']",TX,Houston,77035.0,4939 Gasmer Dr,29.6503719,-95.4658702,meta,2025-06-02T07:00:00.000Z,0.3961437335670464,f496afda-9f75-4115-b32d-e8c04dc62a4f,Waste Management Recycling Center,industrial,industrial,OpenStreetMap,2022-10-13T17:52:41.000Z,,houston,False
4a918a66-295a-437d-8433-9596faf367fd,Houston Solid Waste Management,garbage_collection_service,"['public_and_government_association', 'environmental_conservation_organization']",TX,Houston,77035.0,11500 S Post Oak Rd,29.6497957,-95.4641859,meta,2025-06-02T07:00:00.000Z,0.9459263554653524,,,,,,,,houston,False
cf4c69ab-d9f0-4884-b7d8-54eadb2166fe,WM Bayou Fishing,hunting_and_fishing_supplies,['sporting_goods'],TX,Houston,77081.0,5404 Huisache St,29.7000406,-95.474832,meta,2025-06-02T07:00:00.000Z,0.909823677581864,2f4088ab-eb75-43eb-8d34-5c79629dadaf,,,,OpenStreetMap,2024-12-31T07:47:24.000Z,,houston,False
3003362c-bdda-4a98-917a-e5ef5d5291e5,Advantek Waste Management Services LLC,garbage_collection_service,"['business_manufacturing_and_supply', 'environmental_conservation_and_ecological_organizations']",TX,Houston,77042.0,11000 Richmond Ave,29.7282911,-95.5697256,meta,2025-06-02T07:00:00.000Z,0.909823677581864,7583ea92-effb-494a-8d30-fb3c74df4258,,,,Microsoft ML Buildings,2023-09-01T00:00:00.000Z,1.0,houston,False
b4a73b24-00bc-437e-aca3-e1aa2d97290d,WM - Sam Houston Transfer Station,garbage_collection_service,"['public_service_and_government', 'gas_station']",TX,Houston,77043.0,1138 W Sam Houston Pkwy N,29.7895306,-95.5600771,meta,2025-06-02T07:00:00.000Z,0.9784508333782836,,,,,,,,houston,False
bd190d81-08ba-4ae7-a6c1-fe08eed1a9bc,WM Synergy,b2b_science_and_technology,['software_development'],TX,Houston,77056.0,1717 Saint James Pl,29.7484587,-95.4727821,meta,2025-06-02T07:00:00.000Z,0.8860580325548478,bddeef09-8499-4b03-9eda-d17a34361b5b,,commercial,commercial,OpenStreetMap,2015-11-23T19:14:47.000Z,,houston,False
98b7210f-0569-49ef-b369-57459fb563cd,Waste Management - Addicks-Fairbanks Landfill,garbage_collection_service,"['recycling_center', 'property_management']",TX,Houston,77041.0,6415 N Eldridge Pkwy,29.868828,-95.608468,meta,2025-06-02T07:00:00.000Z,0.3376623376623376,,,,,,,,houston,False
80f59a8f-8922-480a-952b-cbd0057555d7,Wright Waste Management,recycling_center,"['home_improvement_store', 'contractor']",TX,Houston,77041.0,5410 Crawford Rd,29.8451601,-95.5570638,meta,2025-06-02T07:00:00.000Z,0.9784508333782836,,,,,,,,houston,False
9aed969f-7d0b-4b3d-9168-f6b19d880d94,Waste Management - Houston Recycling Center,garbage_collection_service,"['recycling_center', 'environmental_conservation_and_ecological_organizations']",TX,Houston,77080.0,9590 Clay Rd,29.83318,-95.5284024,meta,2025-06-02T07:00:00.000Z,0.7548172757475083,,,,,,,,houston,False
dab5a917-a73b-4c88-9922-562b1cfae870,"Waste Management - Houston, TX",garbage_collection_service,"['environmental_conservation_and_ecological_organizations', 'recycling_center']",TX,Houston,77055.0,1901 Afton St,29.8065639,-95.4725033,meta,2025-06-02T07:00:00.000Z,0.3961437335670464,06820555-6de6-4a91-910f-12e179c9716d,,,,Microsoft ML Buildings,2023-09-01T00:00:00.000Z,0.962000012397766,houston,False
5eeaad62-2f68-4e39-90fc-65e0fb695656,Waste Management - Todd Street Transfer Station,garbage_collection_service,"['professional_services', 'construction_services']",TX,Houston,77055.0,10701 Todd St,29.809536,-95.472944,meta,2025-06-02T07:00:00.000Z,0.5662921348314607,9bff1428-b968-4228-8eb2-640e4afcbfe6,,,,Microsoft ML Buildings,2023-09-01T00:00:00.000Z,1.0,houston,False
0f0d3e81-85d4-44a4-bcbd-af05c2f8f804,Leslie Wm. Adams & Associates,business_law,,TX,Houston,77098.0,3700 Buffalo Speedway Ste 420,29.72754466123249,-95.42319297790527,Microsoft,2015-08-18T01:37:06.743Z,0.77,e9f3d631-187d-48de-9536-75a8dfbbd98c,,,,OpenStreetMap,2024-12-09T02:57:22.000Z,,houston,False
e346a6c5-1440-4fa4-878a-cc47205fc2cc,Leslie Wm. Adams & Associates,lawyer,['professional_services'],TX,Houston,77098.0,3700 Buffalo Speedway,29.732648,-95.4293499,meta,2025-06-02T07:00:00.000Z,0.9459263554653524,0e37bd13-4d33-4f0c-b76c-8f20c846260d,,,,OpenStreetMap,2023-09-19T10:37:40.000Z,,houston,False
075ecad3-a143-4e8d-b628-642a59c34dc1,Waste Management Corporate Headquarters,garbage_collection_service,['employment_agencies'],TX,Houston,77002.0,"ProPark, 800 Capitol St",29.7595335,-95.3648756,meta,2025-06-02T07:00:00.000Z,0.8860580325548478,77f2f282-226e-4f0b-9fa1-efe84a941675,Bank of America Tower Garage,transportation,parking,OpenStreetMap,2024-12-09T04:57:13.000Z,,houston,True
41920bcc-9dd4-4985-b8b9-276731ce1686,WM - Corporate Headquarters,garbage_collection_service,"['environmental_conservation_and_ecological_organizations', 'public_service_and_government']",TX,Houston,77002.0,"ProPark, 800 Capitol St",29.7597769,-95.3646112,meta,2025-06-02T07:00:00.000Z,0.8253968253968254,36e64097-48f2-4660-a3e0-f29db161340b,Bank of America Tower,commercial,office,OpenStreetMap,2025-04-07T06:52:32.000Z,,houston,True
1ecd08bc-c198-476a-8737-9f456ba701bf,Houston Solid Waste Management Department,professional_services,"['garbage_collection_service', 'central_government_office']",TX,Houston,77018.0,1245 Judiway St,29.820087,-95.432254,meta,2025-06-02T07:00:00.000Z,0.4929396662387676,0f90d81c-987f-4cc7-991c-eec1bba4f63f,,,,OpenStreetMap,2021-01-12T04:17:53.000Z,,houston,False
bb25a16a-4a4a-4b0f-8202-c30853d96671,Houston Solid Waste Management,public_and_government_association,"['garbage_collection_service', 'professional_services']",TX,Houston,77022.0,9003 N Main St,29.830126,-95.398866,meta,2025-06-02T07:00:00.000Z,0.3961437335670464,d74fa55a-e346-4f7a-8d59-d411370bab85,,,,OpenStreetMap,2021-07-16T22:14:22.000Z,,houston,False
6a2b166b-e8c5-46e2-868a-bc9640fc1a8a,City of Houston Department of Solid Waste Management,garbage_collection_service,"['public_service_and_government', 'public_utility_company']",TX,Houston,77026.0,5614 Neches St,29.8121077,-95.3367597,meta,2025-06-02T07:00:00.000Z,0.9784508333782836,b870cb65-90d7-4b5e-aeeb-227d95275b84,,,,OpenStreetMap,2022-02-17T21:30:08.000Z,,houston,False
0783ac26-fffc-427d-a5e2-b009e300971a,Wm Gill,marketing_agency,,TX,Houston,77001.0,Wm Gill,29.8312,-95.281,meta,2025-06-02T07:00:00.000Z,0.3313953488372093,,,,,,,,houston,False
af80e694-2526-4cb1-a04b-238900046cd3,Pet Waste Management,garbage_collection_service,"['professional_services', 'pet_services']",TX,Pearland,77581.0,2513 Evergreen Dr,29.5509976,-95.226316,meta,2025-06-02T07:00:00.000Z,0.8540983606557377,d038162b-a3cb-4fb6-a528-1c70ea559394,,,,Microsoft ML Buildings,2022-03-25T00:00:00.000Z,,houston,False
4bbd9cb5-6757-411a-99b1-779afa1c6ee7,Waste Management - WRS Transfer Station,junk_removal_and_hauling,,TX,Houston,77034.0,10013 Koenig St,29.6222013,-95.194877,Microsoft,2018-06-20T21:21:01.293Z,0.77,,,,,,,,houston,False
df542ee3-e3a4-41aa-ba8f-00c8a6a6fc03,"Waste Management - Pasadena, TX",garbage_collection_service,"['real_estate', 'public_service_and_government']",TX,Pasadena,77505.0,3498 Pansy St,29.6582895,-95.162596,meta,2025-06-02T07:00:00.000Z,0.5662921348314607,53907b6c-f42b-42f5-bdc2-4106ae62477b,,,,Microsoft ML Buildings,2022-03-25T00:00:00.000Z,,houston,False
254e3521-0631-4e1a-8876-9608d67681f6,Waste Management - Greenshadow Landfill,junk_removal_and_hauling,,TX,Pasadena,77503.0,710 Jana Ln,29.6996338,-95.1475206,Microsoft,2018-06-20T21:21:01.293Z,0.77,,,,,,,,houston,False
df841f0a-5590-4f3a-91b7-d330bd5695ba,City Of Houston Solid Waste Management,garbage_collection_service,"['public_and_government_association', 'public_service_and_government']",TX,Houston,77012.0,1502 Central St,29.7135809,-95.2609923,meta,2025-06-02T07:00:00.000Z,0.9297091412742382,7cb655d2-a3ca-4f1d-b98d-d8425bc4c85d,,,,OpenStreetMap,2010-01-11T16:14:31.000Z,,houston,False
d892d108-019d-4c2a-b6aa-89a9ac256567,"Wm. S. Cannon & Associates, LLC",accountant,['professional_services'],TX,Houston,77070.0,12340 Jones Rd,29.9536801,-95.5838409,meta,2025-06-02T07:00:00.000Z,0.9459263554653524,548e151d-6b95-4690-8484-049194ffc758,,,,OpenStreetMap,2020-01-14T03:51:28.000Z,,houston,False
344878c4-d083-4ff0-b53c-1d71d318d0fe,Waste Management - Fairbanks Landfill,garbage_collection_service,"['recycling_center', 'commercial_industrial']",TX,Houston,77064.0,8205 Fairbanks N Houston Rd,29.9000688,-95.5279364,meta,2025-06-02T07:00:00.000Z,0.5662921348314607,,,,,,,,houston,False
b3afea1e-4cd6-4d07-a91e-103772398a26,Waste Management - Cougar Landfill (not open for public use),dumpster_rentals,['junk_removal_and_hauling'],TX,Houston,77050.0,8601 Mount Houston Rd,29.8942774559549,-95.2635032683611,Microsoft,2018-06-20T21:55:15.380Z,0.77,,,,,,,,houston,False
e55040fa-7abc-4187-a2de-62e16c2ae511,Waste Management - Atascocita Landfill,garbage_collection_service,"['public_service_and_government', 'recycling_center']",TX,Humble,77396.0,3623 Wilson Rd,29.953923,-95.244654,meta,2025-06-02T07:00:00.000Z,0.9784508333782836,c20d55c7-483f-4844-a8e5-8627c4164137,,,,Microsoft ML Buildings,2022-03-25T00:00:00.000Z,,houston,False
63e75715-ca51-4f00-8c84-8402080a68eb,Waste Management - Spokane Materials & Recycling Technology Center,environmental_conservation_and_ecological_organizations,"['business', 'garbage_collection_service']",WA,Spokane,99224.0,2902 S Geiger Blvd,47.6269704,-117.5025179,meta,2025-06-02T07:00:00.000Z,0.7548172757475083,0169b54b-40ca-4b96-9968-475750662ada,,commercial,office,OpenStreetMap,2014-10-12T05:08:50.000Z,,spokane,True
01ef5afa-5715-4783-b0a1-46bb80a71a68,Waste Management,garbage_collection_service,"['water_treatment_equipment_and_services', 'property_management']",WA,Spokane,99201.0,1730 W Sinto Ave,47.670157,-117.437945,meta,2025-06-02T07:00:00.000Z,0.296943231441048,de6ba629-0c77-4877-88c8-013c6daea5c8,,,,OpenStreetMap,2022-03-17T21:12:57.000Z,,spokane,False
586f68d9-9661-4752-8ea4-2fc111d38b65,Spokane Solid Waste Management,public_and_government_association,"['garbage_collection_service', 'public_service_and_government']",WA,Spokane,99207.0,1225 E Marietta Ave,47.681704,-117.391037,meta,2025-06-02T07:00:00.000Z,0.4929396662387676,2f431b0c-1b0d-49ab-9428-5a0696770998,,civic,government,Esri Community Maps,2024-10-15T00:00:00.000Z,,spokane,False
e47c2604-5b76-45e9-8bf0-0addc8875492,Waste Management,garbage_collection_service,"['event_photography', 'professional_services']",WA,Spokane Valley,99206.0,11321 E Indiana Ave,47.6755211,-117.2531526,meta,2025-06-02T07:00:00.000Z,0.9459263554653524,,,,,,,,spokane,False
44d8e112-c565-478c-bfb3-7009c08d1cd7,E-Waste Management Partners,recycling_center,"['garbage_collection_service', 'professional_services']",OH,Toledo,43617.0,6540 W Central Ave,41.6761923,-83.6990752,meta,2025-06-02T07:00:00.000Z,0.8860580325548478,c5bac3b8-a971-4894-a62e-f283928b9074,West Central Place,,,OpenStreetMap,2017-02-09T22:48:17.000Z,,toledo,False
d5bee085-daa5-4626-9647-7de9d050066e,Waste Management,garbage_collection_service,"['recycling_center', 'real_estate']",,,43619.0,6525 Wales Rd,41.60521,-83.5113,meta,2025-06-02T07:00:00.000Z,0.3961437335670464,e3ab5691-7d5e-45b5-a9e0-591447f2d843,,,,OpenStreetMap,2019-12-04T00:45:30.000Z,,toledo,False
18aa6445-6189-4cd3-85be-aa1a2c52b031,Waste Management - Evergreen Security Landfill,garbage_collection_service,"['recycling_center', 'public_service_and_government']",OH,Northwood,43619.0,2625 E Broadway St,41.605259,-83.511357,meta,2025-06-02T07:00:00.000Z,0.296943231441048,e3ab5691-7d5e-45b5-a9e0-591447f2d843,,,,OpenStreetMap,2019-12-04T00:45:30.000Z,,toledo,False
b206f0dc-f5eb-4151-ae22-49b64d0e2bf9,Waste Management Toledo Hauling,garbage_collection_service,"['public_service_and_government', 'environmental_conservation_and_ecological_organizations']",OH,Northwood,43619.0,6525 Wales Rd,41.608401,-83.509392,meta,2025-06-02T07:00:00.000Z,0.3961437335670464,e847e83c-40bf-460f-93d5-aab9cc9b2e6e,,,,OpenStreetMap,2025-03-14T20:46:43.000Z,,toledo,False
85ffcb78-f0b9-4bb5-a725-e34a2d4feda4,Lucas County Solid Waste Management,public_and_government_association,"['public_service_and_government', 'community_services_non_profits']",OH,Toledo,43612.0,1011 Matzinger Rd,41.7068977,-83.5224399,meta,2025-06-02T07:00:00.000Z,0.9415384615384615,3da1a54b-7450-4762-a896-fd820b747e5f,,,,Microsoft ML Buildings,2020-06-30T00:00:00.000Z,0.9742000102996826,toledo,False
8d22e65d-8bac-4c23-a5db-276d5998f189,Solid Waste Management Northwest Div,garbage_collection_service,"['public_service_and_government', 'public_and_government_association']",TX,El Paso,79922.0,4096 Doniphan Dr,31.817823,-106.561673,meta,2025-06-02T07:00:00.000Z,0.5662921348314607,69731d45-1e97-4994-b967-280fac584ebd,,,,Google Open Buildings,2023-05-01T00:00:00.000Z,0.9576,el-paso,False
fb8c12f3-caf0-44e5-bf6f-e0311338617d,El Paso City Solid Waste Management,garbage_collection_service,"['public_service_and_government', 'public_and_government_association']",TX,El Paso,79904.0,4501 Hondo Pass Dr,31.8704877,-106.4366488,meta,2025-06-02T07:00:00.000Z,0.9415384615384615,,,,,,,,el-paso,False
330b2e49-13b6-4845-b007-debcb0f43e77,"GNC WM Paseo Reforma, Nvo. Laredo",vitamins_and_supplements,"['specialty_foods', 'pharmacy', 'food', 'retail']",Campeche,Nuevo Laredo,88275.0,"Ave. Reforma #5601, Local 54",27.444449,-99.518508,Microsoft,2024-10-15T03:01:22.500Z,0.77,2e22b1a4-3603-4977-ab4f-7b32fcfb9283,Paseo Reforma,,,OpenStreetMap,2018-07-07T10:04:38.000Z,,laredo,False
53a8da94-17f4-4428-b1f8-40ab82b0986e,Laredo Waste Management LLc,b2b_cleaning_and_waste_management,"['garbage_collection_service', 'environmental_and_ecological_services_for_businesses', 'utility_service', 'business_to_business_services', 'business_to_business']",TX,Laredo,78045.0,8340 Tejas loop,27.5830684,-99.5051469,Microsoft,2025-04-18T09:55:11.033Z,0.77,,,,,,,,laredo,False
08a185fe-8c7e-4e13-8c1e-f53008578d74,Lakeland Solid Waste Management,garbage_collection_service,"['environmental_conservation_and_ecological_organizations', 'public_service_and_government']",FL,Lakeland,33801.0,605 Evelyn Ave,28.049912,-81.9415719,meta,2025-06-02T07:00:00.000Z,0.9300613496932516,26022632-8414-44cf-8dbf-0fd49f3ed075,,,,Microsoft ML Buildings,2022-03-21T00:00:00.000Z,,lakeland,False
c65e6181-fc2a-4bed-b9ac-d5e1ba3061bd,Waste Management,garbage_collection_service,"['home_improvement_store', 'professional_services']",FL,Lakeland,33803.0,3509 Waterfield Rd,28.000138,-81.897378,meta,2025-06-02T07:00:00.000Z,0.242152466367713,71c3baa5-0188-4b4b-9551-1a4cf1bb586e,,,,Microsoft ML Buildings,2022-03-21T00:00:00.000Z,,lakeland,False
b54cc112-76a8-47c6-bb83-6fa9e1230a08,Waste Management,garbage_collection_service,"['property_management', 'public_service_and_government']",FL,Lakeland,33801.0,3404 E County Road 542,28.04832,-81.8943335,meta,2025-06-02T07:00:00.000Z,0.242152466367713,7e7b34e6-4a75-4746-b55f-50edcf36c287,,,,OpenStreetMap,2021-05-02T15:01:47.000Z,,lakeland,False
15184b10-536d-4514-aa4c-97c8ac79b59d,Zambrello at Wm. Raveis Real Estate,real_estate_agent,,CT,Avon,6001.0,200 W Main St,41.81214,-72.84846,meta,2025-06-02T07:00:00.000Z,0.296943231441048,,,,,,,,hartford,False
1d3e4f73-47de-41d2-98a0-5f2a8b10a675,Waste Management,garbage_collection_service,"['professional_services', 'property_management']",CT,Berlin,6037.0,655 Christian Ln,41.648464,-72.75324,meta,2025-06-02T07:00:00.000Z,0.3376623376623376,bcdf8517-2bab-402a-8239-88262174c87a,Murphy Road Recycling,,,OpenStreetMap,2025-04-08T08:28:30.000Z,,hartford,False
ab988ac9-c735-4697-a463-f311e939a790,Wm. R. Smith Realty,real_estate_agent,"['real_estate', 'property_management']",CT,Windsor,6095.0,70 Poquonock Ave,41.854595,-72.647022,meta,2025-06-02T07:00:00.000Z,0.4929396662387676,5432fd09-c076-45fb-9cd1-acaaad6fd62c,,,,OpenStreetMap,2022-01-26T05:23:26.000Z,,hartford,False
ce2eaff7-6fcf-4528-9e22-da47fb7fa943,"Waste Management - Windsor, CT",garbage_collection_service,"['public_service_and_government', 'professional_services']",CT,Windsor,6095.0,415 Day Hill Rd,41.872634,-72.680043,meta,2025-06-02T07:00:00.000Z,0.5662921348314607,06ad3791-dd6e-4788-a69a-13278a20297f,,,,Microsoft ML Buildings,2000-01-01T00:00:00.000Z,,hartford,False
477b8777-ecf4-4c9f-b474-0fcc56197abc,Waste Management,garbage_collection_service,"['environmental_conservation_and_ecological_organizations', 'property_management']",OH,Cleveland,44105.0,8101 Union Ave,41.464536,-81.630891,meta,2025-06-02T07:00:00.000Z,0.242152466367713,01463566-b037-4eeb-8573-57ab555c0bc5,,,,OpenStreetMap,2019-08-06T14:55:58.000Z,,cleveland,False
8992669d-c09b-4d5a-9351-e4a8b5f52913,Plotz Wm Machine & Forge Co,automotive_repair,"['automotive', 'hardware_store']",OH,Cleveland,44113.0,2514 Center St,41.496241,-81.709948,meta,2025-06-02T07:00:00.000Z,0.4929396662387676,a06d33fc-c891-4587-9909-655955163fb1,,,,OpenStreetMap,2022-05-28T22:52:55.000Z,,cleveland,True
b71c1616-4b77-4e9c-a63e-5ebf6e8621a4,Waste Management Cleveland Recycling Center,garbage_collection_service,"['recycling_center', 'public_service_and_government']",OH,Bedford,44146.0,7450 S Oakleaf Rd,41.3614785,-81.5180798,meta,2025-06-02T07:00:00.000Z,0.9784508333782836,ccc2e413-554e-42a4-bfe8-77737d6672cb,Waste Management Northern Ohio Transfer Facility,commercial,commercial,OpenStreetMap,2021-05-18T20:55:50.000Z,,cleveland,False
c3a14256-37db-4324-a5eb-31cce1214337,Waste Management - Cleveland Dumpster Rental,garbage_collection_service,"['public_service_and_government', 'car_rental_agency']",OH,Solon,44139.0,6705 Richmond Rd,41.376407,-81.488561,meta,2025-06-02T07:00:00.000Z,0.242152466367713,aee60181-5e1c-4a62-a713-823d4970d4dc,,,,OpenStreetMap,2015-11-22T18:30:58.000Z,,cleveland,False
83e7ecb7-caff-4b77-8862-43812bafac40,Waste Management - Cuyahoga Regional Landfill,junkyard,"['garbage_collection_service', 'recycling_center']",OH,Solon,44139.0,6640 Cochran Rd,41.3790983,-81.4742448,meta,2025-06-02T07:00:00.000Z,0.9297091412742382,762e888c-30f5-4e87-a268-2b5579007748,,,,Microsoft ML Buildings,2020-09-19T00:00:00.000Z,,cleveland,False
90be3af1-d2f3-49c7-afa7-d11020d7f927,Wm. Sopko & Sons Co.,machine_shop,,OH,Euclid,44132.0,26500 Lakeland Blvd,41.6034267,-81.4983791,Microsoft,2020-01-29T16:59:09.830Z,0.77,,,,,,,,cleveland,True
f7333484-262e-4c26-8c22-055f3bb5fb63,WM-Ft Worth,recycling_center,"['garbage_collection_service', 'public_service_and_government']",TX,Fort Worth,76119.0,5012 Martin Luther King Fwy,32.69258,-97.248223,meta,2025-06-02T07:00:00.000Z,0.3961437335670464,bae31c5d-e2a7-4a4e-8828-f5f9e7871d7c,,,,Esri Community Maps,2024-10-15T00:00:00.000Z,,fort-worth,False
d29e5bdb-f716-481b-a7c9-7bd06593a4b4,"Wm. Linc Campbell, CFP, APMA, BFA - Clearfork Wealth Management",financial_advising,['business'],TX,Fort Worth,76109.0,5600 Clearfork Main St,32.707464,-97.405811,meta,2025-06-02T07:00:00.000Z,0.296943231441048,a81f8a91-d305-469c-aa99-bce0ea6f618e,,commercial,commercial,OpenStreetMap,2020-01-28T02:17:24.000Z,,fort-worth,False
29fc4a5d-2baa-497e-b5c5-1b3f6be0e0c8,"Waste Management - Fort Worth, TX",garbage_collection_service,"['professional_services', 'recycling_center']",TX,Fort Worth,76111.0,1121 Riverside Dr,32.7556515,-97.3022452,meta,2025-06-02T07:00:00.000Z,0.4929396662387676,,,,,,,,fort-worth,False
60f01106-b0b9-4736-b977-f4c595f0c93d,Waste Management - Fort Worth Materials Recovery Facility,garbage_collection_service,"['professional_services', 'recycling_center']",TX,Fort Worth,76164.0,1100 NE 23rd St,32.78543,-97.3393,meta,2025-06-02T07:00:00.000Z,0.242152466367713,b4b6cca1-377e-4296-802b-819b391b3fcb,,industrial,industrial,OpenStreetMap,2017-06-08T21:43:48.000Z,,fort-worth,False
448b6bde-c184-4bbe-b006-5f12645acfea,Waste Management - Arlington Recycling Facility,recycling_center,"['garbage_collection_service', 'public_and_government_association']",TX,Arlington,76011.0,1923 Meridian St,32.7439951,-97.0767297,meta,2025-06-02T07:00:00.000Z,0.9459263554653524,,,,,,,,fort-worth,False
5f77f703-a79a-4bba-b001-e7d7b441dea5,Wm Stukey & Associates,accountant,"['trusts', 'professional_services']",TX,Grapevine,76051.0,1705 W Northwest Hwy,32.9398912,-97.0950088,meta,2025-06-02T07:00:00.000Z,0.9297091412742382,81125af2-09fb-4aed-9d42-2eed5f14ad6a,,,,OpenStreetMap,2019-05-23T01:20:29.000Z,,fort-worth,False
97bbe891-8fc2-46ca-96a9-40ce893f6a13,"Wm. Burnell Insurance Agency, LLC",insurance_agency,,PA,Scranton,18503.0,329 N Washington Ave,41.4102,-75.66169,meta,2025-06-02T07:00:00.000Z,0.7548172757475083,e31589bc-0f7b-40a6-bd70-8e60f67249ee,Professional Arts Buildings,,,OpenStreetMap,2017-04-19T16:20:44.000Z,,scranton,False
a4938816-97c3-438f-9379-5c4e97089b77,"Waste Management - Dunmore, PA",garbage_collection_service,"['recycling_center', 'professional_services']",PA,Dunmore,18512.0,13 Peggy Pkwy,41.4285611,-75.6137429,meta,2025-06-02T07:00:00.000Z,0.5662921348314607,1954f0a4-9f0e-4999-bac2-b151840396ee,,,,Microsoft ML Buildings,2022-06-05T00:00:00.000Z,,scranton,False
6bd6a3b1-f141-406e-89c3-87fed897702e,"Waste Management - Huntsville, Alabama",garbage_collection_service,"['recycling_center', 'professional_services']",AL,Huntsville,35806.0,101 Spacegate Dr NW,34.78326,-86.662931,meta,2025-06-02T07:00:00.000Z,0.3376623376623376,,,,,,,,huntsville,False
094cfc46-8a53-42d0-897e-33d2ca8d33c0,BBP Dumpster | The Best Dumpster Rental & Waste Management in Concord,garbage_collection_service,"['rental_service', 'contractor']",CA,Concord,94521.0,4918 Clayton Rd,37.9581113,-121.9747278,meta,2025-06-02T07:00:00.000Z,0.8831168831168831,f6182979-597d-48a2-ab97-1f2dd96b4c71,,,,Microsoft ML Buildings,2022-03-11T00:00:00.000Z,,antioch,False
6cc9150f-5278-475c-9e2e-626d96198ef6,Waste Management - Gateway Transfer Station,garbage_collection_service,"['recycling_center', 'home_improvement_store']",GA,Atlanta,30336.0,1625 Westgate Pkwy SW,33.7099714,-84.5936017,meta,2025-06-02T07:00:00.000Z,0.9459263554653524,3e4582d7-3483-48fd-9e11-49804375c367,,,,OpenStreetMap,2023-01-07T19:39:59.000Z,,atlanta,False
03180e8f-3a0a-4be2-bf0e-9ac79e6f31a0,Du Sun Juice Waste Management,cleaning_services,,GA,Atlanta,30331.0,3227 Verdant Dr SW Ste 1512,33.6843517,-84.4961633,Microsoft,2025-05-12T18:45:33.750Z,0.77,353a4f9c-503f-4dcd-91d2-b262826f6a88,,,,OpenStreetMap,2014-04-17T17:17:47.000Z,,atlanta,False
e4e15d5b-b7c0-40e4-9706-a97e521d4e12,WM Events,event_planning,"['wedding_planning', 'advertising_agency']",GA,Hapeville,30354.0,280 Mt Zion Rd SW,33.6725902,-84.398491,meta,2025-06-02T07:00:00.000Z,0.9784508333782836,069ceb64-78db-4e6e-b8df-2e7facec2365,,,,OpenStreetMap,2014-04-22T12:46:14.000Z,,atlanta,False
2ba58570-e254-4743-8b87-d548bbfad169,"Waste Management - Stockbridge, GA",b2b_cleaning_and_waste_management,"['environmental_and_ecological_services_for_businesses', 'business_to_business_services', 'business_to_business']",GA,Stockbridge,30281.0,141 Railroad St,33.536753,-84.228079,Microsoft,2018-06-20T21:21:01.293Z,0.77,,,,,,,,atlanta,False
560b295f-8bde-4a85-9609-d6ac2937ce68,"Waste Management - Forest Park, GA",junk_removal_and_hauling,,GA,Forest Park,30297.0,327 Lamar Dr,33.607789,-84.369292,Microsoft,2018-06-20T21:21:01.293Z,0.77,,,,,,,,atlanta,False
3bf0c043-49d1-4895-a7f1-9f4321f231ad,"Waste Management - Forest Park, GA",garbage_collection_service,"['property_management', 'water_treatment_equipment_and_services']",GA,Forest Park,30297.0,327 Lamar Dr,33.608476,-84.369358,meta,2025-06-02T07:00:00.000Z,0.242152466367713,2b551c95-b2ed-4653-afc7-dba7d0c59129,,,,OpenStreetMap,2021-07-30T14:33:35.000Z,,atlanta,False
906e3159-1c21-47b3-8c82-0c32c484c4b8,"Waste Management - Lake City, GA",garbage_collection_service,"['public_service_and_government', 'water_treatment_equipment_and_services']",GA,Morrow,30260.0,1571 Burks Dr,33.612501,-84.337691,meta,2025-06-02T07:00:00.000Z,0.4929396662387676,c322c836-fe2b-4f20-aa4c-95e0f11f8a7f,,,,Microsoft ML Buildings,2023-09-01T00:00:00.000Z,0.9617000222206116,atlanta,False
63c65653-5c72-4571-857a-1597fe94c176,Wm Coffman Resources,shopping,['professional_services'],GA,Austell,30168.0,8080 Troon Cir SW,33.757864,-84.564648,meta,2025-06-02T07:00:00.000Z,0.3376623376623376,e424ec9e-35a7-4aab-b141-99f616547373,,commercial,warehouse,OpenStreetMap,2021-08-20T19:48:27.000Z,,atlanta,False
2c3534e9-2c67-4a67-806a-023b0c54a259,Cobb County Solid Waste Management and Recycling,garbage_collection_service,"['public_service_and_government', 'public_and_government_association']",GA,Marietta,30008.0,1897 County Services Pkwy SW,33.9067567,-84.5805484,meta,2025-06-02T07:00:00.000Z,0.909823677581864,ae6add54-d71b-4be4-85e4-2f00ac6985dc,,,,OpenStreetMap,2018-03-13T16:40:24.000Z,,atlanta,False
39868977-7e0c-427d-bd96-6d95e8930910,Waste Management,garbage_collection_service,"['property_management', 'professional_services']",,,30339.0,207 Plant Atkinson Rd SE,33.87131,-84.462609,meta,2025-06-02T07:00:00.000Z,0.242152466367713,,,,,,,,atlanta,False
140fbb2d-5394-4e04-9996-17a9bd76e5bf,Waste Management,garbage_collection_service,"['public_service_and_government', 'professional_services']",GA,Marietta,30067.0,1850 Parkway Pl SE,33.938379,-84.502077,meta,2025-06-02T07:00:00.000Z,0.296943231441048,9b2112c4-a8ec-4758-8601-3852cc5acd35,,commercial,commercial,OpenStreetMap,2023-03-31T23:47:00.000Z,,atlanta,False
0b579ab9-c232-4a11-833e-c9137e40ea4d,Waste Management - Woodstock Hauling & Transfer Station,garbage_collection_service,"['recycling_center', 'water_treatment_equipment_and_services']",GA,Woodstock,30188.0,6970 Main St,34.122606,-84.506407,meta,2025-06-02T07:00:00.000Z,0.5662921348314607,0925bab2-c330-4bd1-88a1-a870ba8b3e6c,,,,OpenStreetMap,2021-11-06T05:10:38.000Z,,atlanta,False
c485269e-6c48-4edb-ae81-b23e16cde472,Waste Management - Chadwick Road Landfill,junk_removal_and_hauling,,GA,Roswell,30075.0,13700 Chadwick Farm Blvd,34.1139864,-84.3817178,Microsoft,2018-06-20T21:21:01.293Z,0.77,,,,,,,,atlanta,False
cc63e45a-b4b8-4fbc-bc88-3e0b15880b97,"Wm. H. Kitchens, Jr. & Associates, LLC",divorce_and_family_law,,GA,Norcross,30071.0,5855 Jimmy Carter Blvd Ste 155,33.9188846,-84.210007,Microsoft,2022-08-29T20:53:29.913Z,0.77,,,,,,,,atlanta,False
6fb8915e-1e50-4d21-9bfc-a7cbdb36c829,Waste Management - BJ Transfer Station,junk_removal_and_hauling,,GA,Norcross,30071.0,6461 Corley Rd,33.9345813067682,-84.2386437154943,Microsoft,2018-06-20T21:21:01.293Z,0.77,30edc94c-5d96-4e77-afb5-e9676cb06468,,,,OpenStreetMap,2022-01-03T00:15:08.000Z,,atlanta,False
0bd36fb4-8e0c-42dc-a1be-82ba63e2453c,Wm Graham & Associates,professional_services,"['health_and_medical', 'doctor']",GA,Alpharetta,30004.0,12460 Crabapple Rd,34.0848612,-84.3572301,meta,2025-06-02T07:00:00.000Z,0.8860580325548478,,,,,,,,atlanta,False
bfcab906-1995-4a0d-b2fc-bbeebbcc6dd4,Waste Management - Alpharetta Transfer Station,junk_removal_and_hauling,,GA,Alpharetta,30009.0,11465 Maxwell Rd,34.0586738586426,-84.3014602661133,Microsoft,2018-06-20T21:21:01.293Z,0.77,ab3655f2-f83c-4448-ad0e-a04ebda82a1a,,,,OpenStreetMap,2018-02-20T06:02:12.000Z,,atlanta,False
ec281229-0f58-4b69-b02d-6aba7632820a,Waste Management - Atlanta East,garbage_collection_service,"['public_service_and_government', 'recycling_center']",GA,Norcross,30093.0,1243 Beaver Ruin Rd,33.925802,-84.139677,meta,2025-06-02T07:00:00.000Z,0.5662921348314607,432c2987-34b1-4598-ad1d-f8a6c3d8c7e4,,,,OpenStreetMap,2021-11-05T08:13:07.000Z,,atlanta,False
0dece227-222e-4305-a43f-d40f6fa83583,Waste Management - Lawrenceville Transfer Station,garbage_collection_service,"['business', 'recycling_center']",GA,Lawrenceville,30046.0,350 Maltbie Industrial Blvd NW,33.9607703,-83.9958008,meta,2025-06-02T07:00:00.000Z,0.4929396662387676,52ac2e58-ad0f-4a56-b294-0583e39b85ff,,,,OpenStreetMap,2015-12-29T15:10:55.000Z,,atlanta,False
4ac43abf-888e-4435-b875-7165c4258831,Waste Management - Southern Services C&D Landfill,garbage_collection_service,"['recycling_center', 'public_service_and_government']",TN,Nashville,37218.0,4651 Amy Lynn Dr,36.205574,-86.879352,meta,2025-06-02T07:00:00.000Z,0.4929396662387676,3199be80-1791-4f19-9978-44105a71bc46,,,,Microsoft ML Buildings,2019-11-02T00:00:00.000Z,,nashville-davidson,False
3c7f0805-ea4a-456c-ae5c-70487bbf8e40,Waste Management,garbage_collection_service,['public_service_and_government'],TN,Brentwood,37027.0,7003 Chadwick Dr,36.030958,-86.788973,meta,2025-06-02T07:00:00.000Z,0.296943231441048,0ff5ea08-0909-4b83-b354-6f0879c26950,,,,OpenStreetMap,2020-06-20T07:42:40.000Z,,nashville-davidson,False
944d3fb3-5093-44b7-a154-3897f16a9998,Waste Management Nashville Transfer Station,garbage_collection_service,['public_service_and_government'],TN,Antioch,37013.0,1428 Antioch Pike,36.0819026,-86.6860021,meta,2025-06-02T07:00:00.000Z,0.9459263554653524,,,,,,,,nashville-davidson,False
3a0c7232-5e61-4955-ada6-b4730c420316,Waste Management,garbage_collection_service,"['public_service_and_government', 'professional_services']",TN,Antioch,37013.0,3211 Franklin Limestone Rd,36.083949,-86.681686,meta,2025-06-02T07:00:00.000Z,0.3376623376623376,d1580d14-9e91-45bf-b2f6-b7c428502569,,industrial,industrial,OpenStreetMap,2020-03-22T04:40:47.000Z,,nashville-davidson,False
93289512-d31c-4d63-b94c-b2bec9b6decf,"Waste Management - Orem, UT",garbage_collection_service,"['environmental_conservation_and_ecological_organizations', 'professional_services']",UT,Orem,84058.0,1177 S 1580 W,40.27564,-111.73289,meta,2025-06-02T07:00:00.000Z,0.3961437335670464,853c2958-793c-4a3f-b27e-0c5543a69644,,,,OpenStreetMap,2019-09-17T14:00:47.000Z,,provo,False
cfbde3b2-dc6b-466e-a249-a11a4ed195af,"Waste Management - West Melbourne, FL",garbage_collection_service,"['public_service_and_government', 'public_utility_company']",FL,Melbourne,32904.0,7382 Talona Dr,28.096343,-80.674195,meta,2025-06-02T07:00:00.000Z,0.5662921348314607,4b85982c-001f-4aad-bf7e-5a6b84405699,,,,OpenStreetMap,2021-10-25T18:50:11.000Z,,palm-bay-melbourne,False
e665a91f-6ea0-44d2-8ea2-fb3f84f8f3c5,"Waste Management - Cocoa, FL",garbage_collection_service,"['public_service_and_government', 'recycling_center']",FL,Cocoa,32926.0,3303 Lake Dr,28.359423,-80.778329,meta,2025-06-02T07:00:00.000Z,0.5662921348314607,1ea1cbad-7dde-4db7-8566-41e7dce87275,,,,OpenStreetMap,2022-03-12T09:25:12.000Z,,palm-bay-melbourne,False
9d66a859-e4a7-4ff4-8db3-3d7c15f4c0c4,Waste Management,water_treatment_equipment_and_services,,OH,Akron,44306.0,1535 Exeter Rd,41.02643,-81.47633,meta,2025-06-02T07:00:00.000Z,0.3961437335670464,,,,,,,,akron,False
bdd586c5-323a-4ca4-89d5-3fee02ea1ebc,Waste Management - Akron Transfer Station,garbage_collection_service,"['recycling_center', 'public_service_and_government']",OH,Akron,44306.0,389 Fountain St,41.069368,-81.503155,meta,2025-06-02T07:00:00.000Z,0.3376623376623376,67d1ddac-551f-46e6-b5c9-b6925be3de52,Akron Central Transfer,commercial,commercial,OpenStreetMap,2021-05-18T21:12:47.000Z,,akron,False
c6060279-5ba4-4ef6-b792-c2fd08455938,Waste Management,garbage_collection_service,"['professional_services', 'property_management']",OH,Akron,44305.0,1130 Eastwood Ave,41.084632,-81.478639,meta,2025-06-02T07:00:00.000Z,0.3376623376623376,4c75c2ed-b945-40fe-8996-ca52f9f0a0ac,,,,Microsoft ML Buildings,2020-09-21T00:00:00.000Z,,akron,False
3f1b8e66-241a-4963-8b1e-4b4cdfd4188c,Scoop 4U Pet Waste Management,pet_services,"['garbage_collection_service', 'pet_store']",OH,Akron,44320.0,772 Work Dr,41.0898504,-81.5441122,meta,2025-06-02T07:00:00.000Z,0.909823677581864,d4218d81-16c4-47e1-9f00-5d7ff33ebb1c,,,,Microsoft ML Buildings,2020-09-21T00:00:00.000Z,,akron,False
b03789fa-37a6-45ea-a1f5-a909832f5a89,"Dr. Wm Jason Barker, DMD",oral_surgeon,"['dentist', 'health_and_medical']",KY,Lexington,40503.0,3080 Harrodsburg Rd,38.0123699,-84.5555603,meta,2025-06-02T07:00:00.000Z,0.9784508333782836,,,,,,,,lexington-fayette,False
b124b560-ebd0-4572-a4bc-d577ed44c741,Waste Management - Denver West,garbage_collection_service,"['public_service_and_government', 'professional_services']",CO,Golden,80401.0,410 Orchard St,39.7221794,-105.1779022,meta,2025-06-02T07:00:00.000Z,0.296943231441048,95439345-bb63-4466-bef7-d9c3bf48f3f2,,,,OpenStreetMap,2019-01-27T05:04:50.000Z,,denver,False
91181429-8e6f-48d6-87f8-4470a757c014,Dr. Wm. Terry Gipson,professional_services,,CO,Littleton,80120.0,1420 W Canal Ct,39.5673699,-105.0035732,meta,2025-06-02T07:00:00.000Z,0.8831168831168831,,,,,,,,denver,False
8e4aac3c-da49-461d-8105-bb9e3ac36117,"Dr. Wm Terry Gipson, MD",internal_medicine,"['doctor', 'health_and_medical']",CO,Littleton,80120.0,1420 W Canal Ct Ste 100,39.567634,-105.0034265,Microsoft,2020-08-05T17:38:18.183Z,0.77,,,,,,,,denver,False
7874ecd5-eb0a-4f9f-af37-373ddb62d1bb,Waste Management - South Metro Hauling and Transfer Station,garbage_collection_service,"['recycling_center', 'public_service_and_government']",CO,Englewood,80110.0,2400 W Union Ave,39.6308076,-105.0168879,meta,2025-06-02T07:00:00.000Z,0.9415384615384615,acf74771-c346-46f8-8f17-1acae6e4fb8b,,,,Esri Community Maps,2024-10-15T00:00:00.000Z,,denver,False
7b8f9438-62f3-4732-b45d-190e4f30b237,Wm Ohs Showrooms,carpenter,"['home_improvement_store', 'fashion']",CO,Denver,80206.0,115 Madison St,39.718087,-104.946523,meta,2025-06-02T07:00:00.000Z,0.3376623376623376,54e85b4f-978f-4fa8-999a-8ad53e5845d0,,commercial,commercial,OpenStreetMap,2020-10-18T21:45:46.000Z,,denver,False
7b8f9438-62f3-4732-b45d-190e4f30b237,Wm Ohs Showrooms,carpenter,"['home_improvement_store', 'fashion']",CO,Denver,80206.0,115 Madison St,39.718087,-104.946523,meta,2025-06-02T07:00:00.000Z,0.3376623376623376,0144e98b-b9e5-4668-90fa-36b71eca69c4,,commercial,commercial,OpenStreetMap,2019-01-21T22:48:04.000Z,,denver,False
7b8f9438-62f3-4732-b45d-190e4f30b237,Wm Ohs Showrooms,carpenter,"['home_improvement_store', 'fashion']",CO,Denver,80206.0,115 Madison St,39.718087,-104.946523,meta,2025-06-02T07:00:00.000Z,0.3376623376623376,80a2dd23-435c-49da-9f9f-cf63e8a7bf1d,,commercial,commercial,OpenStreetMap,2019-01-21T22:48:03.000Z,,denver,False
bae9e403-c6bc-4883-ad05-fefef31b3257,Waste Management,garbage_collection_service,"['public_service_and_government', 'professional_services']",CO,Greenwood Village,80111.0,5500 S Quebec St,39.615889,-104.902946,meta,2025-06-02T07:00:00.000Z,0.4929396662387676,80514595-8f1d-4938-af2b-45c0617e78c6,CoBank Center,commercial,office,OpenStreetMap,2024-06-02T23:54:21.000Z,,denver,False
96ee6ecf-6e4a-415b-aedd-de34e035f78a,CO Hazardous Materials and Waste Management Division,environmental_conservation_organization,"['public_and_government_association', 'water_treatment_equipment_and_services']",CO,Glendale,80246.0,4300 Cherry Creek South Dr,39.704714,-104.9369976,meta,2025-06-02T07:00:00.000Z,0.9459263554653524,ae4227eb-c05b-4409-a550-0e24c706232a,Colorado Department of Public Health and Environment,civic,public,OpenStreetMap,2015-09-20T02:01:07.000Z,,denver,False
62bd143e-4334-4d19-87a6-5225ee8f4606,"Wm Merrick Thomas, MD",obstetrician_and_gynecologist,"['doctor', 'medical_center', 'womens_health_clinic', 'health_and_medical']",CO,Denver,80205.0,2045 Franklin St Ste 200,39.7475157,-104.9700995,Microsoft,2018-10-11T00:08:42.380Z,0.77,fa2e87d5-2e93-4c21-9940-75c4e75675f1,,commercial,parking,OpenStreetMap,2020-05-16T06:05:07.000Z,,denver,False
5021908b-8bbf-494e-b341-af33704abe48,Wm Gilpin School,elementary_school,"['school', 'public_school']",CO,Denver,80205.0,720 30th St,39.7583247,-104.9757166,meta,2025-06-02T07:00:00.000Z,0.9459263554653524,f7c9a710-d375-4fc4-b5a7-288c59d3785b,,education,school,OpenStreetMap,2017-11-22T11:42:09.000Z,,denver,False
72654dca-f9c0-450d-9d27-11480d8298eb,Waste Management,garbage_collection_service,"['recycling_center', 'professional_services']",CO,Denver,80216.0,3600 E 48th Ave,39.7830543,-104.9442418,meta,2025-06-02T07:00:00.000Z,0.9297091412742382,ba4d495b-f1e6-4860-9101-7a47ca6b0442,,,,OpenStreetMap,2013-02-15T20:05:23.000Z,,denver,False
aab9d08a-aa57-40ac-96ba-7f6f4a15d7af,Waste Management,garbage_collection_service,"['recycling_center', 'professional_services']",CO,Denver,80216.0,5395 Franklin St,39.7952665,-104.9708225,meta,2025-06-02T07:00:00.000Z,0.9415384615384615,,,,,,,,denver,False
f85cf679-b056-451b-8b4e-8233d5a94d5b,Wm Ohs Inc.,countertop_installation,"['home_improvement_store', 'interior_design']",CO,Denver,80216.0,4101 E 48th Ave,39.784409,-104.938639,meta,2025-06-02T07:00:00.000Z,0.9784508333782836,93508b08-c255-4381-90b4-4372e02e0139,,industrial,industrial,OpenStreetMap,2018-08-07T05:43:04.000Z,,denver,True
19246abd-d663-4f1c-a239-3b2de27fdd4e,Waste Management,garbage_collection_service,"['public_service_and_government', 'professional_services']",CO,Commerce City,80022.0,6091 Brighton Blvd,39.8089116,-104.9409086,meta,2025-06-02T07:00:00.000Z,0.9297091412742382,,,,,,,,denver,False
8fd185c9-3802-416c-83f2-bb16f159387b,Waste Management,garbage_collection_service,"['public_service_and_government', 'commercial_industrial']",CO,Commerce City,80640.0,7780 E 96th Ave,39.8676123,-104.8962477,meta,2025-06-02T07:00:00.000Z,0.9415384615384615,,,,,,,,denver,False
d5b02efb-61ec-4e23-8934-18cb819c8341,Waste Management,junk_removal_and_hauling,,CO,Aurora,80018.0,3500 S Gun Club Rd,39.645823,-104.716262,Microsoft,2013-07-05T18:50:06.203Z,0.77,,,,,,,,denver,False
e0855e63-3446-4f40-8115-53f58c8060f6,Waste Management - Denver Arapahoe Disposal Site Landfill,garbage_collection_service,"['recycling_center', 'professional_services']",CO,Aurora,80018.0,3500 S Gun Club Rd,39.64578,-104.70922,meta,2025-06-02T07:00:00.000Z,0.296943231441048,,,,,,,,denver,False
6bf03c17-d4d2-4ef3-9df1-b000fa1407b1,Waste Management - Denver Arapahoe Disposal Site Landfill,junk_removal_and_hauling,['recycling_center'],CO,Aurora,80018.0,3500 S Gun Club Rd,39.6519244,-104.7133621,Microsoft,2018-06-20T21:21:01.293Z,0.77,,,,,,,,denver,False
3cfbfc27-f54c-47ca-87b5-186fa0496bf9,Waste Management - South Hills Landfill,garbage_collection_service,"['recycling_center', 'environmental_conservation_and_ecological_organizations']",PA,South Park,15129.0,3100 Hill Rd,40.277582,-79.989426,meta,2025-06-02T07:00:00.000Z,0.4929396662387676,f327837e-96bc-44de-a156-c1e678bcee50,,,,Microsoft ML Buildings,2021-09-19T00:00:00.000Z,,pittsburgh,False
e0f3fb76-4b29-4e7f-827f-7b069ea99f84,WM. Prescott Roofing and Remodeling,roofing,"['contractor', 'home_improvement_store']",,,15106.0,20 W Noblestown Rd,40.4019123,-80.1052747,meta,2025-06-02T07:00:00.000Z,0.909823677581864,,,,,,,,pittsburgh,False
130bce41-98ac-44d0-9ee9-423cce8b01e3,Waste Management - Monroeville Landfill,garbage_collection_service,"['professional_services', 'property_management']",PA,Monroeville,15146.0,600 Thomas St,40.40285,-79.7968099,meta,2025-06-02T07:00:00.000Z,0.3961437335670464,993e2af8-8eaa-418c-97fb-04a840a68f66,,,,OpenStreetMap,2023-09-02T17:21:34.000Z,,pittsburgh,False
90edea25-5cd3-441a-865a-00edc4a4b101,Waste Management - Pittsburgh Greenstar Recycling,junk_removal_and_hauling,['recycling_center'],PA,Pittsburgh,15225.0,4100 Grand Ave,40.5088555,-80.1178732,Microsoft,2018-06-20T21:55:15.380Z,0.77,,,,,,,,pittsburgh,False
1a80e169-c1b8-4883-9f03-d944af747a3d,"Waste Management - Pittsburgh, PA",garbage_collection_service,['utility_service'],PA,Pittsburgh,15204.0,301 Stanhope St,40.46377,-80.0554028,Microsoft,2018-06-20T21:55:15.380Z,0.77,,,,,,,,pittsburgh,False
c2dd78e8-f7c3-466c-8cd3-031149e94701,Wm Slater and Sons,funeral_services_and_cemeteries,"['contractor', 'lawyer']",PA,Pittsburgh,15211.0,301 Virginia Ave,40.4311319,-80.0108975,meta,2025-06-02T07:00:00.000Z,0.9784508333782836,3f2930e9-a611-4005-a94c-866e1cb860d3,Slater & Sons,,,OpenStreetMap,2020-07-06T19:40:49.000Z,,pittsburgh,False
e76bfbe1-fcec-4c93-9c7c-2427b5a1ee17,Air and Waste Management Association,community_services_non_profits,"['environmental_conservation_and_ecological_organizations', 'environmental_and_ecological_services_for_businesses']",PA,Pittsburgh,15222.0,420 Fort Duquesne Blvd,40.4430331,-80.0056289,meta,2025-06-02T07:00:00.000Z,0.8831168831168831,d2ea67ce-be9a-40ac-b2fb-ad267d7e5aa2,One Gateway Center,commercial,office,OpenStreetMap,2018-07-23T23:25:10.000Z,,pittsburgh,False
81c45f0e-6bf1-4d3f-8624-397c0646e2c1,Air & Waste Management Association,non_governmental_association,"['community_services_non_profits', 'environmental_conservation_and_ecological_organizations']",PA,Pittsburgh,15219.0,436 7th Ave,40.4420886,-79.9956284,meta,2025-06-02T07:00:00.000Z,0.9300613496932516,155b9bb2-0350-4436-99c0-cade7abbbcf7,Koppers Tower,,,OpenStreetMap,2017-11-24T17:20:12.000Z,,pittsburgh,False
1d9b91a9-48a6-437e-96d1-5afc4a0b9d11,Penn Hills School District WM Penn Elementary School Penn School DR,elementary_school,"['public_school', 'school']",PA,Verona,15147.0,200 Penn School Dr,40.492936,-79.835276,meta,2025-06-02T07:00:00.000Z,0.3961437335670464,10d7cdac-8a2a-4ef3-b15f-9c66cf7ffe3f,,residential,residential,OpenStreetMap,2017-10-22T16:09:36.000Z,,pittsburgh,False
ddc9e7eb-9c3d-438f-aaad-54ef8e138050,Waste Management,garbage_collection_service,"['professional_services', 'recycling_center']",VA,Richmond,23224.0,3520 N Hopkins Rd,37.4996817,-77.4542068,meta,2025-06-02T07:00:00.000Z,0.242152466367713,23c508d3-5eeb-4b18-bf33-787b3337cf1b,,,,OpenStreetMap,2020-01-12T16:23:26.000Z,,richmond,False
b8cb8b38-155d-44ac-9732-d87e38cbc2ea,Waste Management - Richmond,garbage_collection_service,"['recycling_center', 'water_treatment_equipment_and_services']",VA,Richmond,23224.0,1405 Gordon Ave,37.5115368,-77.4383884,meta,2025-06-02T07:00:00.000Z,0.9415384615384615,53c78d20-f091-447e-b23d-be7f04068352,,,,OpenStreetMap,2020-01-05T18:02:44.000Z,,richmond,False
d5e9032f-a8bc-4ec6-84ce-6bf25baae649,Central Virginia Waste Management Authority,recycling_center,"['public_and_government_association', 'public_service_and_government']",VA,Richmond,23227.0,2100 W Laburnum Ave,37.5842378,-77.4718712,meta,2025-06-02T07:00:00.000Z,0.9879256218304756,07e83b39-44f1-4694-a06f-86a95bad9085,,,,OpenStreetMap,2025-03-23T02:14:56.000Z,,richmond,False
1b1fcc82-99ec-4fe4-a56f-28207bd9656e,Waste Management Modesto Transfer Station,garbage_collection_service,"['industrial_equipment', 'professional_services']",CA,Modesto,95358.0,2769 W Hatch Rd,37.6098656,-121.0444302,meta,2025-06-02T07:00:00.000Z,0.9300613496932516,,,,,,,,modesto,False
d9455707-ad33-4ace-9cb1-420182ea167a,Gilton Solid Waste Management,garbage_collection_service,"['funeral_services_and_cemeteries', 'environmental_conservation_and_ecological_organizations']",CA,Modesto,95354.0,1722 Mono Dr,37.635048,-120.966439,meta,2025-06-02T07:00:00.000Z,0.3376623376623376,bd2ff51b-65e3-4b34-a74c-c9d29a05163e,,,,Microsoft ML Buildings,2022-05-30T00:00:00.000Z,,modesto,False
d9455707-ad33-4ace-9cb1-420182ea167a,Gilton Solid Waste Management,garbage_collection_service,"['funeral_services_and_cemeteries', 'environmental_conservation_and_ecological_organizations']",CA,Modesto,95354.0,1722 Mono Dr,37.635048,-120.966439,meta,2025-06-02T07:00:00.000Z,0.3376623376623376,eae5f615-719a-4662-b529-16d75ea69de0,,,,Microsoft ML Buildings,2022-05-30T00:00:00.000Z,,modesto,False
964b2b72-41cd-4c76-ab30-5fd1f2ffc020,Gilton Solid Waste Management,garbage_collection_service,"['public_service_and_government', 'professional_services']",,,95357.0,800 N McClure Rd,37.6237241,-120.9264266,meta,2025-06-02T07:00:00.000Z,0.3961437335670464,,,,,,,,modesto,False
6ad878c3-fb96-42e7-ac96-d12abb84fd3e,"Waste Management - Avondale, Louisiana",garbage_collection_service,"['public_service_and_government', 'professional_services']",LA,Westwego,0.0,,29.9149496,-90.2633352,meta,2025-06-02T07:00:00.000Z,0.3376623376623376,79ca2c7b-7d7b-4292-ae3e-07dc1838c967,,,,OpenStreetMap,2022-05-21T19:36:54.000Z,,new-orleans,False
30549225-1d1c-42ae-a64d-51e9c773510c,Geo WM Rueff Inc,customs_broker,,LA,Metairie,70002.0,2709 Ridgelake Dr Ste 200,30.0007057189941,-90.153434753418,Microsoft,2023-01-17T17:34:00.447Z,0.77,ba949497-a1fa-4177-b65f-4b482824a735,,,,OpenStreetMap,2022-05-28T23:16:21.000Z,,new-orleans,True
e24ff523-d35a-4576-bd8b-6f8d9279623c,North Star Waste Management,garbage_collection_service,"['rental_service', 'professional_services']",LA,New Orleans,70122.0,4978 Venus St,30.0103277,-90.0519506,meta,2025-06-02T07:00:00.000Z,0.8860580325548478,6b161e76-7f0b-412b-add6-198246cbf23c,,,,OpenStreetMap,2015-04-18T14:01:52.000Z,,new-orleans,False
7ea86e8d-fbcc-45b2-a359-a64fb9ad325d,Hardin Waste Management,garbage_collection_service,['social_service_organizations'],ID,Meridian,83642.0,1854 E Lanark St,43.6073168,-116.371407,meta,2025-06-02T07:00:00.000Z,0.8540983606557377,2542e371-e77f-401d-98ea-25210087d7ba,,,,OpenStreetMap,2021-11-17T15:10:07.000Z,,boise-city,False
232ce92b-c9b7-4b1d-89ec-5dddb8e92205,WM - Delta Recycling,garbage_collection_service,"['recycling_center', 'professional_services']",FL,Homestead,33033.0,11695 SW 328th St,25.463158,-80.3784606,meta,2025-06-02T07:00:00.000Z,0.9459263554653524,,,,,,,,miami,False
7a12060e-ead9-4fee-801b-6b4e2ca34992,WM AUTO SERVICES | Car Mechanic,automotive,,FL,Miami,33157.0,10736 SW 190th St,25.589382,-80.364773,Microsoft,2023-06-15T18:07:57.807Z,0.77,76832172-c248-49b1-ad0a-367197b365fa,,commercial,commercial,OpenStreetMap,2023-01-02T06:13:17.000Z,,miami,False
4df9c183-05db-4408-8621-fde3c216e731,Miami-Dade County Public Works and Waste Management Department,public_and_government_association,"['public_service_and_government', 'community_center']",,,33173.0,8000 SW 107th Ave,25.6944622,-80.3674226,meta,2025-06-02T07:00:00.000Z,0.9300613496932516,,,,,,,,miami,False
7870f8a9-1377-4b48-ba79-167fb407462e,WM Construction Group,contractor,"['home_improvement_store', 'home_developer']",FL,Miami,33175.0,13484 SW 22nd Ter,25.746161,-80.41467,meta,2025-06-02T07:00:00.000Z,0.9297091412742382,,,,,,,,miami,False
04998549-968c-4f35-9194-1af926aa106b,WM Import and Export,freight_and_cargo_service,"['transportation', 'shipping_center']",FL,Doral,33178.0,6308 NW 97th Ave,25.8308633,-80.354674,meta,2025-06-02T07:00:00.000Z,0.3961437335670464,7a3fa126-11d2-4580-a0f9-d088580e9964,,,,OpenStreetMap,2016-08-03T18:48:42.000Z,,miami,False
1f7c115e-e34c-457b-8420-a39a6839f69f,Solid Waste Management,garbage_collection_service,"['public_and_government_association', 'public_service_and_government']",FL,Miami,33178.0,8785 NW 58th St,25.8272205,-80.3408605,meta,2025-06-02T07:00:00.000Z,0.4929396662387676,054031c5-e3d7-4b09-8f8f-1ffb8cd9143d,,,,OpenStreetMap,2016-08-05T22:17:40.000Z,,miami,False
969b4bd3-9e12-406d-8588-f11b86e07647,WM Locksmith,key_and_locksmith,"['professional_services', 'automotive_repair']",FL,Miami,33144.0,145 SW 62nd Ave,25.7690347,-80.2958696,meta,2025-06-02T07:00:00.000Z,0.9300613496932516,9e0eb08f-661c-4759-93a0-d489b644d529,,,,OpenStreetMap,2018-11-13T19:45:51.000Z,,miami,False
bd32dbb4-e5b2-430a-a6d1-b41cf29fa557,Autos WM,car_dealer,"['auto_company', 'supermarket']",FL,Miami,33166.0,7477 NW 55th St,25.8235986,-80.3188156,meta,2025-06-02T07:00:00.000Z,0.9415384615384615,,,,,,,,miami,False
7c45db5f-baf2-433b-b789-e5e5cece1a5f,Medical Waste Management,garbage_collection_service,"['pharmacy', 'environmental_conservation_and_ecological_organizations']",FL,Miami,33166.0,8274 NW 66th St,25.83338,-80.3315414,meta,2025-06-02T07:00:00.000Z,0.9204819277108434,,,,,,,,miami,False
8a733376-0b6f-4419-8ef9-d65705a92b8e,Waste Management Recycling - Hialeah,garbage_collection_service,"['professional_services', 'recycling_center']",FL,Hialeah,33142.0,5000 NW 37th Ave,25.8201359,-80.2573423,meta,2025-06-02T07:00:00.000Z,0.9297091412742382,8c0fc743-a4ee-4b5f-8268-79ea22b9cdb9,,,,OpenStreetMap,2016-02-06T16:58:08.000Z,,miami,False
8d622969-16cc-4e32-8cdb-0e3e9df5de10,WM Miami Dumpster Rental,garbage_collection_service,['professional_services'],,,33125.0,2120 NW 11th Ave,25.7964066,-80.213369,meta,2025-06-02T07:00:00.000Z,0.8831168831168831,2cb72bf1-939a-4604-a6fa-67ce8c37c79c,,,,OpenStreetMap,2021-06-17T19:49:20.000Z,,miami,False
c51c88cd-c0d7-44f7-80bb-4006a9f401dd,Waste Management - Miami Transfer Station,junk_removal_and_hauling,,FL,Miami,33127.0,2120 NW 11th Ave,25.7964668,-80.2131605,Microsoft,2018-06-20T21:55:15.380Z,0.77,,,,,,,,miami,False
8f40c59e-8e13-4911-b60d-cfb19505a42f,Dade County Solid Waste Management,garbage_collection_service,"['public_service_and_government', 'environmental_conservation_organization']",FL,Miami,33147.0,2525 NW 62nd St,25.8314555,-80.2397245,meta,2025-06-02T07:00:00.000Z,0.9459263554653524,4dedb121-b81d-42a4-a9bf-80b35f19f201,,,,OpenStreetMap,2015-10-05T10:10:50.000Z,,miami,False
44fd8993-4e70-46ee-8581-aeccb7e721ca,Waste Management - Medley Landfill,dumpster_rentals,['junk_removal_and_hauling'],FL,Medley,33178.0,9350 NW 89th Ave,25.8592425,-80.3454219,Microsoft,2018-06-20T21:21:01.293Z,0.77,c0e0bb55-a8a1-418a-822e-b8881d8a08d4,,,,OpenStreetMap,2016-08-05T01:46:02.000Z,,miami,False
015963b2-acda-4ccf-9581-1be29e629ef3,Waste Management - Medley Landfill,environmental_conservation_and_ecological_organizations,"['garbage_collection_service', 'real_estate']",FL,Medley,33178.0,8801 NW 91st St,25.856793,-80.3422928,meta,2025-06-02T07:00:00.000Z,0.7548172757475083,1905a121-6f41-46ed-9f04-553181e7e1c7,,commercial,commercial,OpenStreetMap,2024-09-06T20:56:07.000Z,,miami,False
652a6a83-1f05-4518-a650-b3cae866e771,waste management,garbage_collection_service,"['public_service_and_government', 'environmental_conservation_and_ecological_organizations']",FL,Pembroke Pines,33029.0,20701 Pembroke Rd,25.9967894,-80.4199562,meta,2025-06-02T07:00:00.000Z,0.9784508333782836,59b2a82a-58df-40e0-a6e2-cb34085eeeed,,industrial,industrial,OpenStreetMap,2013-09-08T12:40:05.000Z,,miami,False
e43cb650-1e40-4a64-af34-42efa6ee23d4,Superior Recycling & Waste Management Inc,garbage_collection_service,"['professional_services', 'commercial_industrial']",FL,Hollywood,33023.0,2412 SW 59th Ter,25.9884783,-80.206078,meta,2025-06-02T07:00:00.000Z,0.9204819277108434,f4d7d170-e97d-4b21-816f-56dd25ad673b,,,,OpenStreetMap,2017-10-22T10:16:20.000Z,,miami,True
f49fe1ef-354d-468a-8680-e23a17c5bf00,"Marine Waste Management, Inc.",contractor,"['public_service_and_government', 'garbage_collection_service']",FL,Davie,33314.0,4345 SW 72nd Ter,26.06718,-80.2440699,meta,2025-06-02T07:00:00.000Z,0.3376623376623376,12443955-6680-481f-932f-a8d2e871cea0,,residential,house,OpenStreetMap,2019-05-16T12:17:38.000Z,,miami,True
f49fe1ef-354d-468a-8680-e23a17c5bf00,"Marine Waste Management, Inc.",contractor,"['public_service_and_government', 'garbage_collection_service']",FL,Davie,33314.0,4345 SW 72nd Ter,26.06718,-80.2440699,meta,2025-06-02T07:00:00.000Z,0.3376623376623376,0a81d067-3b8c-41bd-80fe-d28b3d56cc98,,residential,house,OpenStreetMap,2019-05-16T12:17:38.000Z,,miami,True
a13a0e6c-12c4-4991-b3cd-c8ad0cac4817,Waste Management Davie Transfer Station,garbage_collection_service,"['public_service_and_government', 'social_service_organizations']",FL,Davie,33317.0,2380 College Ave,26.0917544,-80.2346956,meta,2025-06-02T07:00:00.000Z,0.8860580325548478,,,,,,,,miami,False
6bea0dc9-06e6-4d95-b852-98089cd4e4dc,Waste Management Recycling Oakes Road,garbage_collection_service,"['recycling_center', 'professional_services']",FL,Davie,33314.0,3250 SW 50th Ave,26.0830113,-80.2150294,meta,2025-06-02T07:00:00.000Z,0.9784508333782836,bebe14b8-edf5-45f5-a5fc-668eafb1e5f7,,,,OpenStreetMap,2023-07-10T02:34:38.000Z,,miami,False
254981cd-1670-49a9-8acb-54213e9d6359,Waste Management Sun 3 C and D Dania Beach Recycling Center,garbage_collection_service,"['recycling_center', 'professional_services']",FL,Fort Lauderdale,33312.0,3251 SW 26th Ter,26.0809884,-80.1774978,meta,2025-06-02T07:00:00.000Z,0.909823677581864,,,,,,,,miami,False
7cd56999-ee6f-4b17-a20a-d10b1bc9f8cc,Nationwide Waste Management,hospital,"['pharmacy', 'garbage_collection_service']",FL,Sunrise,33323.0,1018 NW 132nd Ave,26.1344447,-80.3244743,meta,2025-06-02T07:00:00.000Z,0.2456896551724137,fcad94fc-5b6c-4e30-8f3c-82a2adb91a9d,,residential,residential,OpenStreetMap,2022-07-26T16:57:02.000Z,,miami,False
d3836363-20ce-4579-8e98-a32f6c6b831a,Major Wm Lauderdale Park,park,['attractions_and_activities'],FL,Fort Lauderdale,33312.0,400 SW 11th Ave,26.1191218,-80.157721,meta,2025-06-02T07:00:00.000Z,0.5662921348314607,5757cf28-a6e3-456f-9b70-83fe8fd5f34b,,,,OpenStreetMap,2022-10-06T21:58:24.000Z,,miami,False
acf1462d-81d0-4734-ac25-b3a72ef55c5a,Waste Management - Monarch Hill Landfill,dumpster_rentals,['junk_removal_and_hauling'],FL,Pompano Beach,33073.0,2700 Wiles Rd,26.2876011,-80.163476,Microsoft,2018-06-20T21:21:01.293Z,0.77,,,,,,,,miami,False
949eb7e4-6f1f-4820-a55c-c26aeb5f7c9a,Waste Management Recycling,recycling_center,"['garbage_collection_service', 'professional_services']",FL,Deerfield Beach,33442.0,1750 SW 43rd Ter,26.2920077,-80.1615959,meta,2025-06-02T07:00:00.000Z,0.8860580325548478,,,,,,,,miami,False
083a3ab0-3442-4a11-846f-7d8ffeebdcad,Waste Management - Monarch Hill Landfill,garbage_collection_service,"['professional_services', 'public_service_and_government']",FL,Deerfield Beach,33073.0,2651 Wiles Rd,26.2920077,-80.1615959,meta,2025-06-02T07:00:00.000Z,0.4929396662387676,,,,,,,,miami,False
e3c68add-6663-436c-9889-6b99dbbca261,Waste Management - Sun 4 C&D Recycling Facility,recycling_center,,FL,West Palm Beach,33413.0,6911 Wallis Rd,26.6809017,-80.1566715,Microsoft,2018-06-20T21:55:15.380Z,0.77,,,,,,,,miami,False
a575487e-060d-406b-b014-3f63663c7706,"St. Joseph WM Church, Dania Beach FL",church_cathedral,,FL,Dania Beach,33004.0,244 NW 5th Ave,26.057459,-80.145671,meta,2025-06-02T07:00:00.000Z,0.5662921348314607,a09651e4-3a75-45af-9a83-6a7f993608b9,,,,OpenStreetMap,2023-02-23T22:23:51.000Z,,miami,False
ded8ed2c-2cfd-49a8-a5d3-329b4720fdfa,Secret Garden WM,retirement_home,['hotel'],FL,Wilton Manors,33305.0,545 NE 23rd St,26.1570554,-80.1385579,meta,2025-06-02T07:00:00.000Z,0.3961437335670464,0ccb545b-097b-4162-962e-0ca15dab6580,,,,OpenStreetMap,2022-11-22T00:02:17.000Z,,miami,False
38dab38a-8011-480e-a73c-ab35d6050e06,Waste Management - Sun 2 C&D Recycling Facility,recycling_center,,FL,Pompano Beach,33069.0,2281 NW 16th St,26.2490939,-80.1545857,Microsoft,2018-06-20T21:55:15.380Z,0.77,,,,,,,,miami,False
5f35915a-a022-4c00-b351-ba67e0478340,Waste Management Delta Recycling,garbage_collection_service,"['environmental_conservation_and_ecological_organizations', 'public_utility_company']",FL,Pompano Beach,33069.0,2201 NW 16th St,26.2492436,-80.1540392,meta,2025-06-02T07:00:00.000Z,0.9415384615384615,,,,,,,,miami,False
19ff64b9-f368-4d7d-ada2-5ffbdcc3cb21,Waste Management - Delta Recycling - Pompano South,junk_removal_and_hauling,['recycling_center'],FL,Pompano Beach,33069.0,2201 NW 16th St,26.2496166229248,-80.1540756225586,Microsoft,2018-06-20T21:21:01.293Z,0.77,,,,,,,,miami,False
b5d80688-7756-46de-b9af-486bb7adf3b2,"Waste Management - Pompano Beach, FL",garbage_collection_service,"['public_service_and_government', 'environmental_conservation_and_ecological_organizations']",FL,Pompano Beach,33073.0,3831 N Powerline Rd,26.277571,-80.152998,meta,2025-06-02T07:00:00.000Z,0.5662921348314607,46247226-8574-4cc9-ae03-2e19be0c2e49,Waste Management,,,OpenStreetMap,2017-09-21T14:20:05.000Z,,miami,False
e5f641bf-5085-4f7c-951c-e9f2c38968cf,Wm E Fielding and Associates Inc (Parent Company of Global Guarantee Corp),bookkeeper,,FL,Delray Beach,33446.0,"13620 weyburn drive, Parent Company of Global Guarantee",26.46143128,-80.07256261,Microsoft,2025-03-07T16:28:42.667Z,0.77,20b39952-a445-4bdd-964d-1aa2c9657d0b,,,,OpenStreetMap,2019-02-14T14:33:49.000Z,,miami,True
1025053c-f172-4ddf-b99d-529254f48dda,WM Printing,printing_services,"['sign_making', 'business_advertising']",FL,Boynton Beach,33426.0,2005 Corporate Dr,26.5094397,-80.0774442,meta,2025-06-02T07:00:00.000Z,0.909823677581864,172fc4ee-3456-4c3f-8f06-feb7418fce2e,,,,OpenStreetMap,2014-07-28T04:43:37.000Z,,miami,False
859ad5a2-f6ed-47c5-b830-93489b1bd813,"Waste Management - Boynton Beach, FL",garbage_collection_service,"['public_service_and_government', 'recycling_center']",FL,Boynton Beach,33426.0,651 Industrial Way,26.556921,-80.073578,meta,2025-06-02T07:00:00.000Z,0.4929396662387676,99df35cd-cedb-4dff-a37c-98a0cad85218,,,,OpenStreetMap,2021-04-26T08:56:47.000Z,,miami,False
429ec0e5-d310-428d-bcaf-52a68dccd563,Waste Management - Sun Recycling C&D Facility,junk_removal_and_hauling,,FL,Lantana,33462.0,790 Hillbrath Dr,26.5931378,-80.0572155,Microsoft,2018-06-20T21:55:15.380Z,0.77,,,,,,,,miami,False
c5a61467-c47d-422c-a4de-7b24c0921063,Florida Waste Management,garbage_collection_service,"['environmental_conservation_and_ecological_organizations', 'professional_services']",FL,West Palm Beach,33417.0,5849 Okeechobee Blvd,26.7079003,-80.1329234,meta,2025-06-02T07:00:00.000Z,0.9204819277108434,7aeb56af-2de9-44e9-b158-43b99479a49c,,,,OpenStreetMap,2022-03-21T14:44:39.000Z,,miami,False
c5a61467-c47d-422c-a4de-7b24c0921063,Florida Waste Management,garbage_collection_service,"['environmental_conservation_and_ecological_organizations', 'professional_services']",FL,West Palm Beach,33417.0,5849 Okeechobee Blvd,26.7079003,-80.1329234,meta,2025-06-02T07:00:00.000Z,0.9204819277108434,ce707f5d-6f8a-42bc-96ed-c546a1a6ef5c,Wells Fargo,,,OpenStreetMap,2024-01-17T03:41:08.000Z,,miami,False
249653fc-8859-4198-8c8e-ccd2ef3bbce7,WM - Recycling Riviera Beach,recycling_center,"['garbage_collection_service', 'professional_services']",FL,Riviera Beach,33407.0,7095 Barbour Rd,26.7806702,-80.1111665,meta,2025-06-02T07:00:00.000Z,0.9415384615384615,,,,,,,,miami,False
3fef751b-e22a-4ffb-9a7c-3587485f559c,Waste Management - Sun 9 C&D Recycling Facility,recycling_center,,FL,West Palm Beach,33407.0,1025 26th St,26.7380519,-80.0635048,Microsoft,2018-06-20T21:55:15.380Z,0.77,c10cc21f-2183-4f18-8e7f-16bc5685dfcc,,,,OpenStreetMap,2021-04-24T10:02:58.000Z,,miami,False
95ca5ab0-97b2-448e-b8af-14d266193648,Rudolph Wm. Sohl,lawyer,"['legal_services', 'professional_services']",FL,West Palm Beach,33407.0,5200 N Flagler Dr,26.7570935,-80.0520481,meta,2025-06-02T07:00:00.000Z,0.9300613496932516,,,,,,,,miami,False
f6b5a793-2137-428f-b900-320246d57a59,Barber and Salon WM,barber,"['hair_salon', 'beauty_salon']",NV,Henderson,89012.0,1590 W Horizon Ridge Pkwy,36.0167478,-115.0565372,meta,2025-06-02T07:00:00.000Z,0.9784508333782836,a501d849-08b4-4f1d-a0be-5540b6ebd31f,Green Turtle Salon & Spa,,,OpenStreetMap,2024-03-26T19:07:16.000Z,,las-vegas,False
f6b5a793-2137-428f-b900-320246d57a59,Barber and Salon WM,barber,"['hair_salon', 'beauty_salon']",NV,Henderson,89012.0,1590 W Horizon Ridge Pkwy,36.0167478,-115.0565372,meta,2025-06-02T07:00:00.000Z,0.9784508333782836,62fd83a6-fb72-4e55-810c-b62374f42f35,Infuze Wellness,,,OpenStreetMap,2023-09-28T20:00:24.000Z,,las-vegas,False
edde5be9-8d1d-417d-85d1-28f1578f3e49,ATI Medical Waste Management,garbage_collection_service,"['diagnostic_services', 'professional_services']",CA,Santa Clarita,91355.0,28358 Constellation Rd,34.4527057,-118.5755097,meta,2025-06-02T07:00:00.000Z,0.8831168831168831,2ddd4b62-fa4a-4246-9f92-92d768d6a4c4,,industrial,industrial,OpenStreetMap,2017-02-06T11:04:36.000Z,,santa-clarita,False
cf856677-882c-4ab9-96e9-885611dfd87c,"Waste Management - Saugus, CA",online_shop,"['junk_removal_and_hauling', 'recycling_center', 'retail']",CA,Saugus,91350.0,25772 Springbrook Ave,34.411182,-118.53836,Microsoft,2018-06-20T21:21:01.293Z,0.77,,,,,,,,santa-clarita,False
9d10a535-f36c-44aa-a4e5-cde4896094fe,Waste Management - Santa Clarita Recycling Center,junk_removal_and_hauling,['recycling_center'],CA,Canyon Country,91351.0,20833 Santa Clara St,34.4252648,-118.5015476,Microsoft,2018-06-20T21:21:01.293Z,0.77,,,,,,,,santa-clarita,False
baa31a75-6079-415b-8492-34e0ad32ab51,WM - Santa Clarita Recycling Center,junk_removal_and_hauling,['recycling_center'],CA,Canyon Country,91351.0,20833 Santa Clara St,34.4252648,-118.5015476,Microsoft,2022-10-04T19:27:10.180Z,0.77,,,,,,,,santa-clarita,False
90374a64-c690-435c-95b8-6f591d035b9b,Wm B Morse Lumber Co.,building_supply_store,"['hardware_store', 'home_and_garden']",NY,Rochester,14623.0,40 Jarley Rd,43.153795,-77.6221755,meta,2025-06-02T07:00:00.000Z,0.9784508333782836,67de5e16-88eb-40cf-9da9-6139953ae314,Wm. B. Morse Lumber Company,industrial,industrial,OpenStreetMap,2021-07-04T04:26:03.000Z,,rochester,True
dcb1e95c-f6ef-4447-9a45-8e7f3ad6a67f,Waste Management East Side Transfer Station,garbage_collection_service,"['industrial_equipment', 'freight_and_cargo_service']",NY,Buffalo,14206.0,793 S Ogden St,42.8837602,-78.8007209,meta,2025-06-02T07:00:00.000Z,0.9784508333782836,1bc3e829-d3fa-49f9-a70b-ea9f457a38b1,,,,OpenStreetMap,2025-05-07T04:34:57.000Z,,buffalo,False
d1b5e647-324e-4b73-8e01-0777fc248f4a,WM Dental Care,pediatric_dentist,"['dentist', 'medical_center', 'health_and_medical']",NY,Amherst,14226.0,3500 Sheridan Dr,42.98026214410345,-78.80317150784164,Microsoft,2025-05-20T19:56:21.950Z,0.77,afc629fe-9753-4602-af5d-3634d061aefd,,commercial,retail,OpenStreetMap,2021-02-21T01:14:29.000Z,,buffalo,False
18caae17-8851-4ae0-b028-4a7f10673295,Waste Management,garbage_collection_service,"['recycling_center', 'public_service_and_government']",NY,West Seneca,14224.0,100 Ransier Dr,42.8443944,-78.7459142,meta,2025-06-02T07:00:00.000Z,0.9784508333782836,,,,,,,,buffalo,False
dbab924b-fa08-48a9-9f38-25688d11bce0,"Wm. Schutt & Associates, P.C.",engineering_services,"['land_surveying', 'home_improvement_store']",NY,Lancaster,14086.0,37 Central Ave,42.9017599,-78.6703602,meta,2025-06-02T07:00:00.000Z,0.9459263554653524,44c99448-4edc-4db6-be22-b6663fffb271,,,,OpenStreetMap,2011-02-09T21:57:32.000Z,,buffalo,False
dbab924b-fa08-48a9-9f38-25688d11bce0,"Wm. Schutt & Associates, P.C.",engineering_services,"['land_surveying', 'home_improvement_store']",NY,Lancaster,14086.0,37 Central Ave,42.9017599,-78.6703602,meta,2025-06-02T07:00:00.000Z,0.9459263554653524,16028efd-a8d7-4249-92fc-fadf0c1e2172,,,,OpenStreetMap,2021-02-25T14:27:42.000Z,,buffalo,False
9e9cbab1-6d63-45c9-b943-f0e096735f47,"Wm Schutt & Associates, PC",civil_engineers,"['land_surveying', 'engineering_services', 'structural_engineer', 'real_estate_service']",NY,Lancaster,14086.0,37 Central Ave,42.901624,-78.670243,Microsoft,2025-05-15T16:23:46.820Z,0.77,870900ac-fec5-4bc3-ad3f-76f403683693,,,,OpenStreetMap,2021-02-25T13:55:54.000Z,,buffalo,False
9e9cbab1-6d63-45c9-b943-f0e096735f47,"Wm Schutt & Associates, PC",civil_engineers,"['land_surveying', 'engineering_services', 'structural_engineer', 'real_estate_service']",NY,Lancaster,14086.0,37 Central Ave,42.901624,-78.670243,Microsoft,2025-05-15T16:23:46.820Z,0.77,44c99448-4edc-4db6-be22-b6663fffb271,,,,OpenStreetMap,2011-02-09T21:57:32.000Z,,buffalo,False
166b2a38-a0d7-4266-ad89-5a165e01b6c8,Waste Management - Depew Transfer Station,b2b_cleaning_and_waste_management,"['environmental_and_ecological_services_for_businesses', 'business_to_business_services', 'business_to_business']",NY,Depew,14043.0,3327 Walden Ave,42.9134843,-78.6869012,Microsoft,2018-06-20T21:55:15.380Z,0.77,,,,,,,,buffalo,False
7a3e0591-a1a7-457e-b489-a4471bfac4ed,WM - Depew Transfer Station,garbage_collection_service,"['professional_services', 'recycling_center']",NY,Depew,14043.0,3327 Walden Ave,42.9126488,-78.6865654,meta,2025-06-02T07:00:00.000Z,0.9204819277108434,828c9882-0bec-442f-9a0a-29d00729ed75,Waste Stream Management Transfer Station,industrial,industrial,OpenStreetMap,2021-02-25T13:55:54.000Z,,buffalo,False
7d6b6f94-9845-4208-ad22-bb26e251d7ad,"Waste Management - Reno, NV",garbage_collection_service,"['real_estate', 'counseling_and_mental_health']",NV,Reno,89502.0,130 Vassar St,39.512606,-119.805664,meta,2025-06-02T07:00:00.000Z,0.3961437335670464,249c1b6f-f108-49f6-b494-81b814d2f414,,commercial,office,OpenStreetMap,2024-11-13T19:07:20.000Z,,reno,False
a6f9659d-ed93-455f-80b9-2be3299a0ad7,Waste Management - Sage Transfer Station,garbage_collection_service,"['recycling_center', 'public_utility_company']",NV,Reno,89512.0,1390 E Commercial Row,39.530804,-119.795757,meta,2025-06-02T07:00:00.000Z,0.7548172757475083,a7350860-8e32-4ae2-a465-28500a43a6d1,,industrial,industrial,OpenStreetMap,2024-10-27T18:07:23.000Z,,reno,False
03eda041-c677-4741-bf67-92f98f9de108,New Canaan Waste Management,garbage_collection_service,"['public_and_government_association', 'home_improvement_store']",CT,New Canaan,6840.0,394 Main St,41.1407161,-73.4836262,meta,2025-06-02T07:00:00.000Z,0.9204819277108434,,,,,,,,new-haven,False
70800f35-32da-480d-be43-ccaab6d1d175,Wm Evans Painting,contractor,['painting'],CT,Westport,6880.0,11 Westfair Dr,41.1392009,-73.3053855,meta,2025-06-02T07:00:00.000Z,0.8831168831168831,,,,,,,,new-haven,False
bce875c2-95d2-441a-8464-a97aaf6848fc,Wm. J. Kolkmeyer Yacht Sales,boat_dealer,"['active_life', 'boat_service_and_repair']",CT,Milford,6460.0,1 High St,41.2193891,-73.0558131,meta,2025-06-02T07:00:00.000Z,0.9459263554653524,777aed32-f48a-4911-828a-2e28cc01d0c1,,,,OpenStreetMap,2016-07-02T20:39:28.000Z,,new-haven,False
69f4f224-bc2a-464e-9cf2-6bc5dce5c73e,The Wm. M. Hotchkiss Company,real_estate,['property_management'],CT,New Haven,6510.0,195 Church St,41.3079802,-72.9239403,meta,2025-06-02T07:00:00.000Z,0.9300613496932516,7a060433-f11e-4697-97b7-93526b5a35e7,KeyBank,commercial,commercial,OpenStreetMap,2022-11-15T13:46:24.000Z,,new-haven,True
9e9502a3-e3ab-4a5e-a75c-e828eedf14cd,Preferred Waste Management,garbage_collection_service,,CA,Fresno,93706.0,841 F St,36.72908,-119.79377,meta,2025-06-02T07:00:00.000Z,0.8253968253968254,,,,,,,,fresno,False
582766ac-8213-4602-9bea-db2d10820d47,Wm. B. Saleh Co.,contractor,['painting'],CA,Fresno,93703.0,1364 N Jackson Ave,36.7607546,-119.747533,meta,2025-06-02T07:00:00.000Z,0.9459263554653524,4e81719c-ed2c-4dbb-95c3-1d2591f6e75e,,,,Microsoft ML Buildings,2022-05-30T00:00:00.000Z,,fresno,True
8d146089-2765-4fe2-a1ce-67326ed8f391,Mario WM Fresno,financial_service,,CA,Fresno,93710.0,5272 North Blackstone Ave.,36.81372,-119.78984,meta,2025-06-02T07:00:00.000Z,0.3376623376623376,,,,,,,,fresno,False
45a07c07-6b23-41f3-8720-535a1cde94b5,Baton Rouge Waste Management,garbage_collection_service,"['public_and_government_association', 'public_service_and_government']",LA,Baton Rouge,70805.0,343 Chippewa St,30.4715099,-91.1863828,meta,2025-06-02T07:00:00.000Z,0.9204819277108434,,,,,,,,baton-rouge,False
3962d5ff-ad4c-4778-86fb-b4ac2d119ce5,Waste Management - JMK Fibers Recycling Center,junk_removal_and_hauling,['recycling_center'],WA,Tacoma,98421.0,1440 Port Of Tacoma Rd,47.2644844055176,-122.40315246582,Microsoft,2018-06-20T21:21:01.293Z,0.77,,,,,,,,seattle,False
8758c797-f484-4eab-ba00-7f751485a847,Waste Management South Sound Commercial Operations,garbage_collection_service,"['commercial_industrial', 'recycling_center']",WA,Pacific,98047.0,701 2nd Ave NE,47.269495,-122.233274,meta,2025-06-02T07:00:00.000Z,0.3376623376623376,6474b765-bc36-41f3-ad34-69946229769d,,,,OpenStreetMap,2024-03-27T22:43:58.000Z,,seattle,False
1f0d0bdc-5ff8-4dfb-8c55-e334f2eae38a,Waste Management - South Sound Operations,garbage_collection_service,"['recycling_center', 'water_treatment_equipment_and_services']",WA,Auburn,98001.0,701 2nd St NW,47.3094998,-122.2375131,meta,2025-06-02T07:00:00.000Z,0.3961437335670464,3cfc3ed9-bee7-4184-a086-bc61c1e4da51,,,,OpenStreetMap,2018-12-15T04:16:26.000Z,,seattle,False
d230b59a-3588-4427-9e98-127923774614,Waste Management Recycle Northwest,recycling_center,"['garbage_collection_service', 'property_management']",WA,Auburn,98001.0,355 H St NW,47.3109768,-122.2374384,meta,2025-06-02T07:00:00.000Z,0.9415384615384615,,,,,,,,seattle,False
a9ffe398-6394-4120-9dbd-8c9041be93fb,WM Seattle,wholesaler,"['business_equipment_and_supply', 'business_to_business']",WA,Tukwila,98188.0,1163 Andover Park W,47.4445371,-122.2561909,Microsoft,2023-09-04T17:50:25.847Z,0.77,d663fca1-599a-4822-bfee-4f5a835ef890,Building B,industrial,industrial,OpenStreetMap,2019-01-30T07:47:58.000Z,,seattle,False
1547a74f-bbb7-46d5-a48e-fc10e6000d96,WM CUSTOM CONCRETE,masonry_concrete,,WA,Burien,98168.0,907 S 137th St,47.48021883,-122.3219451,Microsoft,2024-05-02T00:34:32.673Z,0.77,294f7817-37a9-4e69-b7ad-0c70a7e1a1b3,,,,OpenStreetMap,2024-03-27T23:19:45.000Z,,seattle,False
b00d2168-fd5e-449b-af1a-3c96d18c59f5,Waste Management,garbage_collection_service,"['public_service_and_government', 'recycling_center']",WA,Seattle,98108.0,8111 1st Ave S,47.5296066,-122.3349833,meta,2025-06-02T07:00:00.000Z,0.9459263554653524,5ac51b55-a169-4bc1-b8f9-1e4d135a919e,,,,OpenStreetMap,2024-03-28T19:55:46.000Z,,seattle,False
1c167db4-df94-4efa-a8c7-32346208746a,Waste Management - Seattle Healthcare Solution,junk_removal_and_hauling,,WA,Seattle,98108.0,8101 1st Ave S,47.5306637,-122.3349631,Microsoft,2018-06-20T21:55:15.380Z,0.77,,,,,,,,seattle,False
479a1a33-c7ea-438c-99c1-add4ba1a0c9a,Waste Management - Alaska Street Reload Facility,garbage_collection_service,"['commercial_industrial', 'industrial_company']",WA,Seattle,98134.0,70 S Alaska St,47.560478,-122.335955,meta,2025-06-02T07:00:00.000Z,0.4929396662387676,618a711b-1bad-4c5a-99bb-1226337aaec9,,,,OpenStreetMap,2013-06-17T20:17:35.000Z,,seattle,False
75c9fa04-166e-41b4-aa2f-c0d2699dd106,Waste Management Service Seattle,garbage_collection_service,['utility_service'],WA,Seattle,98104.0,240 2nd Ave S #100,47.600233,-122.331292,Microsoft,2025-05-12T12:57:09.583Z,0.77,8ad9e503-dcd2-452c-a582-8a7e4d761d72,Pacific Commercial Building,,,OpenStreetMap,2021-04-03T03:35:37.000Z,,seattle,False
22bd54a8-138b-421e-a5b6-9f594d42a7fe,Hazardous Waste Management Program in King County - Factoria,b2b_cleaning_and_waste_management,"['garbage_collection_service', 'environmental_and_ecological_services_for_businesses', 'utility_service', 'business_to_business_services', 'business_to_business']",WA,Bellevue,98005.0,13800 SE 32nd St,47.5823697,-122.1584214,Microsoft,2025-05-11T08:45:07.480Z,0.77,,,,,,,,seattle,False
02df0295-6269-45da-a1a4-d47f9ac13e5f,Waste Management,real_estate,"['recycling_center', 'commercial_industrial']",WA,Kirkland,98033.0,720 4th Ave,47.678669,-122.196502,meta,2025-06-02T07:00:00.000Z,0.3376623376623376,07f1ef78-15be-402f-abf5-abb24255e9c5,,commercial,office,OpenStreetMap,2024-07-30T00:39:09.000Z,,seattle,False
c49a0ecb-6e6c-42ed-bb2b-29f3e5e01f1e,Waste Management,garbage_collection_service,"['automotive', 'environmental_conservation_and_ecological_organizations']",WA,Kirkland,98034.0,13225 NE 126th Pl,47.7132981,-122.1612,meta,2025-06-02T07:00:00.000Z,0.296943231441048,,,,,,,,seattle,False
ea4e8c63-b520-4496-9481-f5ae74bd7d25,Waste Management - Cascade Recycling Center (not open for public use),b2b_cleaning_and_waste_management,"['environmental_and_ecological_services_for_businesses', 'environmental_testing', 'junk_removal_and_hauling', 'recycling_center', 'business_to_business_services', 'business_to_business']",WA,Woodinville,98072.0,14020 NE 190th St,47.765941619873,-122.151649475098,Microsoft,2018-06-20T21:21:01.293Z,0.77,d7a38ca3-0555-4e4a-b620-56efea072590,Waste Management,industrial,industrial,OpenStreetMap,2021-12-17T20:32:01.000Z,,seattle,False
07555b8f-f1dd-47cb-8f81-078ec97bfeed,Waste Management - North Sound Hauling,garbage_collection_service,"['public_service_and_government', 'recycling_center']",WA,Woodinville,98072.0,6211 234th St SE,47.7855176,-122.1491533,meta,2025-06-02T07:00:00.000Z,0.9784508333782836,569b5f75-5d68-4ff9-bed3-b6dbb2e54872,,commercial,commercial,OpenStreetMap,2013-08-29T22:00:17.000Z,,seattle,False
3d818593-4222-4a96-a393-dff6e311a23a,Waste Management - Collier County,junk_removal_and_hauling,['recycling_center'],FL,Naples,34104.0,4500 Exchange Ave,26.1579208374023,-81.7541656494141,Microsoft,2018-06-20T21:21:01.293Z,0.77,086ad937-0460-4536-9b16-b77c54a53854,,,,OpenStreetMap,2017-09-09T21:31:01.000Z,,bonita-springs-naples,False
e94d696d-e229-44fb-9dbc-f81ed6a349a5,Waste Management - Naples Landfill,garbage_collection_service,['recycling_center'],FL,Naples,34117.0,3750 White Lake Blvd,26.1601321,-81.682991,meta,2025-06-02T07:00:00.000Z,0.3376623376623376,,,,,,,,bonita-springs-naples,False
51e8d85e-83a2-4878-97fc-324a45ae5c5d,"Waste Management - Delta Recycling - Naples, FL",junk_removal_and_hauling,['recycling_center'],FL,Naples,34109.0,5801 Yahl St,26.2177159,-81.7775199,Microsoft,2018-06-20T21:21:01.293Z,0.77,,,,,,,,bonita-springs-naples,False
e573fc4d-f725-41f9-be17-60af709e1b0b,Waste Management - Oklahoma City Dumpster Rental,garbage_collection_service,"['environmental_conservation_and_ecological_organizations', 'public_service_and_government']",OK,Oklahoma City,73127.0,5600 NW 4th St,35.469129,-97.615872,meta,2025-06-02T07:00:00.000Z,0.3961437335670464,e67bd0f2-3209-49eb-b44e-57c8b116c816,,,,OpenStreetMap,2018-02-02T03:58:14.000Z,,oklahoma-city,False
251f6f77-29cd-4e32-8415-9af3c754ce73,Waste Management - Oklahoma City Recycling Facility,garbage_collection_service,"['recycling_center', 'public_and_government_association']",OK,Oklahoma City,73127.0,5519 NW 4th St,35.4704996,-97.614512,meta,2025-06-02T07:00:00.000Z,0.9784508333782836,92291ace-b9df-4cd3-b80d-0e76d2757606,,,,OpenStreetMap,2024-02-19T01:58:09.000Z,,oklahoma-city,False
ffe81cc6-c911-4560-b359-f2d8bc248ba1,Waste Management - East Oak Security Landfill,garbage_collection_service,"['recycling_center', 'landmark_and_historical_building']",OK,Oklahoma City,73141.0,3201 Mosley Rd,35.5062031,-97.4152473,meta,2025-06-02T07:00:00.000Z,0.7548172757475083,059dadf0-c099-445f-a2a4-df4b1cb15ff4,,,,Esri Community Maps,2024-10-15T00:00:00.000Z,,oklahoma-city,False
bff5dcbb-ff81-414c-8fbd-e2c2e5cf6124,"WM Electric, LLC",electrician,['lighting_fixtures_and_equipment'],MO,SAINT LOUIS,63128.0,4614 Skyridge Meadows Ct,38.4992081,-90.3538596,Microsoft,2023-11-06T08:24:54.340Z,0.77,,,,,,,,st-louis,False
b6257ac1-958a-4c98-b385-cc04fcdd1327,St Louis-Jefferson Solid Waste Management District,public_and_government_association,['public_service_and_government'],MO,Kirkwood,63122.0,556 Leffingwell Ave,38.5730867,-90.3976361,meta,2025-06-02T07:00:00.000Z,0.9300613496932516,8756eecc-b9a1-4185-be22-a045fb3e57fb,,,,Microsoft ML Buildings,2022-08-25T00:00:00.000Z,,st-louis,False
bd8dc5f0-053f-4548-abf5-9a33a89b7ef1,Waste Management - Gasconade Transfer Station,b2b_cleaning_and_waste_management,"['environmental_and_ecological_services_for_businesses', 'junk_removal_and_hauling', 'business_to_business_services', 'business_to_business']",MO,Saint Louis,63118.0,4100 S 1st St,38.5792991,-90.2252249,Microsoft,2018-06-20T21:21:01.293Z,0.77,,,,,,,,st-louis,False
9dace580-7668-4e1c-a5a6-bf622723b431,Wm French Buyer's Real Estate Services,real_estate_agent,['real_estate'],MO,Clayton,63105.0,8301 Maryland Ave,38.6531912,-90.3460461,meta,2025-06-02T07:00:00.000Z,0.9415384615384615,71851797-518f-4d61-9eaf-ac3f17a71363,Maryland Park West,commercial,commercial,OpenStreetMap,2018-08-30T03:41:57.000Z,,st-louis,False
6554e595-858c-47b9-bfba-f49c16bf221f,"Wm. Mantia Fruit Co, Inc.",food_beverage_service_distribution,"['wholesale_store', 'food']",MO,St Louis,63102.0,19 Produce Row,38.6515095,-90.1885792,meta,2025-06-02T07:00:00.000Z,0.5662921348314607,ba2f6c33-83d8-4a69-92b5-df051b41de1f,,,,OpenStreetMap,2022-10-04T19:58:50.000Z,,st-louis,True
e45a96a6-990e-4a0b-8ba0-c761979c97cf,"Waste Management - East St. Louis, IL",garbage_collection_service,"['recycling_center', 'public_service_and_government']",IL,East St Louis,62201.0,601 Madison Rd,38.65502,-90.12954,meta,2025-06-02T07:00:00.000Z,0.3376623376623376,,,,,,,,st-louis,False
6785ae21-f8ac-44e1-ac9a-c18647259ec1,Wm. Nobbe,retail,,MO,St Charles,63303.0,3575 Veterans Memorial Pkwy,38.78918425,-90.5517705,Microsoft,2025-03-08T22:31:00.270Z,0.77,041b78bf-f026-434c-b25a-1dbab08ad5d2,,,,Microsoft ML Buildings,2022-08-25T00:00:00.000Z,,st-louis,False
a2882071-5e11-4ba3-8f80-b44e15e69bfa,"Waste Management - Hazelwood, MO",garbage_collection_service,"['utility_service', 'junk_removal_and_hauling']",MO,Hazelwood,63042.0,6250 N Lindbergh Blvd,38.7683942,-90.3541052,Microsoft,2018-06-20T21:21:01.293Z,0.77,,,,,,,,st-louis,False
bdda076d-2335-48b5-8458-19b0bfcac390,Waste Management - St. Louis Dumpster Rental,garbage_collection_service,"['recycling_center', 'public_service_and_government']",MO,St Louis,63147.0,7320 Hall St,38.7014618,-90.2199783,meta,2025-06-02T07:00:00.000Z,0.4929396662387676,62f0b483-e5f9-4a29-bf20-d00e1d422708,,,,OpenStreetMap,2021-03-23T15:30:42.000Z,,st-louis,False
874a69cc-1fc2-4427-a754-012cd61173f6,WM North Transfer Station,real_estate,,MO,St. Louis,0.0,,38.7011651,-90.2196322,meta,2025-06-02T07:00:00.000Z,0.3376623376623376,,,,,,,,st-louis,False
6e177162-f196-4d7b-808a-cae329a9dfc1,WM Law Despacho de Planificacion de Patrimonio Y Bancarrota,bankruptcy_law,"['wills_trusts_and_probate', 'lawyer']",KS,Olathe,66062.0,15095 W 116th St,38.9183069,-94.760533,meta,2025-06-02T07:00:00.000Z,0.9784508333782836,,,,,,,,kansas-city,False
11e30f6e-c8b3-4274-8853-e23af8e148e4,Waste Management - Johnson County Landfill,garbage_collection_service,"['commercial_industrial', 'recycling_center']",KS,Shawnee,66217.0,17955 Holliday Dr,39.04111,-94.79415,meta,2025-06-02T07:00:00.000Z,0.7548172757475083,,,,,,,,kansas-city,False
61c8f109-a29e-41c4-9eea-4cc4da34e22e,Waste Management - Johnson County Landfill,hazardous_waste_disposal,,KS,Shawnee Mission,66217.0,17955 Holiday Dr,39.0422957,-94.7942781,Microsoft,2018-06-20T21:21:01.293Z,0.77,,,,,,,,kansas-city,False
fdb35e7c-d868-4f31-bc49-ddcd042de9aa,Waste Management - Kansas City Dumpster Rental,garbage_collection_service,"['recycling_center', 'professional_services']",KS,Kansas City,66111.0,2601 S Mid-West Dr,39.05609,-94.78699,meta,2025-06-02T07:00:00.000Z,0.4929396662387676,fad4c2aa-c550-42bf-bb18-1fa4b3730b36,,,,OpenStreetMap,2011-02-26T15:51:56.000Z,,kansas-city,False
