id_left,primary_name_left,primary_category,alternate_category,id_right,primary_name_right,subtype,class,source_city,region,locality,zipcode,address,latitude,longitude,plc_source_dataset,plc_source_update_time,plc_source_confidence,bldg_dataset,bldg_update_time,bldg_confidence,is_office_by_pipeline
2f067bab-96c6-482b-9f0d-a6a7bfd4324b,Wynn Over Pain,doctor,"['health_and_medical', 'pharmacy']",583846a5-5c3d-4db9-a036-4dd830c0b72d,,,,san-diego,CA,National City,91950.0,502 Euclid Ave,32.6848579,-117.0835265,meta,2025-06-02T07:00:00.000Z,0.9784508333782836,Microsoft ML Buildings,2023-09-01T00:00:00.000Z,0.9824000000953674,False
8f374905-63d6-438d-9454-3a4d3d22dfc8,Grand Master Wynn University,martial_arts_club,"['education', 'active_life']",3c9edfaa-541e-4e91-afd3-c9f7d98e2943,,commercial,retail,san-diego,CA,Chula Vista,91913.0,1392 E Palomar St,32.62323,-116.99755,meta,2025-06-02T07:00:00.000Z,0.5662921348314607,OpenStreetMap,2017-05-15T18:43:27.000Z,,False
68018878-52a9-472d-ae75-dad6c1ae1053,Pengi Wynn Inc,professional_services,"['flowers_and_gifts_shop', 'event_photography']",bba2270b-7118-454c-bea8-1fd969933269,,,,san-diego,CA,San Diego,92131.0,10035 Carroll Canyon Rd,32.9024377,-117.1107694,meta,2025-06-02T07:00:00.000Z,0.9415384615384615,OpenStreetMap,2020-11-10T22:12:56.000Z,,False
680ceb4f-dc51-49a7-80a9-623047763eb4,Wynn-Smith Landscape Architecture,professional_services,['landscaping'],1d3a1861-9334-4770-bb7e-134fb45fcec3,,commercial,retail,san-diego,CA,Poway,92064.0,13319 Poway Rd,32.9557339,-117.0426166,meta,2025-06-02T07:00:00.000Z,0.9300613496932516,OpenStreetMap,2021-10-18T23:55:48.000Z,,False
2f58b01e-4e4a-4d8b-b819-c69130ea0866,Wynn Nails and Spa,nail_salon,"['beauty_and_spa', 'hair_removal']",,,,,fresno,CA,Fresno,93727.0,2860 N Fowler Ave,36.7777397,-119.6818087,meta,2025-06-02T07:00:00.000Z,0.9784508333782836,,,,False
794542be-3f30-43e8-80c0-a702a59f6e5b,Wynn nail spa,beauty_and_spa,"['nail_salon', 'beauty_salon']",3f6b1f52-cf5e-4e35-8c4f-e3f3f40ee4d0,,,,miami,FL,North Miami,33181.0,13180 Biscayne Blvd,25.8967886,-80.1624247,meta,2025-06-02T07:00:00.000Z,0.9784508333782836,OpenStreetMap,2023-07-29T18:01:35.000Z,,False
57c57deb-a67e-40f0-8b5a-3711e9c012fa,Patricia Wynn,real_estate_agent,"['professional_services', 'real_estate']",f07a30f6-61f5-4bd8-ba42-b4ebc9c45bab,,,,miami,FL,Coral Springs,33076.0,5810 Coral Ridge Dr,26.3035091,-80.2799556,meta,2025-06-02T07:00:00.000Z,0.9300613496932516,OpenStreetMap,2017-09-21T15:05:35.000Z,,False
339df4d1-9374-46b7-905e-524913b2631b,Reynolds & Wynn,real_estate_agent,"['real_estate', 'real_estate_service']",96d4d6d8-9daa-4718-a0f2-c8d9942482b2,,,,miami,FL,Aventura,33160.0,18205 Biscayne Blvd,25.94392,-80.14706,meta,2025-06-02T07:00:00.000Z,0.3961437335670464,OpenStreetMap,2019-06-26T05:31:47.000Z,,False
93576237-dedd-4850-851c-b0775f276161,Wynn Lash & Nail Bar,nail_salon,['beauty_and_spa'],,,,,miami,FL,Boca Raton,33496.0,5030 Champion Blvd Ste G12,26.4095883,-80.1239333,Microsoft,2025-03-03T16:08:37.043Z,0.77,,,,False
7a0a3a0e-84ed-41ca-a670-d931f81dba04,Wynn Lash & Nail Bar,nail_salon,"['beauty_and_spa', 'hair_salon']",2c724b1b-250f-4d19-b404-3f9c73d5280d,,,,miami,FL,Boca Raton,33496.0,5030 Champion Blvd,26.4101556,-80.1228378,meta,2025-06-02T07:00:00.000Z,0.9784508333782836,OpenStreetMap,2021-06-11T16:17:28.000Z,,False
710f8929-526e-473d-9d88-c39fb4822546,Tricia Wynn Realtor Re/Max Interactive,real_estate_agent,"['real_estate', 'web_designer']",c79b37cd-955d-4e1a-9b46-85386f754a5d,,,,palm-bay-melbourne,FL,Melbourne,32935.0,1372 Highland Ave,28.1288373,-80.626413,meta,2025-06-02T07:00:00.000Z,0.2456896551724137,OpenStreetMap,2022-03-12T10:01:52.000Z,,False
57dfd630-4933-4752-9a17-2c5b583f25b5,Russo Wynn C DDS,general_dentistry,"['dentist', 'professional_services']",0af96ff6-69f6-46fa-8ca1-f9947c10d05c,Toca Building,,,new-orleans,LA,Kenner,70062.0,2301 Williams Blvd,29.9980531,-90.241572,meta,2025-06-02T07:00:00.000Z,0.9415384615384615,OpenStreetMap,2020-04-24T23:12:01.000Z,,False
e5a1750e-93e4-487f-96b7-4b8ca90e2aad,Wynn Kapit DDS Family Dentistry,dentist,['professional_services'],,,,,new-orleans,LA,Metairie,70006.0,3024 Kingman St,30.0024639,-90.1804214,meta,2025-06-02T07:00:00.000Z,0.9784508333782836,,,,False
2a8d9740-c9c9-4e59-80fb-ea927af26f52,Wynn's small engines,automotive_repair,"['outdoor_gear', 'professional_services']",,,,,rockford,IL,Machesney Park,61115.0,1608 Gladys Dr,42.3559675,-89.0319773,meta,2025-06-02T07:00:00.000Z,0.9784508333782836,,,,False
8b51852e-f2f1-42bf-bcbd-54f4bd9d82ab,Country Girl Houses Amanda Wynn,real_estate_agent,,,,,,fayetteville,NC,Fayetteville,28304.0,2426 Colgate Dr,35.0283953,-78.9144783,Microsoft,2023-11-06T08:45:10.847Z,0.77,,,,False
7c7ac0bc-252e-4516-bfcf-76cad04dab63,Suzanne Wynn Mortgage Broker,mortgage_broker,"['real_estate_agent', 'accommodation']",328e6a9e-5146-4cec-a1be-224175563338,,,,providence,RI,Johnston,2919.0,655 Killingly St,41.8305155,-71.4730612,meta,2025-06-02T07:00:00.000Z,0.8540983606557377,Microsoft ML Buildings,2020-07-18T00:00:00.000Z,,False
5af2a563-86b0-48d6-8172-6b4506f39505,Phail Wynn Jr. Student Services Center and Bookstore,campus_building,"['college_university', 'education']",421c74af-3c79-4447-97ff-fdf9ec5e8190,,education,,durham,NC,Durham,27703.0,1645 Cooper St,35.972804,-78.880472,meta,2025-06-02T07:00:00.000Z,0.9415384615384615,OpenStreetMap,2018-08-06T23:17:38.000Z,,False
b7e493a4-b2a1-4829-a201-25c69520233b,Dr. Donny Wynn MD,doctor,"['dentist', 'internal_medicine']",96e72bc1-05c3-48aa-b313-565567796f29,,medical,hospital,oklahoma-city,OK,Oklahoma City,73102.0,608 NW 9th St,35.4770237,-97.5237634,meta,2025-06-02T07:00:00.000Z,0.5662921348314607,OpenStreetMap,2024-08-21T15:01:21.000Z,,False
90597c5d-5e59-4874-8805-833099eeb911,Wynn Nails & Spa,nail_salon,"['beauty_salon', 'beauty_and_spa']",0c29eb65-7dba-4ad8-a53e-5acd922755c2,,,,oklahoma-city,OK,Del City,73115.0,5501 Main St,35.4417651,-97.4241157,meta,2025-06-02T07:00:00.000Z,0.9784508333782836,OpenStreetMap,2017-03-17T06:25:08.000Z,,False
bf2099b6-0510-4e78-b498-209fde5bb760,Wynn Construction Co Inc,contractor,"['construction_services', 'professional_services']",0c49f935-add9-4468-bb25-33498c3a1aa3,,,,oklahoma-city,OK,Oklahoma City,73131.0,11901 N Eastern Ave,35.5896688,-97.4837213,meta,2025-06-02T07:00:00.000Z,0.9784508333782836,OpenStreetMap,2017-03-02T20:31:21.000Z,,True
b132502c-0334-4721-ba3f-1baac08ec4de,The Wynn Apartments,property_management,"['accommodation', 'landmark_and_historical_building']",2ca4ab91-a32d-45c8-b88a-62b275956a65,,,,oklahoma-city,OK,Edmond,73013.0,3621 Wynn Dr,35.619635,-97.485968,meta,2025-06-02T07:00:00.000Z,0.5662921348314607,Esri Community Maps,2024-10-15T00:00:00.000Z,,False
9005a691-1f44-4bbd-b7ea-b5614449761d,Post Office Wynn Drive Station,post_office,"['central_government_office', 'automotive_repair']",a93058f4-f151-44a1-9fb3-31435400b73b,,,,huntsville,AL,Huntsville,35816.0,645 Wynn Dr NW,34.740099,-86.653352,meta,2025-06-02T07:00:00.000Z,0.7548172757475083,OpenStreetMap,2021-05-08T21:52:29.000Z,,True
f648c426-ca6e-4f9a-90f8-8b63acc46295,Wynn Starr Foods Of Kentucky Inc,grocery_store,"['food_beverage_service_distribution', 'supermarket']",837df604-6b71-4375-ac71-81695badaef9,,,,louisville,KY,Louisville,40214.0,4820 Allmond Ave,38.1752,-85.753771,meta,2025-06-02T07:00:00.000Z,0.3376623376623376,OpenStreetMap,2015-02-20T19:03:50.000Z,,False
b294dd24-027b-41d2-b46c-cc6084e1f5e0,Wynn Nail & Spa,nail_salon,"['beauty_salon', 'beauty_and_spa']",c9ee8669-25d0-41cf-8bb0-66a2f08cb613,Kroger,,,louisville,KY,Louisville,40218.0,3614 Buechel Byp,38.1986102,-85.6635637,meta,2025-06-02T07:00:00.000Z,0.9784508333782836,OpenStreetMap,2024-02-10T00:26:06.000Z,,False
10e01d43-0177-45f1-9057-0c95d93aea44,Wynn Hotel. Las Vegas,hotel,['casino'],,,,,las-vegas,NV,Enterprise,0.0,,36.0117126,-115.1742747,meta,2025-06-02T07:00:00.000Z,0.3376623376623376,,,,False
d20995fa-35fc-4956-bd66-a6073178bfa6,Wynn,hotel,['casino'],94fcb01c-1364-45f7-b2ef-265270c31bc2,,,,las-vegas,NV,Spring Valley,89109.0,3131 S Las Vegas Blvd,36.0230361,-115.1790329,meta,2025-06-02T07:00:00.000Z,0.4929396662387676,OpenStreetMap,2020-04-13T14:55:59.000Z,,False
ee33e602-583c-4b44-ae02-401a3494e487,Brenda Wynn Realtor,real_estate_agent,"['real_estate_service', 'real_estate']",7037d27e-62d4-4794-9d51-9b4009b0d5d5,,,,las-vegas,NV,Henderson,89052.0,3185 St Rose Pkwy,35.9976888,-115.1233488,meta,2025-06-02T07:00:00.000Z,0.9300613496932516,OpenStreetMap,2017-11-09T21:59:12.000Z,,False
c8cb735a-35dc-425e-9a0f-27956c372ad4,Wynn,hotel,"['travel', 'bar']",4989b879-d7d9-4466-93ef-4926a73e069c,,,,las-vegas,NV,Las Vegas,89113.0,7662 Mohawk Cliff Ave,36.0441716,-115.258291,meta,2025-06-02T07:00:00.000Z,0.3376623376623376,Microsoft ML Buildings,2023-09-01T00:00:00.000Z,0.968500018119812,False
adcedd3b-394b-484b-b328-4badbdadb219,Wynn Design & Development,interior_design,"['contractor', 'business_advertising']",122d8109-39d4-48df-92d9-b871ad2849c9,,,,las-vegas,NV,Las Vegas,89119.0,734 Pilot Rd,36.0663821,-115.1457683,meta,2025-06-02T07:00:00.000Z,0.4929396662387676,OpenStreetMap,2024-03-28T07:27:31.000Z,,False
adcedd3b-394b-484b-b328-4badbdadb219,Wynn Design & Development,interior_design,"['contractor', 'business_advertising']",20ef5732-528b-4d72-b13f-8eabc4829a92,,,,las-vegas,NV,Las Vegas,89119.0,734 Pilot Rd,36.0663821,-115.1457683,meta,2025-06-02T07:00:00.000Z,0.4929396662387676,Microsoft ML Buildings,2023-09-01T00:00:00.000Z,1.0,False
994e534d-e597-4aec-802b-bb5edf1be654,Budget Suites Wynn,hotel,"['landmark_and_historical_building', 'accommodation']",ef15f5bc-4130-4a86-9b18-4bb20d11a2fb,,,,las-vegas,NV,Las Vegas,89103.0,4205 W Tropicana Ave,36.0995674,-115.1958233,meta,2025-06-02T07:00:00.000Z,0.4929396662387676,OpenStreetMap,2020-04-14T09:03:06.000Z,,False
d981bc0c-d46d-473f-b30b-7508ebcf4bce,Wynn Field Club,dance_club,"['lounge', 'cocktail_bar']",d8257eab-50ee-4300-86d8-c8f496395cc7,Allegiant Stadium,,,las-vegas,NV,Las Vegas,89118.0,3333 Al Davis Way,36.0907121,-115.1837381,meta,2025-06-02T07:00:00.000Z,0.9879256218304756,OpenStreetMap,2025-03-18T20:42:47.000Z,,False
974a73e6-b582-4c60-874a-7f55a1df6b70,Wynn InstaCare Clinic,urgent_care_clinic,['health_and_medical'],,,,,las-vegas,NV,Las Vegas,89103.0,4880 Wynn Rd,36.1013478,-115.1957045,Microsoft,2025-05-06T17:56:21.283Z,0.77,,,,False
542335ab-e491-4875-b555-01bf723e9e77,Intermountain Healthcare Wynn Instacare Clinic,hospital,"['family_practice', 'internal_medicine']",0b84c0d5-2aa6-4d2a-98f6-3f3085e94c4f,,,,las-vegas,NV,Las Vegas,89103.0,4880 Wynn Rd,36.1014689,-115.1952078,meta,2025-06-02T07:00:00.000Z,0.9784508333782836,OpenStreetMap,2017-10-13T20:11:47.000Z,,False
46de18d9-b105-4bd9-b9e4-5595b5a1866d,Tides on Wynn,real_estate,"['landmark_and_historical_building', 'social_service_organizations']",,,,,las-vegas,NV,Las Vegas,89103.0,3800 Wynn Rd,36.1212824,-115.1943839,meta,2025-06-02T07:00:00.000Z,0.9784508333782836,,,,False
2f460d10-4abc-49e1-a145-456b6c5242dd,Wynn Palms,accommodation,"['landmark_and_historical_building', 'holiday_rental_home']",4288b2f0-c745-4d0d-be6a-ad7b8082dec1,,,,las-vegas,NV,Las Vegas,89103.0,3800 Wynn Rd,36.1221198,-115.1930732,meta,2025-06-02T07:00:00.000Z,0.7548172757475083,OpenStreetMap,2020-04-09T22:17:20.000Z,,False
cda777eb-7081-4011-8852-39bb0d654160,Wynn Private Chef,grocery_store,"['liquor_store', 'shopping']",cc40fb07-9778-4001-b94f-f77fd69eb259,,,,las-vegas,NV,Las Vegas,89103.0,3871 S Valley View Blvd,36.1196267,-115.1904914,meta,2025-06-02T07:00:00.000Z,0.9459263554653524,OpenStreetMap,2023-01-01T21:55:37.000Z,,False
eccee8a5-0eab-4bbc-a60e-7074a5181008,Wynn Hotel & Casino Las Vegas,casino,['hotel'],a6e7ec1b-c477-461d-8cf2-27257687fc59,Four Seasons Hotel Las Vegas,,,las-vegas,NV,Las Vegas,0.0,,36.09109,-115.17524,meta,2025-06-02T07:00:00.000Z,0.3376623376623376,OpenStreetMap,2024-12-18T21:20:56.000Z,,False
4ac44988-adc2-47a6-b6bb-773b8a0bad6d,Wynn - The buffet,buffet_restaurant,"['restaurant', 'fast_food_restaurant']",080cfc4c-0e66-4548-8d70-aa164c193457,The Mirage,commercial,hotel,las-vegas,NV,Las Vegas,0.0,,36.12135,-115.17383,meta,2025-06-02T07:00:00.000Z,0.4929396662387676,OpenStreetMap,2025-05-17T18:27:54.000Z,,False
6f5a30ee-939b-454c-84c2-67ffdaab1948,Wynn Employee Parking Garage,parking,"['campus_building', 'automotive']",3bf318ab-d914-4939-80b5-0d7e84ad1509,Wynn Employee Parking,transportation,parking,las-vegas,NV,Las Vegas,89109.0,3846 Koval Ln,36.1201739,-115.1637759,meta,2025-06-02T07:00:00.000Z,0.9415384615384615,OpenStreetMap,2024-12-05T16:05:33.000Z,,True
db357a18-a3d9-43eb-862a-66da4345d66b,Wynn Encore Employment Center,employment_agencies,['professional_services'],,,,,las-vegas,NV,Las Vegas,89169.0,3720 Howard Hughes Pkwy,36.1220847,-115.156551,meta,2025-06-02T07:00:00.000Z,0.9784508333782836,,,,False
cefe4abf-a6bf-403d-92c4-f486035288f0,Dale Wynn Davidson Ministries,religious_organization,['broadcasting_media_production'],,,,,las-vegas,NV,Las Vegas,89117.0,9030 W Sahara Ave,36.1445,-115.2931,meta,2025-06-02T07:00:00.000Z,0.296943231441048,,,,False
ac622e89-d1be-461f-8063-c5153b2fa984,Elaine Wynn Elementary School,elementary_school,"['education', 'school']",,,,,las-vegas,NV,Las Vegas,89146.0,5655 Edna Ave,36.1366959,-115.2182844,meta,2025-06-02T07:00:00.000Z,0.9784508333782836,,,,False
264b45ce-652b-4695-bc86-6a0c7f339feb,Wynn Signature Shop,clothing_store,"['shoe_store', 'womens_clothing_store']",d2c10c70-20b5-4e84-901d-6e5f1b7cb6bc,,commercial,retail,las-vegas,NV,Las Vegas,0.0,,36.1257639,-115.168284,meta,2025-06-02T07:00:00.000Z,0.4929396662387676,OpenStreetMap,2022-07-22T21:57:54.000Z,,False
d8a6f71f-7e9e-4dd8-b43e-cf912f5d706f,Lafite Ballroom at the Wynn,event_planning,['topic_concert_venue'],722c8442-d22b-48a1-ab05-2ea1dd2dd716,,,,las-vegas,NV,Las Vegas,0.0,,36.1242478,-115.1648551,meta,2025-06-02T07:00:00.000Z,0.5662921348314607,OpenStreetMap,2022-08-12T23:54:29.000Z,,False
4e07f90f-d8b6-4ec5-83ed-632648c19fc3,Bottega Veneta Las Vegas Wynn,leather_goods,"['boutique', 'retail']",,,,,las-vegas,NV,Las Vegas,89109.0,3131 Las Vegas Blvd S Ste 117,36.1256958,-115.1660835,Microsoft,2025-02-10T17:00:00.920Z,0.77,,,,False
27e53f52-b7ec-4697-98e6-d728f0f4e9bd,The Wedding Salons at Wynn Las Vegas,venue_and_event_space,,d2c10c70-20b5-4e84-901d-6e5f1b7cb6bc,,commercial,retail,las-vegas,NV,Las Vegas,89109.0,3131 South Las Vegas Boulevard,36.12576998428756,-115.1657001691556,Microsoft,2025-04-11T12:40:20.393Z,0.77,OpenStreetMap,2022-07-22T21:57:54.000Z,,False
5ee7d880-259c-4fc7-b4bc-cb17eebf623e,The Wynn Resort European Pool,hotel,"['sports_and_recreation_venue', 'accommodation']",,,,,las-vegas,NV,Las Vegas,0.0,,36.1250541,-115.1652072,meta,2025-06-02T07:00:00.000Z,0.5662921348314607,,,,False
d34aed50-f4c3-4450-b34e-b35adec90f8d,Wynn Marguax Room 1,hotel,,722c8442-d22b-48a1-ab05-2ea1dd2dd716,,,,las-vegas,NV,Las Vegas,0.0,,36.1247921,-115.1643241,meta,2025-06-02T07:00:00.000Z,0.3376623376623376,OpenStreetMap,2022-08-12T23:54:29.000Z,,False
c26eac43-13ae-412e-93df-0016d75cd80d,Music Fountain of Wynn,fountain,"['music_venue', 'landmark_and_historical_building']",,,,,las-vegas,NV,Las Vegas,89109.0,3219 S Las Vegas Blvd,36.1258366,-115.1686398,meta,2025-06-02T07:00:00.000Z,0.9784508333782836,,,,False
0b860986-c96f-49f5-8964-9a11567a81bf,Givenchy Wynn,womens_clothing_store,"['clothing_store', 'boutique']",d2c10c70-20b5-4e84-901d-6e5f1b7cb6bc,,commercial,retail,las-vegas,NV,Las Vegas,89109.0,3131 Las Vegas Blvd S,36.1259138,-115.1681681,meta,2025-06-02T07:00:00.000Z,0.9784508333782836,OpenStreetMap,2022-07-22T21:57:54.000Z,,False
9e8beddc-9571-467d-a60a-66bd48db93e7,Waterfall @ Wynn,arts_and_entertainment,"['casino', 'attractions_and_activities']",,,,,las-vegas,NV,Las Vegas,0.0,,36.1263532,-115.1669471,meta,2025-06-02T07:00:00.000Z,0.5662921348314607,,,,False
93cdbf58-c080-4b50-be36-c077a6afabb9,Canada Goose Wynn Las Vegas,mens_clothing_store,"['clothing_store', 'womens_clothing_store']",d2c10c70-20b5-4e84-901d-6e5f1b7cb6bc,,commercial,retail,las-vegas,NV,Las Vegas,89109.0,3131 Las Vegas Blvd S,36.1278036,-115.1671589,meta,2025-06-02T07:00:00.000Z,0.9784508333782836,OpenStreetMap,2022-07-22T21:57:54.000Z,,False
ca023e2c-a712-4c25-b951-0691d9c9a86c,Urth Caffé at Wynn Las Vegas,coffee_shop,"['cafe', 'tea_room']",d2c10c70-20b5-4e84-901d-6e5f1b7cb6bc,,commercial,retail,las-vegas,NV,Las Vegas,89109.0,3131 Las Vegas Blvd S,36.1280513,-115.1672824,meta,2025-06-02T07:00:00.000Z,0.9784508333782836,OpenStreetMap,2022-07-22T21:57:54.000Z,,False
8901189e-e0f1-4a39-b7dc-cbef0c43b320,Diptyque The Wynn,cosmetic_and_beauty_supplies,"['arts_and_crafts', 'boutique']",d2c10c70-20b5-4e84-901d-6e5f1b7cb6bc,,commercial,retail,las-vegas,NV,Las Vegas,89109.0,3131 Las Vegas Blvd S,36.1279811,-115.1671603,meta,2025-06-02T07:00:00.000Z,0.9784508333782836,OpenStreetMap,2022-07-22T21:57:54.000Z,,False
450c389f-960e-465d-a655-336adb5f057f,Wynn Plaza,shopping_center,['shopping'],d2c10c70-20b5-4e84-901d-6e5f1b7cb6bc,,commercial,retail,las-vegas,NV,Las Vegas,89109.0,3131 Las Vegas Blvd S,36.1281731,-115.1670834,meta,2025-06-02T07:00:00.000Z,0.9784508333782836,OpenStreetMap,2022-07-22T21:57:54.000Z,,False
378bbdb7-780d-4e17-81f3-687631630ed1,Wynn Poker Room,casino,['arts_and_entertainment'],d2c10c70-20b5-4e84-901d-6e5f1b7cb6bc,,commercial,retail,las-vegas,NV,Las Vegas,89109.0,3131 Las Vegas Blvd. South,36.128430052882365,-115.16693141322602,Microsoft,2025-04-11T12:40:20.393Z,0.77,OpenStreetMap,2022-07-22T21:57:54.000Z,,False
dd2043f3-44b5-443b-9fd0-483514398522,Wynn's Garden Center,nursery_and_gardening,"['shopping', 'home_improvement_store']",d2c10c70-20b5-4e84-901d-6e5f1b7cb6bc,,commercial,retail,las-vegas,NV,Las Vegas,35204.0,317 22nd Ave W,36.1259671,-115.1665656,meta,2025-06-02T07:00:00.000Z,0.5662921348314607,OpenStreetMap,2022-07-22T21:57:54.000Z,,False
c396c1cb-7989-4bfa-9beb-8bda8f1b889f,The S W Steakhouse at the Wynn,steakhouse,"['restaurant', 'fast_food_restaurant']",c84320bf-d0dd-40b0-83b7-8db2b94e561b,,civic,public,las-vegas,,,89109.0,Las Vegas Blvd S,36.12622,-115.166728,meta,2025-06-02T07:00:00.000Z,0.7548172757475083,OpenStreetMap,2019-06-13T04:59:41.000Z,,False
c396c1cb-7989-4bfa-9beb-8bda8f1b889f,The S W Steakhouse at the Wynn,steakhouse,"['restaurant', 'fast_food_restaurant']",d2c10c70-20b5-4e84-901d-6e5f1b7cb6bc,,commercial,retail,las-vegas,,,89109.0,Las Vegas Blvd S,36.12622,-115.166728,meta,2025-06-02T07:00:00.000Z,0.7548172757475083,OpenStreetMap,2022-07-22T21:57:54.000Z,,False
cf26f23b-9a29-46b2-ad76-5447178e5d89,Parasol Down at Wynn Las Vegas,lounge,"['bar', 'cocktail_bar']",d2c10c70-20b5-4e84-901d-6e5f1b7cb6bc,,commercial,retail,las-vegas,NV,Las Vegas,89109.0,3131 Las Vegas Blvd S,36.1263521,-115.166887,meta,2025-06-02T07:00:00.000Z,0.7548172757475083,OpenStreetMap,2022-07-22T21:57:54.000Z,,False
16222702-b81c-4e25-b5ce-9e9f386f45d3,"Wynn Casino, Las Vegas Strip",casino,"['arts_and_entertainment', 'travel']",d2c10c70-20b5-4e84-901d-6e5f1b7cb6bc,,commercial,retail,las-vegas,NV,Las Vegas,0.0,,36.1264605,-115.1663598,meta,2025-06-02T07:00:00.000Z,0.4929396662387676,OpenStreetMap,2022-07-22T21:57:54.000Z,,False
31d4f4d5-582d-42e2-b4b1-d6d235035e5d,Red 8 at Wynn Las Vegas,asian_restaurant,"['chinese_restaurant', 'dim_sum_restaurant']",d2c10c70-20b5-4e84-901d-6e5f1b7cb6bc,,commercial,retail,las-vegas,NV,Las Vegas,89109.0,3131 Las Vegas Blvd S,36.1258413,-115.1659224,meta,2025-06-02T07:00:00.000Z,0.7548172757475083,OpenStreetMap,2022-07-22T21:57:54.000Z,,False
8a3000a2-ebab-48af-a524-6c3b56ebfeac,Tower suites VIP Pool Wynn Hotel,hotel,"['swimming_pool', 'active_life']",d2c10c70-20b5-4e84-901d-6e5f1b7cb6bc,,commercial,retail,las-vegas,NV,Las Vegas,89109.0,3131 Las Vegas Blvd S,36.125842,-115.165571,meta,2025-06-02T07:00:00.000Z,0.7548172757475083,OpenStreetMap,2022-07-22T21:57:54.000Z,,False
8a3000a2-ebab-48af-a524-6c3b56ebfeac,Tower suites VIP Pool Wynn Hotel,hotel,"['swimming_pool', 'active_life']",15c05719-cb4c-4c6f-92f1-83cd52b0bda7,Wynn Las Vegas,commercial,commercial,las-vegas,NV,Las Vegas,89109.0,3131 Las Vegas Blvd S,36.125842,-115.165571,meta,2025-06-02T07:00:00.000Z,0.7548172757475083,OpenStreetMap,2023-11-26T23:52:07.000Z,,False
eba2c0e3-0e80-4718-b008-ab3c00958e3e,Wynn Executive Vip Suite,hotel,"['casino', 'bar']",d2c10c70-20b5-4e84-901d-6e5f1b7cb6bc,,commercial,retail,las-vegas,NV,Las Vegas,89109.0,3131 Las Vegas Blvd S,36.1265337,-115.1656229,meta,2025-06-02T07:00:00.000Z,0.5662921348314607,OpenStreetMap,2022-07-22T21:57:54.000Z,,False
de920451-996e-4c7c-a0d1-2be1e15f8e25,Wynn Sports Lounge,bar,"['lounge', 'race_track']",d2c10c70-20b5-4e84-901d-6e5f1b7cb6bc,,commercial,retail,las-vegas,NV,Las Vegas,0.0,,36.1266258,-115.1656183,meta,2025-06-02T07:00:00.000Z,0.3376623376623376,OpenStreetMap,2022-07-22T21:57:54.000Z,,False
d70b0715-cbf5-4a2c-aa5d-8b07f4c8c9df,Wynn Race and Sports Book,casino,"['shopping', 'hotel']",d2c10c70-20b5-4e84-901d-6e5f1b7cb6bc,,commercial,retail,las-vegas,NV,Las Vegas,89109.0,3131 Las Vegas Blvd S,36.1268272,-115.1661052,meta,2025-06-02T07:00:00.000Z,0.9415384615384615,OpenStreetMap,2022-07-22T21:57:54.000Z,,False
2ffc8e3d-9fff-4384-aaf8-152cc44097a2,Wynn Golf Club,active_life,['travel'],d2c10c70-20b5-4e84-901d-6e5f1b7cb6bc,,commercial,retail,las-vegas,NV,Las Vegas,89109.0,3131 Las Vegas Blvd S,36.12683,-115.16562,meta,2025-06-02T07:00:00.000Z,0.7548172757475083,OpenStreetMap,2022-07-22T21:57:54.000Z,,False
2ffc8e3d-9fff-4384-aaf8-152cc44097a2,Wynn Golf Club,active_life,['travel'],15c05719-cb4c-4c6f-92f1-83cd52b0bda7,Wynn Las Vegas,commercial,commercial,las-vegas,NV,Las Vegas,89109.0,3131 Las Vegas Blvd S,36.12683,-115.16562,meta,2025-06-02T07:00:00.000Z,0.7548172757475083,OpenStreetMap,2023-11-26T23:52:07.000Z,,False
3adda93d-26c5-488e-aa74-aba3327e7ffe,Wynn Theater at Wynn Las Vegas,arts_and_entertainment,"['hotel', 'theatre']",d2c10c70-20b5-4e84-901d-6e5f1b7cb6bc,,commercial,retail,las-vegas,NV,Las Vegas,89109.0,3131 Las Vegas Blvd S,36.12683,-115.16562,meta,2025-06-02T07:00:00.000Z,0.5662921348314607,OpenStreetMap,2022-07-22T21:57:54.000Z,,False
3adda93d-26c5-488e-aa74-aba3327e7ffe,Wynn Theater at Wynn Las Vegas,arts_and_entertainment,"['hotel', 'theatre']",15c05719-cb4c-4c6f-92f1-83cd52b0bda7,Wynn Las Vegas,commercial,commercial,las-vegas,NV,Las Vegas,89109.0,3131 Las Vegas Blvd S,36.12683,-115.16562,meta,2025-06-02T07:00:00.000Z,0.5662921348314607,OpenStreetMap,2023-11-26T23:52:07.000Z,,False
c79ec66d-d96c-4168-b48f-a8ac9f2c78df,Wynn Esplanade Fountain,casino,"['landmark_and_historical_building', 'hotel']",d2c10c70-20b5-4e84-901d-6e5f1b7cb6bc,,commercial,retail,las-vegas,NV,Las Vegas,89109.0,3131 Las Vegas Blvd S,36.12683,-115.16562,meta,2025-06-02T07:00:00.000Z,0.3961437335670464,OpenStreetMap,2022-07-22T21:57:54.000Z,,False
c79ec66d-d96c-4168-b48f-a8ac9f2c78df,Wynn Esplanade Fountain,casino,"['landmark_and_historical_building', 'hotel']",15c05719-cb4c-4c6f-92f1-83cd52b0bda7,Wynn Las Vegas,commercial,commercial,las-vegas,NV,Las Vegas,89109.0,3131 Las Vegas Blvd S,36.12683,-115.16562,meta,2025-06-02T07:00:00.000Z,0.3961437335670464,OpenStreetMap,2023-11-26T23:52:07.000Z,,False
730aa3db-0d5b-448d-90ad-cbf44435fd80,The Tower Suites at Wynn,hotel,"['casino', 'travel']",d2c10c70-20b5-4e84-901d-6e5f1b7cb6bc,,commercial,retail,las-vegas,NV,Las Vegas,0.0,,36.1259017,-115.1655162,meta,2025-06-02T07:00:00.000Z,0.5662921348314607,OpenStreetMap,2022-07-22T21:57:54.000Z,,False
730aa3db-0d5b-448d-90ad-cbf44435fd80,The Tower Suites at Wynn,hotel,"['casino', 'travel']",15c05719-cb4c-4c6f-92f1-83cd52b0bda7,Wynn Las Vegas,commercial,commercial,las-vegas,NV,Las Vegas,0.0,,36.1259017,-115.1655162,meta,2025-06-02T07:00:00.000Z,0.5662921348314607,OpenStreetMap,2023-11-26T23:52:07.000Z,,False
3a5d6695-7741-40ae-b980-081edd711846,Safta at Wynn Las Vegas,restaurant,,d2c10c70-20b5-4e84-901d-6e5f1b7cb6bc,,commercial,retail,las-vegas,NV,Las Vegas,89109.0,3131 Las Vegas Blvd S,36.1262,-115.16527,meta,2025-06-02T07:00:00.000Z,0.5662921348314607,OpenStreetMap,2022-07-22T21:57:54.000Z,,False
3a5d6695-7741-40ae-b980-081edd711846,Safta at Wynn Las Vegas,restaurant,,15c05719-cb4c-4c6f-92f1-83cd52b0bda7,Wynn Las Vegas,commercial,commercial,las-vegas,NV,Las Vegas,89109.0,3131 Las Vegas Blvd S,36.1262,-115.16527,meta,2025-06-02T07:00:00.000Z,0.5662921348314607,OpenStreetMap,2023-11-26T23:52:07.000Z,,False
f265210a-81d2-4ffb-9da9-e402dc485b5f,Wynn at Home,hotel,['casino'],d2c10c70-20b5-4e84-901d-6e5f1b7cb6bc,,commercial,retail,las-vegas,NV,Las Vegas,89109.0,3131 Las Vegas Blvd S,36.1262,-115.16527,meta,2025-06-02T07:00:00.000Z,0.7548172757475083,OpenStreetMap,2022-07-22T21:57:54.000Z,,False
f265210a-81d2-4ffb-9da9-e402dc485b5f,Wynn at Home,hotel,['casino'],15c05719-cb4c-4c6f-92f1-83cd52b0bda7,Wynn Las Vegas,commercial,commercial,las-vegas,NV,Las Vegas,89109.0,3131 Las Vegas Blvd S,36.1262,-115.16527,meta,2025-06-02T07:00:00.000Z,0.7548172757475083,OpenStreetMap,2023-11-26T23:52:07.000Z,,False
94bc6b7d-83e5-4843-b6c2-ced61f36a502,Spa and Salon At the Wynn Las Vegas,beauty_salon,['spas'],d2c10c70-20b5-4e84-901d-6e5f1b7cb6bc,,commercial,retail,las-vegas,NV,Las Vegas,89115.0,3131 N Las Vegas Blvd,36.1263006,-115.1653254,meta,2025-06-02T07:00:00.000Z,0.5662921348314607,OpenStreetMap,2022-07-22T21:57:54.000Z,,False
94bc6b7d-83e5-4843-b6c2-ced61f36a502,Spa and Salon At the Wynn Las Vegas,beauty_salon,['spas'],15c05719-cb4c-4c6f-92f1-83cd52b0bda7,Wynn Las Vegas,commercial,commercial,las-vegas,NV,Las Vegas,89115.0,3131 N Las Vegas Blvd,36.1263006,-115.1653254,meta,2025-06-02T07:00:00.000Z,0.5662921348314607,OpenStreetMap,2023-11-26T23:52:07.000Z,,False
3d3b014f-c80e-4f3a-b4e7-6a6ee2bbe0d6,Fitness Center at Wynn Las Vegas,gym,"['accommodation', 'active_life']",d2c10c70-20b5-4e84-901d-6e5f1b7cb6bc,,commercial,retail,las-vegas,NV,Las Vegas,89109.0,Platinum Hotel,36.126503,-115.165511,meta,2025-06-02T07:00:00.000Z,0.7548172757475083,OpenStreetMap,2022-07-22T21:57:54.000Z,,False
3d3b014f-c80e-4f3a-b4e7-6a6ee2bbe0d6,Fitness Center at Wynn Las Vegas,gym,"['accommodation', 'active_life']",15c05719-cb4c-4c6f-92f1-83cd52b0bda7,Wynn Las Vegas,commercial,commercial,las-vegas,NV,Las Vegas,89109.0,Platinum Hotel,36.126503,-115.165511,meta,2025-06-02T07:00:00.000Z,0.7548172757475083,OpenStreetMap,2023-11-26T23:52:07.000Z,,False
11186e3a-98c5-418a-bf36-cd7388a685a7,Wynn Nightlife,dance_club,"['bar', 'arts_and_entertainment']",d2c10c70-20b5-4e84-901d-6e5f1b7cb6bc,,commercial,retail,las-vegas,NV,Las Vegas,89109.0,3131 Las Vegas Blvd S,36.126589,-115.165385,meta,2025-06-02T07:00:00.000Z,0.8384615384615385,OpenStreetMap,2022-07-22T21:57:54.000Z,,False
11186e3a-98c5-418a-bf36-cd7388a685a7,Wynn Nightlife,dance_club,"['bar', 'arts_and_entertainment']",15c05719-cb4c-4c6f-92f1-83cd52b0bda7,Wynn Las Vegas,commercial,commercial,las-vegas,NV,Las Vegas,89109.0,3131 Las Vegas Blvd S,36.126589,-115.165385,meta,2025-06-02T07:00:00.000Z,0.8384615384615385,OpenStreetMap,2023-11-26T23:52:07.000Z,,False
9f30bd3b-a89f-4015-96b6-e0fedbcd8da8,The Salon at Wynn Las Vegas,hair_salon,"['spas', 'beauty_and_spa']",d2c10c70-20b5-4e84-901d-6e5f1b7cb6bc,,commercial,retail,las-vegas,NV,Las Vegas,89109.0,3131 Las Vegas Blvd S,36.1267302,-115.1653472,meta,2025-06-02T07:00:00.000Z,0.9784508333782836,OpenStreetMap,2022-07-22T21:57:54.000Z,,False
9f30bd3b-a89f-4015-96b6-e0fedbcd8da8,The Salon at Wynn Las Vegas,hair_salon,"['spas', 'beauty_and_spa']",15c05719-cb4c-4c6f-92f1-83cd52b0bda7,Wynn Las Vegas,commercial,commercial,las-vegas,NV,Las Vegas,89109.0,3131 Las Vegas Blvd S,36.1267302,-115.1653472,meta,2025-06-02T07:00:00.000Z,0.9784508333782836,OpenStreetMap,2023-11-26T23:52:07.000Z,,False
feaff03e-347b-4b0d-a46b-60e133adef6a,Wynn Buffet Las Vegas,buffet_restaurant,"['restaurant', 'fast_food_restaurant']",d2c10c70-20b5-4e84-901d-6e5f1b7cb6bc,,commercial,retail,las-vegas,NV,Las Vegas,0.0,,36.1266879,-115.1651411,meta,2025-06-02T07:00:00.000Z,0.4929396662387676,OpenStreetMap,2022-07-22T21:57:54.000Z,,False
97d670bb-de55-47bb-a805-2402ba419aad,Wynn Rewards,casino,"['hotel', 'travel']",d2c10c70-20b5-4e84-901d-6e5f1b7cb6bc,,commercial,retail,las-vegas,NV,Las Vegas,89109.0,3131 Las Vegas Blvd S,36.1267628,-115.1651098,meta,2025-06-02T07:00:00.000Z,0.5662921348314607,OpenStreetMap,2022-07-22T21:57:54.000Z,,False
d553bbd0-86f0-49db-913d-f4e4c61dc572,The Buffet At Wynn,buffet_restaurant,"['restaurant', 'american_restaurant']",d2c10c70-20b5-4e84-901d-6e5f1b7cb6bc,,commercial,retail,las-vegas,NV,Las Vegas,89109.0,3131 Las Vegas Blvd S,36.126795,-115.1649427,meta,2025-06-02T07:00:00.000Z,0.9784508333782836,OpenStreetMap,2022-07-22T21:57:54.000Z,,False
13d20306-0cb4-4c22-b823-4eba01c349c4,Wynn Fairway Villa,hotel,"['travel', 'motel']",d2c10c70-20b5-4e84-901d-6e5f1b7cb6bc,,commercial,retail,las-vegas,NV,Las Vegas,89109.0,3131 Las Vegas Blvd S,36.126878,-115.165265,meta,2025-06-02T07:00:00.000Z,0.7548172757475083,OpenStreetMap,2022-07-22T21:57:54.000Z,,False
e4e2fc57-edeb-45c1-a1a1-1c17f11a6042,"Encore Showroom, Encore At the Wynn",theatre,"['music_venue', 'topic_concert_venue']",d2c10c70-20b5-4e84-901d-6e5f1b7cb6bc,,commercial,retail,las-vegas,NV,Las Vegas,0.0,,36.1268481,-115.1645809,meta,2025-06-02T07:00:00.000Z,0.4929396662387676,OpenStreetMap,2022-07-22T21:57:54.000Z,,False
2940d4e1-5025-40d1-8c7a-807187446064,Wynn Collection,womens_clothing_store,"['clothing_store', 'museum', 'art_gallery', 'retail']",d2c10c70-20b5-4e84-901d-6e5f1b7cb6bc,,commercial,retail,las-vegas,NV,Las Vegas,89109.0,3131 Las Vegas Blvd S,36.1270728,-115.1645406,Microsoft,2021-05-19T21:17:47.693Z,0.77,OpenStreetMap,2022-07-22T21:57:54.000Z,,False
2940d4e1-5025-40d1-8c7a-807187446064,Wynn Collection,womens_clothing_store,"['clothing_store', 'museum', 'art_gallery', 'retail']",ccf87370-dfd1-401c-b08e-c2ecb23464d5,Encore Beach Club,entertainment,,las-vegas,NV,Las Vegas,89109.0,3131 Las Vegas Blvd S,36.1270728,-115.1645406,Microsoft,2021-05-19T21:17:47.693Z,0.77,OpenStreetMap,2025-04-20T00:30:34.000Z,,False
663c0ca4-02b9-485e-9984-96b8d56d5bf5,The Pool at Wynn,swimming_pool,"['hotel', 'pool_cleaning']",d2c10c70-20b5-4e84-901d-6e5f1b7cb6bc,,commercial,retail,las-vegas,NV,Las Vegas,89109.0,3131 Las Vegas Blvd S,36.12744,-115.1660974,meta,2025-06-02T07:00:00.000Z,0.9297091412742382,OpenStreetMap,2022-07-22T21:57:54.000Z,,False
f4166d6e-107f-4050-afa8-d0b8bfe76c98,Drugstore Cafe at Wynn Las Vegas,cafe,"['american_restaurant', 'restaurant']",d2c10c70-20b5-4e84-901d-6e5f1b7cb6bc,,commercial,retail,las-vegas,NV,Las Vegas,89109.0,3131 Las Vegas Blvd S,36.1272244,-115.1655659,meta,2025-06-02T07:00:00.000Z,0.9784508333782836,OpenStreetMap,2022-07-22T21:57:54.000Z,,False
f4166d6e-107f-4050-afa8-d0b8bfe76c98,Drugstore Cafe at Wynn Las Vegas,cafe,"['american_restaurant', 'restaurant']",15c05719-cb4c-4c6f-92f1-83cd52b0bda7,Wynn Las Vegas,commercial,commercial,las-vegas,NV,Las Vegas,89109.0,3131 Las Vegas Blvd S,36.1272244,-115.1655659,meta,2025-06-02T07:00:00.000Z,0.9784508333782836,OpenStreetMap,2023-11-26T23:52:07.000Z,,False
93dafb35-cae0-4ab4-9dcd-a8c9cf0d41e0,Wynn Las Vegas Poker Room,casino,"['hotel', 'arts_and_entertainment']",d2c10c70-20b5-4e84-901d-6e5f1b7cb6bc,,commercial,retail,las-vegas,NV,Las Vegas,89109.0,3131 Las Vegas Blvd S,36.1284935,-115.1667321,meta,2025-06-02T07:00:00.000Z,0.9784508333782836,OpenStreetMap,2022-07-22T21:57:54.000Z,,False
93dafb35-cae0-4ab4-9dcd-a8c9cf0d41e0,Wynn Las Vegas Poker Room,casino,"['hotel', 'arts_and_entertainment']",d2cb89de-927b-4acb-a765-23e685830d13,,transportation,parking,las-vegas,NV,Las Vegas,89109.0,3131 Las Vegas Blvd S,36.1284935,-115.1667321,meta,2025-06-02T07:00:00.000Z,0.9784508333782836,OpenStreetMap,2024-02-13T07:06:11.000Z,,False
1d84b625-07e0-44d9-83c4-11d1224e6782,Van Cleef & Arpels (Las Vegas - Wynn),jewelry_store,['jewelry_and_watches_manufacturer'],d2c10c70-20b5-4e84-901d-6e5f1b7cb6bc,,commercial,retail,las-vegas,NV,Las Vegas,89109.0,3131 Las Vegas Blvd S,36.1274645,-115.1651353,meta,2025-06-02T07:00:00.000Z,0.9784508333782836,OpenStreetMap,2022-07-22T21:57:54.000Z,,False
4d17a757-c0e5-41ed-9249-e8d5d9e76fec,Awakening at Wynn Las Vegas,theatre,['active_life'],d2c10c70-20b5-4e84-901d-6e5f1b7cb6bc,,commercial,retail,las-vegas,NV,Las Vegas,89109.0,3131 S Las Vegas Blvd,36.1275402,-115.1650864,meta,2025-06-02T07:00:00.000Z,0.672566371681416,OpenStreetMap,2022-07-22T21:57:54.000Z,,False
c25a8c6a-7761-4b73-9bb7-3ef6b9fe8a92,Boutique Jaeger-LeCoultre Wynn Las Vegas,jewelry_store,"['clothing_store', 'shopping']",ccf87370-dfd1-401c-b08e-c2ecb23464d5,Encore Beach Club,entertainment,,las-vegas,NV,Las Vegas,89109.0,3121 Las Vegas Blvd S,36.128364,-115.165183,meta,2025-06-02T07:00:00.000Z,0.3961437335670464,OpenStreetMap,2025-04-20T00:30:34.000Z,,False
3d952e29-607a-4c04-8d08-2991b9b28eb5,Xs Club in Wynn Las Vegas Hotel,hotel,"['dance_club', 'casino']",ccf87370-dfd1-401c-b08e-c2ecb23464d5,Encore Beach Club,entertainment,,las-vegas,NV,Las Vegas,89109.0,3131 Las Vegas Blvd S,36.1284774,-115.1646352,meta,2025-06-02T07:00:00.000Z,0.5662921348314607,OpenStreetMap,2025-04-20T00:30:34.000Z,,False
3d952e29-607a-4c04-8d08-2991b9b28eb5,Xs Club in Wynn Las Vegas Hotel,hotel,"['dance_club', 'casino']",8e3bf78d-286b-4787-a0be-6b3f13133f7b,XS Nightclub,commercial,commercial,las-vegas,NV,Las Vegas,89109.0,3131 Las Vegas Blvd S,36.1284774,-115.1646352,meta,2025-06-02T07:00:00.000Z,0.5662921348314607,OpenStreetMap,2019-02-23T00:43:09.000Z,,False
bca4e24d-c785-4463-9ddb-d9a1e047f06d,Wynn Cristal Ballroom,hotel,,d0253ab6-93d8-40d3-8e11-e07768a2be60,,,,las-vegas,NV,Las Vegas,0.0,,36.1234523,-115.163186,meta,2025-06-02T07:00:00.000Z,0.4929396662387676,OpenStreetMap,2022-08-13T00:04:38.000Z,,False
2bde7461-dccf-4267-87fb-cf02b68c4d43,Wynn South Convention Center,event_planning,,d0253ab6-93d8-40d3-8e11-e07768a2be60,,,,las-vegas,NV,Las Vegas,0.0,,36.1239789,-115.1637963,meta,2025-06-02T07:00:00.000Z,0.4929396662387676,OpenStreetMap,2022-08-13T00:04:38.000Z,,True
909d5d09-8a15-44d6-a76f-20ecd7c82f56,Wynn Golf Club,active_life,['sports_club_and_league'],,,,,las-vegas,,,89109.0,3131 Las Vegas Blvd S,36.1257576,-115.1591902,meta,2025-06-02T07:00:00.000Z,0.9415384615384615,,,,False
f245eec5-35a2-4d24-8bbd-b4e23819ce70,Pro Shop at Wynn Golf Club,golf_equipment,"['clothing_store', 'golf_club', 'resort', 'golf_course', 'active_life', 'retail']",722c8442-d22b-48a1-ab05-2ea1dd2dd716,,,,las-vegas,NV,Las Vegas,89109.0,3131 Las Vegas Blvd N,36.12654202181368,-115.16351617245483,Microsoft,2025-03-24T22:38:11.760Z,0.77,OpenStreetMap,2022-08-12T23:54:29.000Z,,False
908549e5-1935-4d90-9f30-f4923136d538,Wynn Las Vegas Golf Course,active_life,['shopping'],722c8442-d22b-48a1-ab05-2ea1dd2dd716,,,,las-vegas,NV,Las Vegas,0.0,,36.1265942,-115.163507,meta,2025-06-02T07:00:00.000Z,0.5662921348314607,OpenStreetMap,2022-08-12T23:54:29.000Z,,False
c9c6a088-2c06-4582-8200-3c9a6b2c1305,Wynn Las Vegas,casino,,,,,,las-vegas,,,89109.0,3131 Las Vegas Blvd S,36.12614,-115.161964,meta,2025-06-02T07:00:00.000Z,0.8860580325548478,,,,False
912ca772-58c4-41e7-91cd-a1766f63e037,Wynn Fitness Center,gym,"['active_life', 'spas']",ccf87370-dfd1-401c-b08e-c2ecb23464d5,Encore Beach Club,entertainment,,las-vegas,NV,Las Vegas,89109.0,3131 Las Vegas Blvd S,36.1291994,-115.1651094,meta,2025-06-02T07:00:00.000Z,0.7548172757475083,OpenStreetMap,2025-04-20T00:30:34.000Z,,False
cfb9891b-4fc9-47e8-8536-ceda7b6011ac,CHANEL WATCHES & FINE JEWELRY - WYNN,jewelry_store,['retail'],ccf87370-dfd1-401c-b08e-c2ecb23464d5,Encore Beach Club,entertainment,,las-vegas,NV,Las Vegas,89109.0,"3121 Las Vegas Boulevard South, Wynn Hotel",36.12932174218381,-115.1651900420158,Microsoft,2025-01-24T18:53:16.473Z,0.77,OpenStreetMap,2025-04-20T00:30:34.000Z,,False
c0756059-6027-468f-a7c4-2b0413228ac5,AMIRI - The Shops at Wynn and Encore,boutique,,ccf87370-dfd1-401c-b08e-c2ecb23464d5,Encore Beach Club,entertainment,,las-vegas,NV,Las Vegas,89109.0,3121 Las Vegas Blvd S,36.1299066,-115.1653543,meta,2025-06-02T07:00:00.000Z,0.9415384615384615,OpenStreetMap,2025-04-20T00:30:34.000Z,,False
c0756059-6027-468f-a7c4-2b0413228ac5,AMIRI - The Shops at Wynn and Encore,boutique,,516e1050-eae0-48b8-9a92-1925ae88d03e,Encore Las Vegas,commercial,commercial,las-vegas,NV,Las Vegas,89109.0,3121 Las Vegas Blvd S,36.1299066,-115.1653543,meta,2025-06-02T07:00:00.000Z,0.9415384615384615,OpenStreetMap,2023-11-26T23:52:07.000Z,,False
babf734c-bb1f-4e8a-ae61-748d77737f1f,Wynn Encore Hotel,hotel,,03f62ca7-f0c5-4aa9-9e20-0cb30c3019a2,McDonald's,commercial,,las-vegas,NV,Las Vegas,0.0,,36.13569,-115.16339,meta,2025-06-02T07:00:00.000Z,0.3376623376623376,OpenStreetMap,2024-05-09T11:59:39.000Z,,False
b4705133-9d66-4ee7-8458-9d54c6a30420,Wynn & Encore Hotel and Casino,hotel,"['casino', 'travel']",,,,,las-vegas,NV,Las Vegas,0.0,,36.1355048,-115.155294,meta,2025-06-02T07:00:00.000Z,0.4929396662387676,,,,False
c9c68492-33f1-406b-a92c-c4bf56a0e334,Wynn Encore,hotel,"['fast_food_restaurant', 'accommodation']",b86db89f-6c01-4a43-b074-d62f9eb11277,,,,las-vegas,,,89101.0,,36.171611,-115.1389426,meta,2025-06-02T07:00:00.000Z,0.242152466367713,OpenStreetMap,2013-02-25T17:38:52.000Z,,False
f82aa0ee-c6f1-41a0-ac83-4586867eb044,Wynn Las Vegas CASİNO,casino,,,,,,las-vegas,NV,Las Vegas,0.0,,36.19482,-115.16785,meta,2025-06-02T07:00:00.000Z,0.296943231441048,,,,False
3198a5e0-7333-4461-a3e7-407be591f9ca,Wynn and Encore Hotel and Casino,hotel,"['casino', 'arts_and_entertainment']",,,,,las-vegas,NV,Las Vegas,0.0,,36.1001028,-115.0592451,meta,2025-06-02T07:00:00.000Z,0.3376623376623376,,,,False
5a8e1c0f-63dd-43af-91c6-674c62c9c4f1,Wynn Realty Group,real_estate_agent,"['real_estate', 'property_management']",,,,,las-vegas,NV,Las Vegas,89130.0,7495 Azure Rd,36.2743224,-115.259506,meta,2025-06-02T07:00:00.000Z,0.9300613496932516,,,,False
f91ea04c-eaca-4f0b-83ea-e67c229bce82,The Law Office of Nikole M. Wynn,lawyer,"['criminal_defense_law', 'wills_trusts_and_probate']",3655f2c4-dc40-4ff0-a19f-022089525bdd,Key Center,,,buffalo,NY,Buffalo,14202.0,50 Fountain Plz,42.8898768,-78.87399,meta,2025-06-02T07:00:00.000Z,0.9297091412742382,OpenStreetMap,2022-06-14T16:50:00.000Z,,True
d308a1d8-2daf-4355-98bf-9743dc858c18,Gold Wynn,property_management,['professional_services'],c101e402-0595-4ee7-939f-b17bbbcb2856,,,,buffalo,NY,Buffalo,14209.0,11 Summer St,42.9050494,-78.86887,meta,2025-06-02T07:00:00.000Z,0.9459263554653524,OpenStreetMap,2024-01-06T22:36:46.000Z,,False
2e535f33-d904-4c66-8c49-e9676a272343,Kalin Wynn- State Farm Agent,insurance_agency,,60e11614-2e0d-4ece-bd6b-55e3d5eaff2f,,,,baltimore,MD,Towson,21286.0,101 E Chesapeake Ave,39.3994288,-76.6010298,meta,2025-06-02T07:00:00.000Z,0.9688311688311688,OpenStreetMap,2013-09-24T16:57:46.000Z,,False
428195aa-4c8d-412c-8f08-e85aa43cc33e,Stacey Wynn - State Farm Insurance Agent,auto_insurance,['home_and_rental_insurance'],60e11614-2e0d-4ece-bd6b-55e3d5eaff2f,,,,baltimore,MD,Towson,21286.0,101 E Chesapeake Ave Ste 101,39.399426,-76.601022,Microsoft,2023-10-30T15:28:21.990Z,0.77,OpenStreetMap,2013-09-24T16:57:46.000Z,,False
fac65486-205a-46fa-b8ff-0c83017e6e36,Wynn Roberts - Realtor,real_estate_agent,['real_estate'],ae7122e8-12ab-4cc3-805b-3fb0e95588c3,,,,albuquerque,NM,Albuquerque,87111.0,10400 Academy Rd NE,35.1536,-106.52354,meta,2025-06-02T07:00:00.000Z,0.242152466367713,OpenStreetMap,2021-07-05T14:57:10.000Z,,False
d93d27d6-bf39-46cb-b91e-b4a3d57b7b2a,Jackie Wynn,real_estate_agent,"['real_estate', 'installment_loans']",bb4ff288-02f1-496f-9a5d-3c59074604c4,,,,washington-dc,VA,Leesburg,20176.0,107 N King St,39.1170434,-77.563864,meta,2025-06-02T07:00:00.000Z,0.9300613496932516,OpenStreetMap,2022-09-15T07:09:10.000Z,,False
018f418d-9db5-47d7-afb9-7258930acd54,Wynn Medi Spa,beauty_salon,"['spas', 'naturopathic_holistic']",36b0037a-b34e-4eb9-8e8d-bb6f6affbe4e,,residential,residential,washington-dc,VA,Fairfax,22032.0,10519 Braddock Rd,38.8244947,-77.3131233,meta,2025-06-02T07:00:00.000Z,0.9784508333782836,OpenStreetMap,2022-09-13T21:20:00.000Z,,False
211ab47c-0d1d-48d0-aa7f-42f5151f4044,Wynn Family Medicine,family_practice,"['health_and_medical', 'medical_service_organizations']",74621c7e-daac-4ede-b9f6-222bea6f3f05,,,,washington-dc,VA,Fairfax,22031.0,8316 Arlington Blvd,38.8666099,-77.2324077,meta,2025-06-02T07:00:00.000Z,0.9784508333782836,OpenStreetMap,2013-09-17T05:39:48.000Z,,False
f1aa643e-b828-45f0-ab91-ba1859e62c4f,Wynn Dental Wellness,dentist,"['professional_services', 'orthodontist']",10c8505e-6bb7-4f42-86e5-d2f948f2799a,,,,washington-dc,MD,Greenbelt,20770.0,7501 Greenway Center Dr,38.9902679,-76.88008,meta,2025-06-02T07:00:00.000Z,0.9688311688311688,OpenStreetMap,2021-05-23T23:55:11.000Z,,False
fde7c598-ccb0-4869-8d58-b4bb0a7ba63a,Wynn Steven R DDS,cosmetic_dentist,"['orthodontist', 'dentist', 'health_and_medical']",,,,,mission-viejo,CA,Newport Beach,92660.0,1901 Westcliff Dr Ste 1,33.6272,-117.907013,Microsoft,2013-06-12T17:24:57.163Z,0.77,,,,False
a89ee2c8-4aab-4144-a08d-4b774de07c7b,Wynn Printing Co.,commercial_printer,,6acd757d-d20d-48ee-9b2c-39002185901f,,,,mission-viejo,CA,Santa Ana,92704.0,3031 S Shannon St,33.7063369750977,-117.922798156738,Microsoft,2013-01-28T00:59:57.530Z,0.77,OpenStreetMap,2023-12-28T21:57:28.000Z,,True
04af1038-83a2-485c-954a-55da9cdb2bb9,Wynn Tax Solutions,trusts,['professional_services'],4d5f304f-4ff3-4ea0-91cc-43bf64369a61,,commercial,commercial,mission-viejo,CA,Irvine,92614.0,17802 Skypark Cir,33.6906944,-117.8556112,meta,2025-06-02T07:00:00.000Z,0.909823677581864,OpenStreetMap,2023-12-21T21:03:46.000Z,,False
3147e60e-ec61-4d07-ae73-bb465eb119e1,Wynn Nail and Spa,nail_salon,"['spas', 'beauty_salon']",19f613e7-dc5d-4418-b406-f1bd396d1edc,,commercial,retail,mission-viejo,CA,Irvine,92606.0,92 Corporate Park,33.6926678,-117.8271279,meta,2025-06-02T07:00:00.000Z,0.9784508333782836,OpenStreetMap,2023-02-01T19:50:37.000Z,,False
5312b0d3-b54d-43dd-b1e5-7cd4cd3752fa,Tracy Wynn - Realtor,real_estate,"['real_estate_agent', 'shopping_center']",321fbe3d-d0af-4c3d-be14-ff5a00c27557,McDonald's,commercial,,mission-viejo,CA,Laguna Niguel,92677.0,30251 Golden Lantern,33.5233445,-117.686003,meta,2025-06-02T07:00:00.000Z,0.242152466367713,OpenStreetMap,2024-05-31T14:04:39.000Z,,False
96f1db7e-ad4c-4ea2-89a9-d7b606a930b8,Pho Wynn,vietnamese_restaurant,['sandwich_shop'],de517cd1-4996-4ef3-944b-a0ffbf3203e5,Pho Wynn,commercial,,visalia,CA,Visalia,93277.0,2737 S Mooney Blvd,36.3060487,-119.3152244,meta,2025-06-02T07:00:00.000Z,0.9784508333782836,OpenStreetMap,2024-06-26T17:26:53.000Z,,False
96f1db7e-ad4c-4ea2-89a9-d7b606a930b8,Pho Wynn,vietnamese_restaurant,['sandwich_shop'],a4feed8d-5943-42a4-b71a-41c7aea2bd20,Red's Furniture,,,visalia,CA,Visalia,93277.0,2737 S Mooney Blvd,36.3060487,-119.3152244,meta,2025-06-02T07:00:00.000Z,0.9784508333782836,OpenStreetMap,2024-06-26T17:26:53.000Z,,False
05cdade5-097d-4dfc-a5e5-0020ecfb5043,Wynn Nails,nail_salon,"['beauty_and_spa', 'beauty_salon']",34d94722-64e3-4172-9ceb-f47375512b8a,H-E-B plus!,commercial,retail,san-antonio,TX,San Antonio,78224.0,6818 S Zarzamora St,29.3599259,-98.5330127,meta,2025-06-02T07:00:00.000Z,0.9784508333782836,OpenStreetMap,2024-01-17T09:44:11.000Z,,False
dfc681ec-c416-483e-b02d-d7c1e03b785a,Wynn's Nail Lounge,nail_salon,"['hair_removal', 'beauty_and_spa']",d7c98b76-4c1c-43d6-bbd9-d9a3802edc49,,commercial,commercial,san-antonio,TX,San Antonio,78240.0,10222 Huebner Rd,29.5378483,-98.5847183,meta,2025-06-02T07:00:00.000Z,0.9784508333782836,OpenStreetMap,2023-02-06T09:59:12.000Z,,False
f7209c4f-3868-4cb3-85c9-c043236e5f1d,Wynn's Automotive Services,automotive_repair,"['automotive', 'automotive_parts_and_accessories']",d3c2b7d1-c02e-4645-b307-3097a3b12cb4,,,,san-antonio,TX,San Antonio,78217.0,10649 Sentinel Dr,29.5380657,-98.4466252,meta,2025-06-02T07:00:00.000Z,0.9784508333782836,OpenStreetMap,2019-05-11T19:03:23.000Z,,False
5f21a080-96e2-4bca-b702-bce34908f298,Wynn Nails Bar,beauty_salon,"['hair_removal', 'sugaring']",,,,,san-antonio,TX,San Antonio,78258.0,20711 Wilderness Oak,29.6350907,-98.5165534,meta,2025-06-02T07:00:00.000Z,0.9784508333782836,,,,False
83a1cab6-1e50-4e5e-8cb3-ef8c98c62ca4,Hip Wynn Real Estate Group,real_estate,['real_estate_agent'],cbd1a3bb-f7b6-4b46-b92a-09e5a0fde5bc,,,,san-antonio,TX,Universal City,78148.0,433 Kitty Hawk Rd,29.5510723,-98.3077806,meta,2025-06-02T07:00:00.000Z,0.9204819277108434,OpenStreetMap,2024-02-27T08:36:56.000Z,,False
dcc66e01-4113-4851-8437-e296de0c671a,Shelly Wynn,beauty_salon,"['hair_salon', 'beauty_and_spa']",6f034092-2b3c-451a-bc06-ac81b3cce022,,,,austin,TX,Austin,78757.0,7942 Great Northern Blvd,30.363066,-97.741903,meta,2025-06-02T07:00:00.000Z,0.242152466367713,OpenStreetMap,2014-01-14T05:18:39.000Z,,False
ee78e1a1-a891-4fb5-a57c-88545c6be648,The Win-Wynn Florida Retreat,holiday_rental_home,"['real_estate', 'hotel']",9072f5b7-5d63-478d-8173-d0651010a61d,,,,cape-coral,FL,Cape Coral,33914.0,2525 SW 24th Ct,26.60446,-82.02415,meta,2025-06-02T07:00:00.000Z,0.3961437335670464,OpenStreetMap,2022-11-07T09:00:45.000Z,,False
49fcf9a3-55ff-4a39-bc75-c1993d921dca,Wynn Studios,beauty_salon,['beauty_and_spa'],90411ce5-fcbc-4436-9c8f-87e7f9c27a19,,,,provo,UT,Orem,84097.0,570 E University Pkwy,40.27282,-111.68144,meta,2025-06-02T07:00:00.000Z,0.3376623376623376,OpenStreetMap,2010-12-14T00:03:06.000Z,,False
ae1376e8-6579-470a-90f4-e12b456e9e25,Wynn H. Okuda DMD Inc,dentist,"['health_and_medical', 'cosmetic_dentist']",cef0fc89-ce4c-4d99-b691-d90abfe06659,,commercial,commercial,honolulu,HI,Honolulu,96816.0,3660 Waialae Ave,21.2822482,-157.7973911,meta,2025-06-02T07:00:00.000Z,0.9784508333782836,OpenStreetMap,2025-01-29T04:42:28.000Z,,False
81decbb2-69fe-4f4e-a613-68bef377e39d,Wynn's Grain and Spice,wholesale_store,"['delicatessen', 'business_manufacturing_and_supply']",66364073-e09f-478b-aafe-61f25b18b514,,,,montgomery,AL,Montgomery,36109.0,2750 Gunter Park Dr W,32.4086731,-86.2362525,meta,2025-06-02T07:00:00.000Z,0.9459263554653524,OpenStreetMap,2015-04-20T18:08:28.000Z,,False
7b0fd8d4-401a-4324-a395-4169cbd3a606,Gail & Wynn's Mortuary,funeral_services_and_cemeteries,"['business', 'lawyer']",,,,,orlando,FL,Orlando,32805.0,1300 Bruton Blvd,28.5258825,-81.4264302,meta,2025-06-02T07:00:00.000Z,0.9784508333782836,,,,False
c92d8644-9944-4049-9d39-1f98f6d771e7,"Wynn Washle, Ph.D.,CRS",real_estate_agent,"['real_estate', 'health_and_medical']",4f136c94-b0a6-45f4-ad70-738637d59f49,,,,fort-collins,CO,Fort Collins,80521.0,401 W Mulberry St,40.581288,-105.083039,meta,2025-06-02T07:00:00.000Z,0.2456896551724137,OpenStreetMap,2024-11-11T22:53:31.000Z,,False
fd300ba3-54e7-4993-9924-33c3cc56d761,Lori Wynn Physical Therapy,physical_therapy,"['naturopathic_holistic', 'health_and_medical']",ed22743a-9290-4154-bb8a-5b9c06edac70,,,,pittsburgh,PA,Pittsburgh,15221.0,"Point Breeze, Next to Regent Square",40.4430496,-79.8983597,meta,2025-06-02T07:00:00.000Z,0.9204819277108434,OpenStreetMap,2017-10-19T00:48:41.000Z,,False
15b6a98e-07d1-4cd7-aba4-47747c88bb8f,Wynn Auto Sales,car_dealer,"['automotive_dealer', 'automotive']",63e210a2-a73c-4086-8110-e873f8011395,Palm Plaza Moreno Valley,,,riverside-san-bernardino,CA,Moreno Valley,92553.0,24594 Sunnymead Blvd,33.9406155,-117.2333905,meta,2025-06-02T07:00:00.000Z,0.3961437335670464,OpenStreetMap,2025-04-30T09:17:58.000Z,,False
15b6a98e-07d1-4cd7-aba4-47747c88bb8f,Wynn Auto Sales,car_dealer,"['automotive_dealer', 'automotive']",590938e6-18ce-41d0-afeb-16eea102381b,,commercial,commercial,riverside-san-bernardino,CA,Moreno Valley,92553.0,24594 Sunnymead Blvd,33.9406155,-117.2333905,meta,2025-06-02T07:00:00.000Z,0.3961437335670464,OpenStreetMap,2023-08-04T17:23:22.000Z,,False
f3f4c40b-8bc1-4a19-a347-0ea5ee557b20,"Hare, Wynn, Newell & Newton, LLP",business_law,['personal_injury_law'],7a0f485d-5361-44a4-9941-ab5d81eb4e6f,,commercial,commercial,little-rock,AR,Little Rock,72202.0,2226 Cottondale Ln Ste 210,34.760196,-92.299087,Microsoft,2016-09-07T16:28:38.083Z,0.77,OpenStreetMap,2024-12-10T11:43:37.000Z,,False
2f12dd73-bb2a-4671-b0b4-a1fbdd929e4d,Wynn Films,event_photography,"['videographer', 'arts_and_entertainment']",6e2821a5-ad78-42bb-8fe6-6548f8d80c2b,,,,chicago,IL,Naperville,60540.0,1528 Watkins Ln,41.760696,-88.183635,meta,2025-06-02T07:00:00.000Z,0.4929396662387676,Microsoft ML Buildings,2020-07-06T00:00:00.000Z,,False
3e3c2b77-9e13-42d8-beff-02973fc92535,Wynn Nails and Spa,nail_salon,"['beauty_salon', 'spas']",244dbb3f-4d96-4ad0-b335-6d62b2549c42,,,,chicago,IL,Oak Lawn,60453.0,4957 W 95th St,41.7198512,-87.745638,meta,2025-06-02T07:00:00.000Z,0.9784508333782836,OpenStreetMap,2023-10-20T18:15:14.000Z,,False
afc55523-f354-47b0-a91e-3e203103c904,Wynn Las Vegas,hotel,"['travel', 'arts_and_entertainment']",9da70e2c-67d9-467e-b6e4-1e14de6d646f,Green Street Lofts,residential,residential,chicago,IL,Chicago,60607.0,400 S Green St,41.87629,-87.6487,meta,2025-06-02T07:00:00.000Z,0.296943231441048,OpenStreetMap,2022-01-30T15:36:56.000Z,,False
5e744a3e-5e1b-4d8c-91f2-4ea04b73cdfc,Wynn Realty llc,real_estate,['real_estate_agent'],6c573f62-ead4-4d3e-a8c0-eb14bcb9c4f9,Windsor at Ontario Place,residential,apartments,chicago,IL,Chicago,60611.0,1 E Erie St,41.8936411,-87.627533,meta,2025-06-02T07:00:00.000Z,0.8831168831168831,OpenStreetMap,2024-08-23T11:25:42.000Z,,False
c9ce9cd7-c5a5-414f-962f-63f80910b00c,Sylvia Wynn Realtor Baird & Warner Lake Zurich,real_estate_agent,,00e0513b-e6cd-4cce-8a7c-509860c584b6,,,,chicago,IL,Lake Zurich,60047.0,100 E Main St,42.1978099,-88.09036,meta,2025-06-02T07:00:00.000Z,0.3376623376623376,OpenStreetMap,2020-05-11T22:48:09.000Z,,False
651b13b1-a896-4a8a-8766-2f75c95e3ddc,Beauty for the Wynn,beauty_salon,['makeup_artist'],5ec7cc88-1cb5-49b5-b05f-1ce3c6d51da8,,,,minneapolis,MN,Spring Lake Park,55432.0,913 Manor Dr NE,45.1229077,-93.2480008,meta,2025-06-02T07:00:00.000Z,0.8860580325548478,Microsoft ML Buildings,2023-09-13T00:00:00.000Z,0.9646999835968018,False
16d7b595-082b-44aa-8f57-a7dde914eb8d,Shelly Wynn - State Farm Insurance,insurance_agency,['financial_service'],9ee781a6-c351-42cb-8834-55489080f449,,,,indianapolis,IN,Indianapolis,46239.0,8701 E Southeastern Ave,39.7058933,-86.0123743,meta,2025-06-02T07:00:00.000Z,0.9879256218304756,OpenStreetMap,2024-04-13T22:55:55.000Z,,False
f81f70d4-0373-4f20-87eb-a4ecd222c929,"Wynn Lash Eyebrow Lip - West Des Moines, Iowa",beauty_and_spa,['beauty_salon'],d2c05066-4721-4d98-be8b-ea000240546b,Coachlight Plaza,commercial,office,des-moines,IA,West Des Moines,50266.0,6420 Coachlight Dr,41.5655901,-93.7963005,meta,2025-06-02T07:00:00.000Z,0.909823677581864,OpenStreetMap,2018-02-15T23:31:37.000Z,,False
064edf62-ca6a-4759-8dde-52d82b2a71e0,The Wynn Financial Group,financial_advising,"['investing', 'professional_services']",3e0a2aba-6ecb-4d66-b550-019abbeb7e73,,commercial,commercial,daytona-beach-port-orange,FL,Daytona Beach,32114.0,1 Daytona Blvd,29.1929657,-81.0707401,meta,2025-06-02T07:00:00.000Z,0.9415384615384615,OpenStreetMap,2024-05-09T14:59:28.000Z,,False
c8c390a1-b149-4219-953f-e6445bc6ccdb,Shannon Wynn,beauty_and_spa,"['beauty_salon', 'tanning_salon']",5225380f-caf4-4e4a-ae0b-a37f73c1bc1a,,,,detroit,MI,Riverview,48193.0,16272 King Rd,42.1555703,-83.2162238,meta,2025-06-02T07:00:00.000Z,0.9300613496932516,OpenStreetMap,2023-03-17T20:41:55.000Z,,False
3c87aa2d-d831-4c5b-b640-9e2e9a95df35,Dr. Terry Wynn,doctor,"['family_practice', 'health_and_medical']",cb06bb8a-849c-407e-be14-7e7236b7c4a2,,commercial,retail,detroit,MI,Detroit,48227.0,14103 Fenkell St,42.4018713,-83.1836157,meta,2025-06-02T07:00:00.000Z,0.9784508333782836,OpenStreetMap,2023-08-19T23:08:15.000Z,,False
3c87aa2d-d831-4c5b-b640-9e2e9a95df35,Dr. Terry Wynn,doctor,"['family_practice', 'health_and_medical']",3c658394-66a5-402b-bcad-0f8f4bef161f,,commercial,retail,detroit,MI,Detroit,48227.0,14103 Fenkell St,42.4018713,-83.1836157,meta,2025-06-02T07:00:00.000Z,0.9784508333782836,OpenStreetMap,2023-08-19T23:08:15.000Z,,False
86795d0c-8801-401f-9450-69425dabfc05,Wynn Nails and Spa,nail_salon,"['hair_removal', 'beauty_salon']",064b4deb-6545-422e-b45c-1d244b4e4f3f,,,,detroit,MI,Troy,48083.0,315 E Big Beaver Rd,42.5631321,-83.1409291,meta,2025-06-02T07:00:00.000Z,0.9459263554653524,OpenStreetMap,2024-03-19T13:46:10.000Z,,False
85685434-88c5-4db2-8397-ea4fd845c129,"Bob Wynn, MD | Kaiser Permanente",pediatrician,"['doctor', 'health_and_medical']",49ddfde0-d3fb-4be2-8d31-5d5ff0596e85,Mount Scott Medical Office,medical,,portland,OR,Clackamas,97015.0,9800 SE Sunnyside Rd,45.432749,-122.562967,Microsoft,2024-09-03T01:53:40.180Z,0.77,OpenStreetMap,2024-07-04T11:34:10.000Z,,False
b8beaf96-c38e-4513-9038-19d2e9a9c88f,"Paula Wynn, MD | Kaiser Permanente",ophthalmologist,"['doctor', 'health_and_medical']",2406fb03-ffdd-4813-9c84-40e9d480b1cc,Clackamas Eye Care & Imaging,,,portland,OR,Happy Valley,97086.0,"12100 SE Stevens Rd, 106 106",45.4351052,-122.563216,Microsoft,2025-04-20T11:21:12.650Z,0.77,OpenStreetMap,2024-07-04T11:34:10.000Z,,False
747fa1c3-1b79-455d-bd79-f1eb1b2dfb75,Wynn L. White Consulting Engineers,engineering_services,"['environmental_and_ecological_services_for_businesses', 'b2b_science_and_technology']",7650d589-70b1-4c49-bde4-cf2aadb4ae3c,,commercial,commercial,baton-rouge,LA,Baton Rouge,70817.0,17485 Opportunity Ave,30.3543542,-90.9975017,meta,2025-06-02T07:00:00.000Z,0.9415384615384615,OpenStreetMap,2020-09-16T02:16:13.000Z,,False
1608193b-e002-4e91-800c-69bd02081cbd,Marcel Wynn,real_estate_service,,70c94c99-00c4-424b-945f-3f1e44651869,One Washington Mall,commercial,office,boston,MA,Boston,2108.0,1 Washington Mall,42.35926,-71.05792,meta,2025-06-02T07:00:00.000Z,0.8253968253968254,OpenStreetMap,2025-05-14T19:37:40.000Z,,False
9c5df8b3-4829-409a-a23f-3471b987fedd,Scott Wynn Law Group,lawyer,"['legal_services', 'professional_services']",900532a0-d566-4f85-839c-5352e85e1ad5,,,,boston,MA,Charlestown,2129.0,254 Main St,42.377096,-71.0666932,meta,2025-06-02T07:00:00.000Z,0.8860580325548478,OpenStreetMap,2020-09-12T06:58:12.000Z,,False
9c5df8b3-4829-409a-a23f-3471b987fedd,Scott Wynn Law Group,lawyer,"['legal_services', 'professional_services']",3333b73e-cb52-4ae5-a39a-1b6a62d3b910,,,,boston,MA,Charlestown,2129.0,254 Main St,42.377096,-71.0666932,meta,2025-06-02T07:00:00.000Z,0.8860580325548478,OpenStreetMap,2020-09-11T19:09:12.000Z,,False
5a3cc7f4-cc82-4838-a207-3dd79af9e0ba,Wynn Gifts,gift_shop,['retail'],e9663588-c23f-4d3c-adff-043b7ea744e5,Encore Boston Harbor,entertainment,,boston,MA,Everett,2149.0,1 Broadway,42.39469280246879,-71.06919172186187,Microsoft,2025-04-11T12:40:20.350Z,0.77,OpenStreetMap,2024-03-11T21:46:26.000Z,,False
5601e672-289d-40d1-a0f2-697991c5a207,Wynn Collection,clothing_store,['retail'],e9663588-c23f-4d3c-adff-043b7ea744e5,Encore Boston Harbor,entertainment,,boston,MA,Everett,2149.0,1 Broadway,42.394815510756814,-71.06919329068118,Microsoft,2025-04-21T13:17:35.037Z,0.77,OpenStreetMap,2024-03-11T21:46:26.000Z,,False
7cf4d690-ad41-40e2-b315-64e519ed6812,Wynn Sports,clothing_store,['retail'],e9663588-c23f-4d3c-adff-043b7ea744e5,Encore Boston Harbor,entertainment,,boston,MA,Everett,2149.0,1 Broadway,42.3953708,-71.069965,Microsoft,2025-03-24T22:38:11.760Z,0.77,OpenStreetMap,2024-03-11T21:46:26.000Z,,False
cf32a9c9-a49c-4e82-bf70-371eb5451111,Wynn Sports,clothing_store,['retail'],,,,,boston,MA,Everett,2149.0,1 Broadway,42.39433185,-71.06729515,Microsoft,2021-02-17T23:15:39.600Z,0.77,,,,False
91bd030a-6814-4331-86b6-25c0fff4114e,Wynn Boston Harber,hotel,"['park', 'american_restaurant']",,,,,boston,MA,Everett,2149.0,3 Charlton St,42.399806,-71.064658,meta,2025-06-02T07:00:00.000Z,0.3376623376623376,,,,False
10b48f3d-c11a-44b4-9e4e-e9d08d0e927f,Wynn's Catering,caterer,,f2fae480-7a11-4d35-b069-4dd8e86d1069,,,,bonita-springs-naples,FL,Naples,34102.0,1090 1st Ave S,26.1461174,-81.7925716,meta,2025-06-02T07:00:00.000Z,0.9300613496932516,OpenStreetMap,2025-01-08T05:32:00.000Z,,False
4cdda9ee-22ca-4075-bb42-04c47f04aba5,Wynn’s Market of Fine Foods,international_grocery_store,"['supermarket', 'delicatessen', 'restaurant', 'retail']",9eb84dde-a477-409d-a0dc-6333b085d04d,,,,bonita-springs-naples,FL,Naples,34102.0,141 N Tamiami Trl,26.148764,-81.796806,Microsoft,2022-04-25T19:26:32.997Z,0.77,OpenStreetMap,2024-11-11T20:10:36.000Z,,False
9c561169-32b6-425a-970e-a5deb0e39735,Wynn's Market,supermarket,"['grocery_store', 'shopping']",9eb84dde-a477-409d-a0dc-6333b085d04d,,,,bonita-springs-naples,FL,Naples,34102.0,141 9th St N,26.148784,-81.7967036,meta,2025-06-02T07:00:00.000Z,0.9784508333782836,OpenStreetMap,2024-11-11T20:10:36.000Z,,False
6fe8a524-0549-412f-9e66-10a615a230de,Wynn Properties,property_management,"['professional_services', 'real_estate']",1201b5f5-de51-44c5-87df-59f22ece7c62,,,,bonita-springs-naples,FL,Bonita Springs,34135.0,9220 Bonita Beach Rd SE,26.3316698,-81.7973172,meta,2025-06-02T07:00:00.000Z,0.9784508333782836,OpenStreetMap,2024-09-25T14:38:51.000Z,,False
d004a5b9-a39c-4039-9aa5-acc6f1c92edd,R. Wynn Collective,event_planning,,0a5057c3-aaa2-40f3-96d0-cf426a1b0f83,,commercial,commercial,virginia-beach,VA,Norfolk,23510.0,500 E Plume St,36.84703,-76.28773,meta,2025-06-02T07:00:00.000Z,0.242152466367713,OpenStreetMap,2020-08-04T17:22:34.000Z,,True
ce57c346-fd51-4b84-b6da-409e323d9ce8,Wynn Nail Spa,nail_salon,"['beauty_salon', 'spas']",2f76b71e-49da-4bbd-a8da-2f4419868655,,,,virginia-beach,VA,Virginia Beach,23455.0,1115 Independence Blvd,36.8759071,-76.1349826,meta,2025-06-02T07:00:00.000Z,0.9784508333782836,OpenStreetMap,2024-02-28T08:28:00.000Z,,False
c6d4cc35-df89-4b64-8f19-61ebf055723a,Barry & Wynn Architects,architectural_designer,"['home_improvement_store', 'engineering_services']",5a00f0e2-f088-4a9b-8d6e-d2bf93a3835d,,,,concord,CA,Danville,94526.0,379 Hartz Ave,37.8217906,-122.0002442,meta,2025-06-02T07:00:00.000Z,0.9459263554653524,OpenStreetMap,2022-09-21T05:21:12.000Z,,False
c6d4cc35-df89-4b64-8f19-61ebf055723a,Barry & Wynn Architects,architectural_designer,"['home_improvement_store', 'engineering_services']",dfdeabe4-08df-40c1-a390-355cb142cd50,Dioro Jewelers,,,concord,CA,Danville,94526.0,379 Hartz Ave,37.8217906,-122.0002442,meta,2025-06-02T07:00:00.000Z,0.9459263554653524,OpenStreetMap,2022-09-21T05:21:12.000Z,,False
c6d4cc35-df89-4b64-8f19-61ebf055723a,Barry & Wynn Architects,architectural_designer,"['home_improvement_store', 'engineering_services']",d1b73160-1e1f-479d-8c2b-c118bf9d4c4f,Elliot's,commercial,,concord,CA,Danville,94526.0,379 Hartz Ave,37.8217906,-122.0002442,meta,2025-06-02T07:00:00.000Z,0.9459263554653524,OpenStreetMap,2022-09-21T05:21:12.000Z,,False
a8ba1915-4ecc-4455-b289-12a4748e5755,"Michael L Wynn, M.D.",surgeon,"['doctor', 'health_and_medical']",5acf6487-3dac-4dc6-b2e4-3dcd39a14087,,medical,hospital,concord,CA,San Ramon,94583.0,5601 Norris Canyon Rd Ste 100,37.7778358,-121.9577264,Microsoft,2025-05-06T07:14:07.120Z,0.77,OpenStreetMap,2023-04-14T22:06:13.000Z,,False
c6a31449-3b9f-4474-86df-95bb63ccd0f8,West Wynn Motel,hotel,"['motel', 'accommodation']",36a8825d-dd04-437e-8c4f-2d308acf985d,,,,spokane,WA,Spokane,99224.0,2701 W Sunset Blvd,47.6488012,-117.4520747,meta,2025-06-02T07:00:00.000Z,0.9784508333782836,OpenStreetMap,2020-06-08T00:34:10.000Z,,False
1096f7ef-3144-4acb-9b7c-f8694ad7cd3b,Wynn's,automotive_dealer,"['automotive_repair', 'car_dealer']",355477ed-6bfe-440d-ae5a-dd17aabaac92,,,,lakeland,FL,Lakeland,33803.0,3606 Craftsman Blvd,28.008161,-81.8869527,meta,2025-06-02T07:00:00.000Z,0.909823677581864,OpenStreetMap,2021-05-02T17:17:15.000Z,,False
0f2bf737-9467-45ad-a219-604839264b56,Wynn’s Discount Store,b2b_apparel,"['thrift_store', 'discount_store']",c8879e09-2648-4e7b-b592-2c833d956a35,,industrial,industrial,lakeland,FL,Lakeland,33801.0,3345 US Highway 92 E,28.04724,-81.89371,meta,2025-06-02T07:00:00.000Z,0.4929396662387676,OpenStreetMap,2018-11-25T00:11:59.000Z,,False
ae8142d2-7d5e-4379-a890-87b1b4f1cfab,"Nancy Nguyen, Wynn Real Estate",real_estate_agent,['real_estate'],23824f95-4ac9-408f-a962-3c5d7acc2ad6,,,,los-angeles,CA,Fountain Valley,92708.0,10221 Slater Ave,33.7096155,-117.9505023,meta,2025-06-02T07:00:00.000Z,0.9300613496932516,OpenStreetMap,2023-02-27T17:21:32.000Z,,False
fdc79e86-2726-4778-b7fc-f60c823cf005,Wynn Mortgage Inc,mortgage_broker,,23824f95-4ac9-408f-a962-3c5d7acc2ad6,,,,los-angeles,CA,Fountain Valley,92708.0,9081 BOLSA AVE,33.70953,-117.95038,meta,2025-06-02T07:00:00.000Z,0.3961437335670464,OpenStreetMap,2023-02-27T17:21:32.000Z,,True
c22fe2e5-b171-480b-b7f3-ae337c8be364,Wynn Real Estate,real_estate,"['real_estate_agent', 'mortgage_broker']",,,,,los-angeles,CA,Westminster,92683.0,9081 Bolsa Ave,33.745237,-117.970753,meta,2025-06-02T07:00:00.000Z,0.909823677581864,,,,False
6fa657a3-7fd0-410c-91e6-43c019303882,Wynn Mortgage,mortgage_broker,"['installment_loans', 'commercial_industrial']",,,,,los-angeles,CA,Westminster,92683.0,9081 Bolsa Ave,33.7452465,-117.970575,meta,2025-06-02T07:00:00.000Z,0.9459263554653524,,,,False
fde7c598-ccb0-4869-8d58-b4bb0a7ba63a,Wynn Steven R DDS,cosmetic_dentist,"['orthodontist', 'dentist', 'health_and_medical']",,,,,los-angeles,CA,Newport Beach,92660.0,1901 Westcliff Dr Ste 1,33.6272,-117.907013,Microsoft,2013-06-12T17:24:57.163Z,0.77,,,,False
a89ee2c8-4aab-4144-a08d-4b774de07c7b,Wynn Printing Co.,commercial_printer,,6acd757d-d20d-48ee-9b2c-39002185901f,,,,los-angeles,CA,Santa Ana,92704.0,3031 S Shannon St,33.7063369750977,-117.922798156738,Microsoft,2013-01-28T00:59:57.530Z,0.77,OpenStreetMap,2023-12-28T21:57:28.000Z,,True
04af1038-83a2-485c-954a-55da9cdb2bb9,Wynn Tax Solutions,trusts,['professional_services'],4d5f304f-4ff3-4ea0-91cc-43bf64369a61,,commercial,commercial,los-angeles,CA,Irvine,92614.0,17802 Skypark Cir,33.6906944,-117.8556112,meta,2025-06-02T07:00:00.000Z,0.909823677581864,OpenStreetMap,2023-12-21T21:03:46.000Z,,False
3147e60e-ec61-4d07-ae73-bb465eb119e1,Wynn Nail and Spa,nail_salon,"['spas', 'beauty_salon']",19f613e7-dc5d-4418-b406-f1bd396d1edc,,commercial,retail,los-angeles,CA,Irvine,92606.0,92 Corporate Park,33.6926678,-117.8271279,meta,2025-06-02T07:00:00.000Z,0.9784508333782836,OpenStreetMap,2023-02-01T19:50:37.000Z,,False
b13c84fe-6a00-4376-99f5-80f9604ed250,Ron Wynn,real_estate,"['real_estate_agent', 'real_estate_service']",97024ae4-1f83-4a21-98e8-8610b9db5a0b,,,,los-angeles,,,0.0,,34.0221,-118.481,meta,2025-06-02T07:00:00.000Z,0.3313953488372093,OpenStreetMap,2016-09-05T20:15:19.000Z,,False
d0a8838c-d43d-4f95-b7df-e9e29c2941a9,Ron Wynn Real Estate - Westwood Estates,real_estate_agent,"['commercial_real_estate', 'home_improvement_store']",ebc6856a-33a9-461e-8be8-3d5bb743752e,,commercial,retail,los-angeles,CA,Santa Monica,90403.0,1531 Montana Ave,34.03377,-118.49364,meta,2025-06-02T07:00:00.000Z,0.242152466367713,OpenStreetMap,2016-09-02T07:45:30.000Z,,False
b066b249-1f16-40b2-a942-a0b1a30430de,Elizabeth Wynn Sotheby's International Realty,real_estate,"['real_estate_agent', 'real_estate_investment']",0ef0ed9c-d82f-4647-8294-113d5332ea12,,commercial,retail,los-angeles,CA,Laguna Beach,92651.0,32356 S Coast Hwy,34.0530944,-118.470183,meta,2025-06-02T07:00:00.000Z,0.8860580325548478,OpenStreetMap,2022-11-13T19:39:26.000Z,,False
33f17e9a-18f0-4d53-94d7-e8f52b7fb59a,S Wynn Braiding Company,beauty_salon,"['hair_salon', 'hair_extensions']",85046c4b-ee6a-4a1c-a959-f3f912708b48,,commercial,commercial,los-angeles,CA,Los Angeles,90019.0,3705 W Pico Blvd,34.0474528,-118.3215491,meta,2025-06-02T07:00:00.000Z,0.9300613496932516,OpenStreetMap,2016-07-19T19:39:35.000Z,,False
fa03a18b-1ac6-44b6-9e18-62a75f38920c,Wynn Nail Spa,nail_salon,"['beauty_and_spa', 'hair_removal']",25c0a62f-2805-4ecd-8e5e-9fa45d16398f,,residential,apartments,los-angeles,CA,Los Angeles,90036.0,5600 Wilshire Blvd,34.0613757,-118.3512266,meta,2025-06-02T07:00:00.000Z,0.9784508333782836,OpenStreetMap,2016-07-07T19:39:07.000Z,,False
8c8ad06a-cc6a-4173-a21c-6bde5412947a,Wynn Nail Spa,beauty_salon,"['spas', 'hair_removal']",31a51fae-5650-4f12-a539-1b565fc3d3f3,,commercial,retail,los-angeles,,,0.0,,34.1011622,-118.3352208,meta,2025-06-02T07:00:00.000Z,0.5662921348314607,OpenStreetMap,2024-05-24T20:37:01.000Z,,False
8c8ad06a-cc6a-4173-a21c-6bde5412947a,Wynn Nail Spa,beauty_salon,"['spas', 'hair_removal']",9f948627-4a27-432f-bfb9-ac70c6d8093f,Ritz Theatre,,,los-angeles,,,0.0,,34.1011622,-118.3352208,meta,2025-06-02T07:00:00.000Z,0.5662921348314607,OpenStreetMap,2024-05-24T20:37:01.000Z,,False
8c8ad06a-cc6a-4173-a21c-6bde5412947a,Wynn Nail Spa,beauty_salon,"['spas', 'hair_removal']",efc35330-ed01-420a-b0ba-80961260995f,,,,los-angeles,,,0.0,,34.1011622,-118.3352208,meta,2025-06-02T07:00:00.000Z,0.5662921348314607,OpenStreetMap,2024-07-04T07:04:06.000Z,,False
1fc285aa-f743-47c7-95e4-c8a220925b70,Wynn Nail Spa,nail_salon,"['hair_removal', 'beauty_and_spa']",,,,,los-angeles,CA,Los Angeles,90028.0,1509 Vine St,34.0985278,-118.3267641,meta,2025-06-02T07:00:00.000Z,0.9415384615384615,,,,False
808ffae2-8ada-4910-b5fc-93674b813436,Wynn Headwear,hat_shop,"['clothing_store', 'womens_clothing_store']",bb0db24f-f744-4cd6-b996-34ed003c6304,,,,los-angeles,CA,Los Angeles,90015.0,100 W 17th St,34.0329474,-118.2635533,meta,2025-06-02T07:00:00.000Z,0.9300613496932516,OpenStreetMap,2016-07-01T05:27:23.000Z,,False
faa0167f-5d73-45ba-b6eb-e22a34b0b548,Wynn Optical Express,eyewear_and_optician,['fashion_accessories_store'],,,,,los-angeles,CA,Los Angeles,90012.0,722 N Broadway,34.0609444,-118.2389539,meta,2025-06-02T07:00:00.000Z,0.9415384615384615,,,,False
4bacf7ae-3210-4597-8e40-5984e7a3ceac,Wynn Helms,counseling_and_mental_health,"['health_and_medical', 'psychologist']",9855e2f0-7818-4786-8e41-2722d38b0f9f,,commercial,commercial,los-angeles,CA,Los Angeles,91423.0,14156 Magnolia Blvd,34.1646179,-118.4419632,meta,2025-06-02T07:00:00.000Z,0.9204819277108434,OpenStreetMap,2022-10-21T06:44:57.000Z,,False
79330d5c-6097-418c-ab39-12a88d68e081,The Wynn Resort & Casino,casino,"['accommodation', 'shopping']",acbad3b3-33d8-4db2-bf17-46ecf88dfb30,,residential,apartments,los-angeles,CA,Los Angeles,0.0,,34.1611255,-118.3960916,meta,2025-06-02T07:00:00.000Z,0.4929396662387676,OpenStreetMap,2016-07-07T09:53:11.000Z,,False
fa2a5c32-e0a2-4079-bd63-4ac1748911d5,Wynn's Construction,contractor,"['b2b_science_and_technology', 'engineering_services']",939c7625-f6cc-4cc0-8e1c-0c99d170c8a2,,residential,house,los-angeles,CA,Los Angeles,90065.0,2752 W Avenue 33,34.1129497,-118.2380637,meta,2025-06-02T07:00:00.000Z,0.9204819277108434,OpenStreetMap,2016-06-28T06:38:41.000Z,,False
6408884b-0711-4119-a2f7-46d8798e7028,Wynn Acupuncture Center,acupuncture,"['naturopathic_holistic', 'health_and_medical']",,,,,los-angeles,CA,Glendale,91020.0,2520 Honolulu Ave,34.207451,-118.2337028,meta,2025-06-02T07:00:00.000Z,0.9459263554653524,,,,False
415f688c-5252-4cd1-84cf-31cb39bf9051,Wynn Kitchen Remodeling,contractor,,23035f2a-9bd4-42d4-8242-cf45f486bbdf,,commercial,commercial,los-angeles,CA,Buena Park,90620.0,5899 Lincoln Ave,33.8326862,-118.0292592,meta,2025-06-02T07:00:00.000Z,0.8860580325548478,OpenStreetMap,2020-12-18T20:20:37.000Z,,False
26a35c1d-95fb-4f30-9cbe-5ecd82393607,Wynn Pleasant Dentistry,dentist,"['cosmetic_dentist', 'medical_service_organizations']",edba6fca-5280-4526-9cdb-21a1269f8780,,,,los-angeles,CA,Anaheim,92804.0,408 S Beach Blvd,33.826841,-117.9929186,meta,2025-06-02T07:00:00.000Z,0.9784508333782836,OpenStreetMap,2013-07-18T07:15:38.000Z,,False
15723b48-ac56-4200-8fdd-9391110754fe,Wynn Investigations,private_investigation,,,,,,los-angeles,CA,Orange,92867.0,1315 N Tustin St #I297,33.86303701,-117.842216,Microsoft,2013-01-29T07:23:11.017Z,0.77,,,,False
087b805e-320f-4923-b7ba-ed82c33fdf96,Wynn Las Vegas,casino,"['tours', 'dance_club']",f29f2fe1-96a2-4a9b-b6b4-71a171d8c9fc,Hilton Los Angeles/San Gabriel,,,los-angeles,CA,San Gabriel,91776.0,225 W Valley Blvd,34.080377,-118.102135,meta,2025-06-02T07:00:00.000Z,0.242152466367713,OpenStreetMap,2025-05-11T03:46:05.000Z,,False
bbdee9e1-db80-474a-86aa-bc01efeb9854,Wynn Las Vegas Hotel Resort,hotel,"['casino', 'accommodation']",7ef818de-2945-4bc1-af68-90a55ce2b705,,residential,house,los-angeles,CA,San Dimas,91773.0,1372 Puente Ave,34.076972,-117.83529,meta,2025-06-02T07:00:00.000Z,0.5662921348314607,OpenStreetMap,2017-02-01T10:29:17.000Z,,False
7e49cfee-eabb-4e33-aeb5-78ecd113ddec,"Dr. Roger Wynn Anderson, DDS",dentist,"['doctor', 'cosmetic_dentist']",8d5d7e9d-a41e-419a-bdd1-07d36aea115a,,commercial,commercial,los-angeles,CA,San Marino,91108.0,1477 San Marino Ave,34.1221699,-118.10719,meta,2025-06-02T07:00:00.000Z,0.4929396662387676,OpenStreetMap,2024-11-30T14:19:07.000Z,,False
c87ed3f2-bc12-4991-a76d-4984786cc159,Bai Wynn Eyelash Extensions,beauty_salon,"['beauty_and_spa', 'tattoo_and_piercing']",05f5df19-96c5-4dc3-b53b-9c652ed92dc0,,,,seattle,WA,Tacoma,98403.0,105 Tacoma Ave N,47.264801,-122.4487418,meta,2025-06-02T07:00:00.000Z,0.909823677581864,OpenStreetMap,2018-02-07T02:51:48.000Z,,False
dd09fcb5-4776-4f54-90d9-c71587bc2d6d,The Wynn Group,real_estate_agent,"['brokers', 'commercial_real_estate']",9f517e8e-7f03-408f-8474-e1d056f94926,Conestoga Wealth Partners LLC,,,seattle,WA,Gig Harbor,98335.0,"3226 Rosedale St NW, Suite 201",47.3301435,-122.5828815,meta,2025-06-02T07:00:00.000Z,0.9415384615384615,OpenStreetMap,2020-04-22T05:38:36.000Z,,False
12d005f2-c3cc-4e43-9ef5-2a97471f0cbc,Wynn-Jones Preserve County Park,nature_reserve,"['park', 'social_service_organizations']",,,,,seattle,WA,Port Orchard,98366.0,5900 Wynn Jones Rd E,47.5871773,-122.558293,meta,2025-06-02T07:00:00.000Z,0.9784508333782836,,,,False
e8333ec3-ca48-4d72-aa2b-3d0e5fff5d0e,Amelia Wynn Winery,winery,"['liquor_store', 'wine_bar']",,,,,seattle,WA,Bainbridge Island,98110.0,9974 NE Pointview Dr,47.5765698,-122.5171426,meta,2025-06-02T07:00:00.000Z,0.9784508333782836,,,,False
8a344f93-eee8-4a7a-8918-949c998b2894,Amelia Wynn Armstrong Art Gallery,winery,"['wine_bar', 'travel']",8cc38ccd-4460-4945-a0a7-031986b1372f,,,,seattle,WA,Bainbridge Island,98110.0,450 Winslow Way E,47.6249058,-122.5162876,meta,2025-06-02T07:00:00.000Z,0.7548172757475083,OpenStreetMap,2023-10-28T01:08:13.000Z,,False
8a344f93-eee8-4a7a-8918-949c998b2894,Amelia Wynn Armstrong Art Gallery,winery,"['wine_bar', 'travel']",081d1981-d1e9-4f69-bf4d-d8d98bc12375,,,,seattle,WA,Bainbridge Island,98110.0,450 Winslow Way E,47.6249058,-122.5162876,meta,2025-06-02T07:00:00.000Z,0.7548172757475083,OpenStreetMap,2023-10-28T01:08:13.000Z,,False
8a344f93-eee8-4a7a-8918-949c998b2894,Amelia Wynn Armstrong Art Gallery,winery,"['wine_bar', 'travel']",2352a97b-7903-458a-af19-7229e67983fd,,,,seattle,WA,Bainbridge Island,98110.0,450 Winslow Way E,47.6249058,-122.5162876,meta,2025-06-02T07:00:00.000Z,0.7548172757475083,OpenStreetMap,2023-10-28T01:08:13.000Z,,False
42eda722-39e0-41b9-a52d-bfab560f01f1,"Team Wynn, EXP Realty",real_estate_agent,['real_estate'],e69cddfc-0c44-4134-89b5-79278dfec153,,,,philadelphia,PA,Havertown,19083.0,701 W Chester Pike,39.9715787,-75.3087499,meta,2025-06-02T07:00:00.000Z,0.8540983606557377,Microsoft ML Buildings,2020-09-21T00:00:00.000Z,,False
42eda722-39e0-41b9-a52d-bfab560f01f1,"Team Wynn, EXP Realty",real_estate_agent,['real_estate'],11f2457d-b7d4-4d25-bf68-82e060ed8197,,,,philadelphia,PA,Havertown,19083.0,701 W Chester Pike,39.9715787,-75.3087499,meta,2025-06-02T07:00:00.000Z,0.8540983606557377,Microsoft ML Buildings,2020-09-21T00:00:00.000Z,,False
c7c51efc-9993-435d-b037-db5a27fb2913,Robert Wynn Productions,recording_and_rehearsal_studio,,,,,,philadelphia,NJ,Clementon,8021.0,36 Windmill Dr,39.790962,-75.031341,Microsoft,2013-02-23T07:15:28.857Z,0.77,,,,False
8b2c4bad-5df8-4ed0-a4f7-1aef81eb6290,Robert Wynn Productions,recording_and_rehearsal_studio,,01f55ab0-5865-4db6-8bd3-dd49881e0d45,,,,philadelphia,NJ,Clementon,8021.0,36 Windmill Dr,39.79105,-75.0311,Microsoft,2020-04-07T11:08:32.183Z,0.77,Microsoft ML Buildings,2020-10-14T00:00:00.000Z,,False
7b4d9b85-dea9-476d-8db6-e3ef5ab3008e,Wynn Commons,public_plaza,,,,,,philadelphia,,,19104.0,,39.9525533,-75.1927753,meta,2025-06-02T07:00:00.000Z,0.296943231441048,,,,False
f061f3b0-b4c8-4363-8f29-c775795dc916,Penn Wynn Apartments,landmark_and_historical_building,"['real_estate', 'real_estate_agent']",,,,,philadelphia,PA,Philadelphia,19131.0,2201 Bryn Mawr Ave,39.98976,-75.22638,meta,2025-06-02T07:00:00.000Z,0.3961437335670464,,,,False
24628840-dbc4-4ce7-b491-3d90d97fc561,"Ron Wynn, Berkshire Hathaway Home Services Fox & Roach Realtors",real_estate_agent,['real_estate'],8581646e-4d6d-460f-a917-e3ee3f84ed3f,Penn Mutual Tower,commercial,commercial,philadelphia,PA,Philadelphia,19106.0,530 Walnut St,39.947201,-75.15008,meta,2025-06-02T07:00:00.000Z,0.242152466367713,OpenStreetMap,2021-07-24T23:02:57.000Z,,False
c0051827-0a73-4373-93a4-2431183c06ce,Head Of Mane Wynn Corporation,beauty_salon,"['cosmetic_and_beauty_supplies', 'hair_salon']",d1e9a0fd-4e19-4adf-8837-b305982ef827,,,,philadelphia,PA,Philadelphia,19144.0,5924 Germantown Ave,40.0382281,-75.1770097,meta,2025-06-02T07:00:00.000Z,0.9204819277108434,OpenStreetMap,2023-11-07T15:24:39.000Z,,False
c0051827-0a73-4373-93a4-2431183c06ce,Head Of Mane Wynn Corporation,beauty_salon,"['cosmetic_and_beauty_supplies', 'hair_salon']",c8316311-0c5e-4555-aa33-aa4fb76d8c2a,,,,philadelphia,PA,Philadelphia,19144.0,5924 Germantown Ave,40.0382281,-75.1770097,meta,2025-06-02T07:00:00.000Z,0.9204819277108434,OpenStreetMap,2023-11-07T15:24:39.000Z,,False
9e6a900f-863c-45fd-b321-50f6aab85812,Jim Wynn Volkswagen,car_dealer,"['automotive_repair', 'automotive']",,,,,philadelphia,PA,West Norriton Twp,19403.0,2021 W Main St,40.1335966,-75.3788445,meta,2025-06-02T07:00:00.000Z,0.9879256218304756,,,,False
65c64969-f2c9-43e2-a485-4213efb2875b,Wynn Volvo Cars Norristown,car_dealer,['automotive'],8e9906a9-a097-460e-8a70-39f867eb61df,,,,philadelphia,PA,Norristown,19403.0,2049 W Main St,40.1342558,-75.3797511,meta,2025-06-02T07:00:00.000Z,0.9879256218304756,Microsoft ML Buildings,2000-01-01T00:00:00.000Z,,False
175aa074-9b51-49be-8b37-17d70257629f,Rosa D. Wynn,dentist,"['health_and_medical', 'pediatrician']",814467e9-4751-4e85-b478-6087edf917e1,,commercial,commercial,san-jose,CA,Saratoga,95070.0,12948 Village Dr,37.2810752,-122.0044306,meta,2025-06-02T07:00:00.000Z,0.9784508333782836,OpenStreetMap,2023-06-19T20:50:12.000Z,,False
9264e8cc-6985-4bab-83fb-7c802f75b2be,Wynn Insurance Agency,insurance_agency,,,,,,san-jose,CA,Santa Clara,95054.0,4701 Patrick Henry Dr,37.3812799,-121.82805,meta,2025-06-02T07:00:00.000Z,0.3376623376623376,,,,False
f972bf38-d47a-45c2-a724-ad00b92a0f8d,Wynn and Trestman MDs,internal_medicine,"['doctor', 'health_and_medical']",b4138263-43dd-42df-87d8-0118e1c17bff,,,,savannah,GA,Savannah,31406.0,7120 Hodgson Memorial Dr,32.0063472,-81.1088889,meta,2025-06-02T07:00:00.000Z,0.9784508333782836,OpenStreetMap,2021-06-10T21:40:36.000Z,,False
29097c57-9b41-408a-9a2e-6ff01aa3eac4,"Robert Wynn, MD",surgeon,['doctor'],b4138263-43dd-42df-87d8-0118e1c17bff,,,,savannah,GA,Savannah,31406.0,7120 Hodgson Memorial Dr,32.0064622,-81.1088705,meta,2025-06-02T07:00:00.000Z,0.9300613496932516,OpenStreetMap,2021-06-10T21:40:36.000Z,,False
b74f2332-7e3e-470d-9966-9b40ba9439bf,Duggan Wynn Law Firm,wills_trusts_and_probate,"['lawyer', 'legal_services']",d8047e69-3f06-440f-b9cc-3189136ed788,,,,charleston,SC,Charleston,29407.0,44 Markfield Dr,32.7831612,-80.0064744,meta,2025-06-02T07:00:00.000Z,0.9784508333782836,OpenStreetMap,2018-12-10T01:19:35.000Z,,False
15f160fe-06d3-4a8e-9551-38d71074ad9d,Patrick Wynn - Homespire Mortgage,installment_loans,"['financial_service', 'real_estate_investment']",a5773043-ac3d-4ad0-bccc-c54df11a6bd3,,,,raleigh,NC,Raleigh,27612.0,5400 Glenwood Ave,35.8506402,-78.6922506,meta,2025-06-02T07:00:00.000Z,0.9204819277108434,OpenStreetMap,2018-08-30T21:16:54.000Z,,False
462fbce4-9d4c-42d5-87ab-4915b6d8e991,"Gayle Wynn, Movement Mortgage",mortgage_broker,"['installment_loans', 'financial_service']",6f33a638-2ae5-4009-8351-d03bbefd432f,,,,raleigh,NC,Raleigh,27609.0,4700 Falls of Neuse Rd,35.8456225,-78.6136943,meta,2025-06-02T07:00:00.000Z,0.909823677581864,OpenStreetMap,2016-11-12T16:28:43.000Z,,False
d5bd0728-92a7-4c01-9047-5a71b19f950a,"DonRaphael Wynn, MD",neurologist,"['ophthalmologist', 'doctor', 'hospital', 'health_and_medical']",fa68e429-2e0d-43a6-a855-9a122e21dd91,,,,boise-city,ID,Boise,83704.0,1072 N Liberty St #203,43.6141832,-116.2591674,Microsoft,2023-06-05T04:06:12.133Z,0.77,OpenStreetMap,2021-11-14T02:14:14.000Z,,False
76baca97-f7cc-4be9-9c51-6f04bd7d0a37,DonRaphael Wynn MD,neurologist,"['ophthalmologist', 'doctor', 'hospital', 'health_and_medical']",394063ec-7c75-4e40-ba75-a47c260fc054,,residential,detached,boise-city,ID,Boise,83704.0,1072 N Liberty St Ste 303,43.6507382,-116.2497331,Microsoft,2025-04-27T22:46:25.343Z,0.77,OpenStreetMap,2022-11-27T20:06:17.000Z,,False
a26263f5-4e07-4de5-af7b-ed06fab0c17b,Wynn Nails & Spa,nail_salon,"['beauty_salon', 'spas']",7bee5396-ae3f-4431-8556-5b2b9d62f347,,commercial,retail,sacramento,CA,Elk Grove,95757.0,9630 Bruceville Rd,38.4082044,-121.4205856,meta,2025-06-02T07:00:00.000Z,0.909823677581864,OpenStreetMap,2019-07-27T05:38:13.000Z,,False
e311cb0a-7c09-4144-b2bb-63c3cc867ad7,Wynn Sushi Box & Catering,sushi_restaurant,"['food_delivery_service', 'restaurant']",039bc114-90de-4dc7-9224-12eccc202db0,,,,sacramento,CA,Sacramento,95841.0,5800 Madison Ave,38.6599533,-121.3293702,meta,2025-06-02T07:00:00.000Z,0.8860580325548478,OpenStreetMap,2024-11-01T06:44:26.000Z,,False
ac2c7676-b6a0-489f-90c0-9b1ff46d846e,Hare Wynn Newell & Newton,legal_services,"['personal_injury_law', 'lawyer']",e52f2e52-b57e-4a28-8de3-1d5ecd450e39,Synovus Center,,,birmingham,AL,Birmingham,35209.0,800 Shades Creek Pkwy,33.4749743,-86.7672644,meta,2025-06-02T07:00:00.000Z,0.9784508333782836,OpenStreetMap,2025-03-27T18:08:46.000Z,,False
e5010db8-402c-48d0-a589-4824cc5561ba,"Hare, Wynn, Newell & Newton, LLP",business_law,['personal_injury_law'],5fd63254-8768-459f-b599-9a42c688c7d1,,,,birmingham,AL,Birmingham,35203.0,2025 3rd Ave N Ste 800,33.51662,-86.80558,Microsoft,2019-07-31T22:51:10.513Z,0.77,OpenStreetMap,2018-03-26T17:54:00.000Z,,False
5c8c1f88-eab9-4412-ad40-0abe4c34274b,"Lisa Wynn, MD",obstetrician_and_gynecologist,"['doctor', 'health_and_medical']",,,,,denver,CO,Highlands Ranch,80129.0,1500 Park Central Dr #302,39.5527413,-105.0052316,Microsoft,2021-08-10T18:11:22.710Z,0.77,,,,False
b0e11c8d-fa7f-4647-b984-5331dfcb9b03,Wynn Counseling and Psychological Services,health_and_medical,,ddbcce2f-69ea-4419-81b2-fcb4d6b6535b,,,,denver,CO,Centennial,80122.0,3989 E Arapahoe Rd,39.595605,-104.942166,Microsoft,2018-02-09T16:07:45.317Z,0.77,OpenStreetMap,2021-05-21T05:21:07.000Z,,False
11b57d63-523d-4ed0-93f2-71fec9593e03,Wynn Counseling and Psychological Services,psychologist,"['psychotherapist', 'counseling_and_mental_health']",9c3eead2-69c0-48e1-bfb7-d8133d993a7b,,,,denver,CO,Greenwood Village,80111.0,5950 S Willow Dr,39.6087301,-104.8896825,meta,2025-06-02T07:00:00.000Z,0.9204819277108434,OpenStreetMap,2024-10-18T14:34:23.000Z,,False
2edceb7a-f346-478b-b294-c170484c32bb,Nina Wynn,jewelry_store,['tattoo_and_piercing'],787d4d38-4782-46a4-9a0d-f9fcfc67e652,,commercial,commercial,denver,CO,Denver,80211.0,2247 Federal Blvd,39.7508961,-105.0256763,meta,2025-06-02T07:00:00.000Z,0.9300613496932516,OpenStreetMap,2019-08-05T18:50:27.000Z,,False
2edceb7a-f346-478b-b294-c170484c32bb,Nina Wynn,jewelry_store,['tattoo_and_piercing'],d15629cf-0392-44b4-a5d3-cea212ea897f,,commercial,commercial,denver,CO,Denver,80211.0,2247 Federal Blvd,39.7508961,-105.0256763,meta,2025-06-02T07:00:00.000Z,0.9300613496932516,OpenStreetMap,2019-08-05T18:50:27.000Z,,False
a1a4fc8a-b3a6-44a2-baaa-2acb66a0f432,Hartman and Wynn,real_estate_agent,['real_estate'],f3cf3811-092f-42b4-b311-de49fd1ba952,,,,st-louis,MO,St Louis,63128.0,12016 Tesson Ferry Rd,38.5177895,-90.3646427,meta,2025-06-02T07:00:00.000Z,0.9300613496932516,OpenStreetMap,2024-08-22T07:36:45.000Z,,False
c33e886a-ac4e-4c5b-8c07-dc78d9e80677,Kenny Wynn Hair Studio,hair_salon,"['beauty_salon', 'beauty_and_spa']",2fb851df-b120-4014-a1d6-af3104034e22,,,,st-louis,MO,St Louis,63122.0,10038 Manchester Rd,38.6024035,-90.3869412,meta,2025-06-02T07:00:00.000Z,0.9784508333782836,Microsoft ML Buildings,2022-08-25T00:00:00.000Z,,False
0e0061d1-2519-46a3-a8d6-82ecc4739d93,Wynn Appraisals,appraisal_services,"['real_estate', 'professional_services']",,,,,st-louis,MO,St Louis,63141.0,2 Cityplace Dr,38.6729613,-90.4416017,meta,2025-06-02T07:00:00.000Z,0.672566371681416,,,,False
93e6906c-646a-42e1-af09-3761aa1f6a99,Wynn S.I. Real Estate,real_estate,,4b87437f-17f9-41c5-8401-1d2b7da68835,,residential,house,new-york,NY,Staten Island,10309.0,599 Correll Ave,40.54628,-74.21235,meta,2025-06-02T07:00:00.000Z,0.242152466367713,OpenStreetMap,2023-08-17T17:30:56.000Z,,False
93e6906c-646a-42e1-af09-3761aa1f6a99,Wynn S.I. Real Estate,real_estate,,2377564e-40c2-421e-a99b-73d9bd68f825,,residential,house,new-york,NY,Staten Island,10309.0,599 Correll Ave,40.54628,-74.21235,meta,2025-06-02T07:00:00.000Z,0.242152466367713,OpenStreetMap,2023-08-17T17:30:56.000Z,,False
93e6906c-646a-42e1-af09-3761aa1f6a99,Wynn S.I. Real Estate,real_estate,,5a21916e-2b68-4b02-85e1-0cd3ec7a5c24,,residential,house,new-york,NY,Staten Island,10309.0,599 Correll Ave,40.54628,-74.21235,meta,2025-06-02T07:00:00.000Z,0.242152466367713,OpenStreetMap,2023-08-17T17:30:56.000Z,,False
13b0b41d-883d-40dd-88bf-2b1e0c82b734,Police Athletic League Wynn Center,gym,"['community_services_non_profits', 'sports_club_and_league']",4277a31d-f527-494c-8d2e-e6851b0dd3af,Police Athletic League Wynn Center,civic,,new-york,NY,New York,11216.0,495 Gates Ave,40.6866936,-73.9469532,meta,2025-06-02T07:00:00.000Z,0.9459263554653524,OpenStreetMap,2023-02-04T18:31:59.000Z,,False
a1661de6-e54c-414c-b158-e3716cfce0ca,Wynn Htun,endocrinologist,"['internal_medicine', 'doctor', 'health_and_medical']",6853f245-1b88-4c8a-8dbb-3961a95d841d,,commercial,office,new-york,NY,New York,10016.0,38 E 32nd St Floor 9,40.74593,-73.983148,Microsoft,2022-12-02T21:50:35.563Z,0.77,OpenStreetMap,2023-08-22T18:49:21.000Z,,False
a66b0916-1faf-4926-9e6d-37698e271f59,Wynn Handman Studio,theatre,['performing_arts'],254f954e-3d7e-452c-97cd-0ce7369127d7,,residential,apartments,new-york,NY,New York,10019.0,853 7th Ave,40.7638679,-73.9810433,meta,2025-06-02T07:00:00.000Z,0.9784508333782836,OpenStreetMap,2023-11-30T02:37:55.000Z,,False
522a4346-d98d-40e5-a5cd-46106f11d951,Wynn Htun,internal_medicine,"['doctor', 'health_and_medical']",76042946-8913-438c-a2e4-65bad71136ef,110 East 59th Street,,,new-york,NY,New York,10022.0,"110 East 59th Street, 8th Floor Suite 8B",40.762247,-73.969474,Microsoft,2022-12-02T22:59:12.813Z,0.77,OpenStreetMap,2014-07-23T11:03:36.000Z,,False
27e90ae9-aca0-4102-8475-c8dd98854621,Arianna Wynn at Douglas Elliman Real Estate,real_estate_agent,['professional_services'],05ccf637-6584-4547-8cdf-300f711c6cc3,,,,new-york,NY,Long Beach,11561.0,30 W Park Ave,40.5882134,-73.6651939,meta,2025-06-02T07:00:00.000Z,0.9300613496932516,OpenStreetMap,2019-05-11T20:29:00.000Z,,False
f0318fae-b32e-45de-a130-c421282788cc,Wynn Nail Lounge,nail_salon,['beauty_and_spa'],eb98cf10-560f-4587-b243-764f0388cdef,,,,new-york,NJ,Parsippany,7054.0,1127 US Highway 46,40.8619035,-74.3875918,meta,2025-06-02T07:00:00.000Z,0.9784508333782836,OpenStreetMap,2021-08-11T23:33:05.000Z,,False
7ae919dd-636c-4830-81c3-fb7aa015bf1a,Project Wynn,advertising_agency,"['business_advertising', 'internet_marketing_service']",0206aac2-80d6-419e-b755-a0c4ba01b6f6,,,,new-york,NJ,Hackensack,7601.0,266 Lookout Ave,40.8973899,-74.0471415,meta,2025-06-02T07:00:00.000Z,0.9204819277108434,OpenStreetMap,2018-10-21T02:29:00.000Z,,False
b5ec154c-6307-4752-92e8-f8f190f22443,Wynn Optics,optometrist,['eyewear_and_optician'],db3c0fe5-bc71-4cd2-a91d-f12657bd9dd1,,,,new-york,NY,New York,10026.0,167 Lenox Ave,40.8037992,-73.9487063,meta,2025-06-02T07:00:00.000Z,0.9784508333782836,OpenStreetMap,2014-03-12T15:42:10.000Z,,False
d8f75ee2-2f4b-46eb-980d-0678e8b763bd,Brown Wynn Agency,advertising_agency,"['event_planning', 'professional_services']",982725ac-c7dc-45e5-bf8b-a0f074d3a665,300 Winston Towers,residential,apartments,new-york,NJ,Cliffside Park,7010.0,300 Winston Dr,40.8285586,-73.9796144,meta,2025-06-02T07:00:00.000Z,0.8831168831168831,OpenStreetMap,2022-07-09T19:17:05.000Z,,True
18e94e73-b187-47f1-89b9-5dc4ad880044,The Wynn Academy,day_care_preschool,"['home_service', 'social_service_organizations']",22c6e80b-ad05-4f0e-90a3-2836aa14c0b7,,religious,church,fort-worth,TX,Fort Worth,76115.0,4067 Fair Park Blvd,32.6889158,-97.3138486,meta,2025-06-02T07:00:00.000Z,0.9784508333782836,OpenStreetMap,2019-10-22T19:40:39.000Z,,False
4fb1f496-316f-4148-8f63-d1aa301626ea,Tang Wynn,real_estate,,4806a805-8472-4665-b1ad-9f54eeeefce6,,commercial,commercial,fort-worth,TX,Fort Worth,76137.0,4500 Mercantile Plaza Dr,32.82221,-97.30965,meta,2025-06-02T07:00:00.000Z,0.8148148148148148,OpenStreetMap,2022-11-03T13:52:34.000Z,,False
5a33d6fa-55e1-4d90-af91-528dfb4b48ea,Wynn Seale Junior High School,elementary_school,"['school', 'middle_school']",,,,,corpus-christi,TX,Corpus Christi,78404.0,1701 Ayers St,27.7714669,-97.4039087,meta,2025-06-02T07:00:00.000Z,0.9784508333782836,,,,False
94df7b48-6f94-4a27-a55b-772ec924e86d,Wynn Nails,beauty_salon,['nail_salon'],3f6e38dd-0642-4b54-8505-aee08869ef51,,,,corpus-christi,TX,Corpus Christi,78414.0,7114 Saratoga Blvd,27.672774,-97.356468,meta,2025-06-02T07:00:00.000Z,0.7548172757475083,OpenStreetMap,2017-09-08T09:49:27.000Z,,False
a0b46df4-f243-44c5-aa45-849eacdcee41,Remember Wynn Records,music_and_dvd_store,"['shopping', 'broadcasting_media_production']",cb1f913c-620c-45f5-ac94-4c68a6e9383f,,,,pensacola,FL,Pensacola,32504.0,7007 Lanier Dr,30.4963873,-87.2051195,meta,2025-06-02T07:00:00.000Z,0.9784508333782836,Microsoft ML Buildings,2022-03-26T00:00:00.000Z,,False
b8d95344-e6d7-457a-bbc2-a42352b04ad2,"Breasia Wynn, Real Estate Broker- Realty ONE Group Results",real_estate_agent,['real_estate'],0a4ccd0f-94d2-43b5-9604-7115a8e5b06d,,commercial,office,greensboro,NC,Greensboro,27405.0,1250 Revolution Mill Dr,36.09961,-79.77681,meta,2025-06-02T07:00:00.000Z,0.8384615384615385,OpenStreetMap,2023-10-06T21:55:44.000Z,,False
d3d4b1f5-cc35-4bfd-8249-325b521777d3,Margaret Wynn Memorial Baptist Church,church_cathedral,['baptist_church'],,,,,youngstown,OH,Poland,44514.0,56 Water St,41.0273691,-80.6099738,meta,2025-06-02T07:00:00.000Z,0.9784508333782836,,,,False
87bdb8a9-7336-4e1a-8496-063d5eea1d6f,Wynn Skin,skin_care,"['barber', 'beauty_salon']",4b6a6737-3206-4f9e-977e-69b28062e4c6,,,,richmond,VA,Henrico,23238.0,9607 Gayton Rd,37.6035164,-77.5918775,meta,2025-06-02T07:00:00.000Z,0.9415384615384615,OpenStreetMap,2019-07-27T16:30:50.000Z,,False
8edaccec-4646-476d-9976-3eb9b288fc76,Wynn-Win Fitness,fitness_trainer,"['nutritionist', 'professional_services']",11e12690-6d9f-483f-a1aa-8aba1d107b79,,,,houston,TX,Richmond,77469.0,3510 Riverside Glen Ln,29.5711711,-95.7853773,meta,2025-06-02T07:00:00.000Z,0.9459263554653524,Microsoft ML Buildings,2023-09-01T00:00:00.000Z,0.9506999850273132,False
8edaccec-4646-476d-9976-3eb9b288fc76,Wynn-Win Fitness,fitness_trainer,"['nutritionist', 'professional_services']",fd58c3e7-aec4-4841-9ce0-ee34cca0353a,,,,houston,TX,Richmond,77469.0,3510 Riverside Glen Ln,29.5711711,-95.7853773,meta,2025-06-02T07:00:00.000Z,0.9459263554653524,Microsoft ML Buildings,2023-09-01T00:00:00.000Z,0.992900013923645,False
757bd430-1d1c-4bf2-af11-695d02066ea5,The Wynn Network Plus,cafe,['smoothie_juice_bar'],a4afa94f-1fcb-4239-ac0a-4f78864e3a05,,,,houston,TX,Sugar Land,77478.0,4127 Highway 6,29.5831932,-95.5857557,meta,2025-06-02T07:00:00.000Z,0.9784508333782836,Microsoft ML Buildings,2023-09-01T00:00:00.000Z,0.9746000170707704,False
7cd89a10-8f9c-4db5-861a-507a9f4891b5,Wynn Nails Spa,nail_salon,"['beauty_and_spa', 'beauty_salon']",c815e759-7c8c-4fcc-a6cc-6eeb1291ba53,,commercial,retail,houston,TX,Houston,77077.0,1531 Eldridge Pkwy,29.7561621,-95.624631,meta,2025-06-02T07:00:00.000Z,0.9784508333782836,OpenStreetMap,2019-12-08T06:19:04.000Z,,False
070bd25e-5b21-45b3-b367-de9f3a2f830b,Wynn Nails & Spas,nail_salon,"['beauty_and_spa', 'beauty_salon']",47e2b6be-57f6-4f50-adba-89e8f906e9f2,,,,houston,TX,Spring,77388.0,2040 Louetta Rd,30.063362,-95.4475752,meta,2025-06-02T07:00:00.000Z,0.9784508333782836,OpenStreetMap,2020-11-15T03:31:20.000Z,,False
1114b61b-356a-48eb-a07b-f4119975876c,Carla J Wynn LCSW DCSW,psychotherapist,['health_and_medical'],259ff988-f9bf-46d1-bf46-4b2e46e5d232,,,,houston,TX,The Woodlands,77380.0,26113 Oak Ridge Dr Ste C,30.141456,-95.448769,Microsoft,2023-12-23T19:04:31.270Z,0.77,OpenStreetMap,2022-06-21T02:15:07.000Z,,False
f76e7111-b44a-4d10-8541-d5f36588b4e4,Michael Wynn,doctor,"['podiatrist', 'health_and_medical']",a0ce75b6-d54b-47da-baf6-ce794c784932,,,,houston,TX,Kingwood,77339.0,24044 Highway 59 N,30.0638437,-95.2466615,meta,2025-06-02T07:00:00.000Z,0.9459263554653524,OpenStreetMap,2020-06-18T04:00:45.000Z,,False
e3a56d68-ea87-4f29-8765-14ef5000bcf1,WYNN Insurance Brokerage,insurance_agency,,3c2bcb28-5038-4474-b0fe-d45a96194fed,,,,albany,NY,Albany,12203.0,300 Great Oaks Blvd,42.681279,-73.8469086,meta,2025-06-02T07:00:00.000Z,0.296943231441048,OpenStreetMap,2021-02-06T14:06:25.000Z,,False
77166e78-94e2-49d1-a87c-5135e012c676,Vonn Wynn | Hair Studio,beauty_salon,"['hair_salon', 'cosmetic_and_beauty_supplies']",8b5ec472-c6bc-4584-a943-a598d6f92b97,,,,phoenix,AZ,Chandler,85226.0,3225 W Ray Rd,33.319311,-111.8978013,meta,2025-06-02T07:00:00.000Z,0.9415384615384615,OpenStreetMap,2021-09-11T03:13:15.000Z,,False
def49e53-6dc0-4a1f-82f9-8274aba007ad,The Wynn Network,audio_visual_equipment_store,"['electronics', 'computer_store']",f02a7fa4-6eda-4aeb-9b8c-ff9c316cbd53,,,,phoenix,AZ,Tempe,85282.0,5024 S Ash Ave,33.3793812,-111.9421591,meta,2025-06-02T07:00:00.000Z,0.8540983606557377,OpenStreetMap,2022-12-31T05:42:15.000Z,,False
4b8a62e5-0d8c-459b-9e50-1d2695dc0c3f,Wynn Ispa Nails,beauty_salon,"['beauty_and_spa', 'spas']",8e1b2769-a797-426b-9edb-4093c4ccd62f,,commercial,retail,phoenix,AZ,Mesa,85204.0,1116 S Stapley Dr,33.3945123,-111.8064815,meta,2025-06-02T07:00:00.000Z,0.9459263554653524,OpenStreetMap,2021-04-20T03:27:26.000Z,,False
f313360b-892e-48a9-9117-770883b3f22c,Wynn's Studio,arts_and_entertainment,"['bridal_shop', 'dance_club']",74fa7b20-34ed-4679-8dd1-293d385e6188,,,,phoenix,AZ,Scottsdale,85251.0,7350 E Stetson Dr,33.50004,-111.92226,meta,2025-06-02T07:00:00.000Z,0.5662921348314607,OpenStreetMap,2023-08-21T15:46:54.000Z,,False
eac9c1f7-06b3-476f-9c76-e9b374626185,Caffall Wynn C Dds,dentist,['professional_services'],,,,,phoenix,,,85204.0,1801 E Southern Ave,33.3929564,-111.7923009,meta,2025-06-02T07:00:00.000Z,0.9459263554653524,,,,False
31613747-6193-4ec8-9a9d-99cef3d5576f,Wilson & Wynn Intervention PLC,psychologist,"['counseling_and_mental_health', 'professional_services']",87f32ba3-0580-40a6-8bfa-55028b64777a,,,,grand-rapids,MI,Grand Rapids,49544.0,701 3 Mile Rd NW,43.0144367,-85.6867603,meta,2025-06-02T07:00:00.000Z,0.9459263554653524,OpenStreetMap,2022-11-28T01:18:03.000Z,,False
7c9251d2-cfd4-482b-ae9b-d406c3b63132,Wynn Nail Spa,nail_salon,"['beauty_and_spa', 'beauty_salon']",b91f7ac9-e84b-43cc-a8ce-20267cb5503b,,commercial,retail,dallas,TX,Desoto,75115.0,921 Belt Line Rd W,32.5919848,-96.8782024,meta,2025-06-02T07:00:00.000Z,0.9784508333782836,OpenStreetMap,2019-02-04T22:37:54.000Z,,False
9e08a7f7-1dae-4f27-b2a0-c2ee7a8d26e3,Wynn Nails & Spa,beauty_salon,"['beauty_and_spa', 'spas']",c8ae2d4e-10b3-41a3-bdd7-65d481d4e7f5,,commercial,commercial,dallas,TX,Dallas,75209.0,4560 W Mockingbird Ln,32.8359147,-96.8286358,meta,2025-06-02T07:00:00.000Z,0.9879256218304756,OpenStreetMap,2017-01-16T15:40:25.000Z,,False
f7818b25-3f3a-4f18-b727-f0f7d53820bf,Wynn Joyce Park,park,['attractions_and_activities'],8bec53f6-ea69-404f-adcd-e07dab37f255,,commercial,warehouse,dallas,,,75238.0,Wynn Joyce Park,32.888769,-96.703387,meta,2025-06-02T07:00:00.000Z,0.5662921348314607,OpenStreetMap,2017-01-23T20:39:08.000Z,,False
1a675752-48d0-47e6-adbb-a7373889789c,Win with Wynn,real_estate_agent,"['real_estate', 'insurance_agency']",4f3ce017-6dc5-479f-88e9-4933256ec4ed,,commercial,commercial,dallas,TX,Richardson,75080.0,501 W President George Bush Hwy,33.00244,-96.7265,meta,2025-06-02T07:00:00.000Z,0.3961437335670464,OpenStreetMap,2018-06-14T17:08:00.000Z,,False
7a18a875-8351-48c9-9656-b8a14421d3fa,Wynn Nail Spa Lucas,beauty_salon,"['spas', 'beauty_and_spa']",1653d737-834d-4197-b260-d81b9fcac35d,,,,dallas,TX,Allen,75002.0,"501 South Angel Parkway , ste 200",33.0911674,-96.6195685,meta,2025-06-02T07:00:00.000Z,0.7548172757475083,OpenStreetMap,2022-11-25T17:09:53.000Z,,False
5068d3cd-a416-4e5a-b73c-fd8de0d67d22,Gold Wynn,property_management,['professional_services'],b732900d-8cee-4ef1-8c73-5f07532fd471,,residential,apartments,tulsa,OK,Tulsa,74137.0,2505 E 88th St,36.0380188,-95.9517573,meta,2025-06-02T07:00:00.000Z,0.9784508333782836,OpenStreetMap,2020-10-05T04:47:09.000Z,,False
c2e33835-518d-476d-92dc-3cc5180553f7,Michael Wynn DDS,dentist,"['family_practice', 'doctor']",3b421c84-e61a-4624-89db-affbcb16735a,,,,tulsa,OK,Tulsa,74135.0,4608 S Harvard Ave,36.0967311,-95.9405365,meta,2025-06-02T07:00:00.000Z,0.9459263554653524,Microsoft ML Buildings,2019-03-21T00:00:00.000Z,,False
21532251-308c-4154-b547-f6f38bd69d87,William Wynn Ministries,church_cathedral,,e8acf43b-4ab7-4c14-a3f4-d9df9a6d24e6,,,,atlanta,GA,Jonesboro,30238.0,"1950 Highway 85, Suite J",33.5160173,-84.4293291,meta,2025-06-02T07:00:00.000Z,0.5662921348314607,OpenStreetMap,2021-07-25T06:52:03.000Z,,False
b7015ef3-2652-46c6-9941-6ae8ac8682c8,Jones Wynn Funeral Homes and Crematory,funeral_services_and_cemeteries,"['home_security', 'contractor']",02502fb9-601a-4393-a956-a3dcccb53993,,,,atlanta,GA,Douglasville,30135.0,2189 Midway Rd,33.7482987,-84.6987226,meta,2025-06-02T07:00:00.000Z,0.9784508333782836,OpenStreetMap,2021-12-09T14:06:59.000Z,,False
ed230d25-2954-49cd-bfdc-177d337c83a6,Wynn Co Care,senior_citizen_services,"['doctor', 'hospital']",8a09dc36-042b-4fe2-81a3-62017c96d208,,,,atlanta,GA,Norcross,30093.0,4845 Jimmy Carter Blvd,33.8915049,-84.194961,meta,2025-06-02T07:00:00.000Z,0.9415384615384615,OpenStreetMap,2021-01-01T23:42:17.000Z,,True
52dfe788-5c08-4117-82ce-37618539c77a,JUST WYNN,credit_and_debt_counseling,"['trusts', 'investing']",abe2d92d-23da-4646-b5ee-f4322a0c4862,,,,atlanta,GA,Atlanta,30338.0,1050 Crown Pointe Pkwy,33.9317191,-84.345414,meta,2025-06-02T07:00:00.000Z,0.909823677581864,OpenStreetMap,2016-11-04T02:52:52.000Z,,False
b0316588-4f24-421a-b1b8-4efff8156c95,Wynn Restoration,contractor,"['roofing', 'damage_restoration']",90987662-c3bd-4b93-9d34-55742ddb02ee,,,,atlanta,GA,Norcross,30071.0,2830 Simpson Cir,33.9633253,-84.1750455,meta,2025-06-02T07:00:00.000Z,0.8831168831168831,OpenStreetMap,2016-01-19T19:18:45.000Z,,False
177bb9e2-1636-4a5e-a7e2-59d261a50c87,Robert C. Wynn Baseball Field,stadium_arena,"['active_life', 'college_university']",,,,,sarasota-bradenton,,,34210.0,,27.4395414,-82.5943956,meta,2025-06-02T07:00:00.000Z,0.3961437335670464,,,,False
