id_left,primary_name_left,primary_category,alternate_category,id_right,primary_name_right,subtype,class,source_city,region,locality,zipcode,address,latitude,longitude,plc_source_dataset,plc_source_update_time,plc_source_confidence,bldg_dataset,bldg_update_time,bldg_confidence,is_office_by_pipeline
e80cc03f-a6cc-418d-8123-9058428f120f,Zions Beauty Supply,beauty_and_spa,"['cosmetic_and_beauty_supplies', 'beauty_salon']",3aa13bcd-aead-4e7c-a796-27a8c244db41,,commercial,retail,washington-dc,MD,Laurel,20723.0,9105 All Saints Rd,39.1216024,-76.8462573,meta,2025-06-02T07:00:00.000Z,0.9459263554653524,OpenStreetMap,2023-11-13T02:07:16.000Z,,False
69da0500-6002-4a4c-9c29-89212268dd8e,Zions Bank ATM,atms,,01c47179-5942-4694-b2c2-1156620fe205,,,,las-vegas,NV,Las Vegas,89148.0,7055 S Fort Apache Rd,36.05989,-115.300419,Microsoft,2021-12-20T21:48:48.893Z,0.77,OpenStreetMap,2019-07-16T15:34:12.000Z,,False
924e7f39-bf5f-4d59-b325-2947f97f94c2,Zions Security Alarms,security_systems,['home_security'],56264d2b-ba69-4a0e-981b-bf94a027d854,,,,stockton,CA,Stockton,95206.0,2250 Bayliner Dr,37.914893,-121.242102,Microsoft,2023-03-15T03:21:55.443Z,0.77,OpenStreetMap,2014-06-11T19:16:06.000Z,,False
2cbfa098-286b-477f-9053-3d6f0d19361c,Zions Legacy LLC,transportation,,b00cfffc-2524-4521-8b4c-a49fca74fb75,,,,orlando,FL,Orlando,32810.0,1800 Pembrook Dr,28.6321144,-81.4015806,meta,2025-06-02T07:00:00.000Z,0.8831168831168831,OpenStreetMap,2014-04-03T01:36:57.000Z,,False
638d2d43-3c5c-47ce-a3b9-a67b9a18e054,Zions Security Alarms - ADT Authorized Dealer,security_systems,,,,,,dallas,TX,Seagoville,75159.0,1234 Brittany Way,32.6613726,-96.5340197,Microsoft,2020-04-29T14:39:47.670Z,0.77,,,,False
4e93f78b-531a-4bfa-9898-060e7d43797c,Zions National Bank,bank_credit_union,"['banks', 'investing']",28fbb827-0f83-48d3-8d62-1ed8efa66a9f,,,,mission-viejo,CA,San Juan Capistrano,92675.0,32221 Camino Capistrano,33.494698,-117.662968,meta,2025-06-02T07:00:00.000Z,0.3961437335670464,OpenStreetMap,2022-12-05T22:21:23.000Z,,False
a498cf22-6b72-41bc-818d-a92cd86c9b7e,Zions Security Alarms,security_systems,['home_security'],9d7e4c05-3cfc-418f-bd29-4e7c5d5e366d,,,,san-diego,CA,El Cajon,92020.0,644 Prescott Ave,32.7881733,-116.9602,Microsoft,2023-03-15T17:40:35.120Z,0.77,Microsoft ML Buildings,2023-09-01T00:00:00.000Z,0.9890999794006348,False
65582148-70a0-4a40-b3b6-7d50c20b9e87,Zions Security Alarms - ADT Authorized Dealer,home_automation,['security_systems'],13c21cff-d1b4-4b31-b822-f27c28c7df2d,,,,san-diego,CA,Poway,92064.0,12537 Holland Pl,32.97036,-117.05864,Microsoft,2014-08-03T22:11:24.910Z,0.77,Esri Community Maps,2024-10-15T00:00:00.000Z,,False
04c177a8-ccd3-4a27-8803-5e1992f94455,Zions Bank ATM,atms,,3eca74d2-7755-4857-8f9d-3610350861d9,Methodist West Houston Hospital,medical,hospital,houston,TX,Houston,77094.0,18500 Katy Fwy.,29.7876518,-95.6982479,Microsoft,2021-12-20T21:48:46.630Z,0.77,OpenStreetMap,2018-09-29T20:13:42.000Z,,False
a3744114-cc60-4894-b2a9-8ce84ea40ccc,Zions Security Alarms,security_systems,['home_security'],5c7deeec-375c-46a7-96aa-f3538552caff,,,,houston,TX,Fresno,77545.0,1823 Seville Manor,29.543389,-95.479799,Microsoft,2023-03-13T20:11:01.013Z,0.77,Microsoft ML Buildings,2022-03-25T00:00:00.000Z,,False
82db5e49-34ff-4342-bbb4-80a2e2feb265,Zions Bank ATM,atms,,,,,,houston,TX,Houston,77031.0,10485 W Bellfort Ave,29.6507342,-95.5634551,Microsoft,2021-12-20T21:48:48.707Z,0.77,,,,False
02f6b1bf-4f83-402e-9f8c-0680b10cf09c,Zions Bank ATM,atms,,b04ddd25-f719-49e9-a1a8-e2f934582d8f,,,,houston,TX,Pearland,77584.0,11511 Shadow Creek Pkwy.,29.581601,-95.397765,Microsoft,2021-12-20T21:48:48.750Z,0.77,Microsoft ML Buildings,2022-03-25T00:00:00.000Z,,False
94702af1-5fc0-4859-9e93-b4f045c2ac78,Zions Bank ATM,atms,,,,,,houston,TX,Houston,77025.0,2727 W Holcombe Blvd.,29.7060636,-95.421502,Microsoft,2021-12-20T21:48:48.677Z,0.77,,,,False
137f43a5-0b40-478d-b928-9ec4bf97d2f6,Zions Bank ATM,atms,,e5d33f4f-d340-4943-b7e7-7e1e146641cd,,transportation,parking,houston,TX,Houston,77077.0,1390 Enclave Pkwy.,29.7586742,-95.6203447,Microsoft,2021-12-20T21:48:46.853Z,0.77,OpenStreetMap,2024-07-31T16:14:26.000Z,,False
9c4047e3-7d53-4b3a-9352-a3a5939a14c1,Zions Bank ATM,atms,,,,,,houston,TX,Houston,77027.0,4400 Post Oak Pkwy,29.7474825,-95.4517147,Microsoft,2021-12-20T21:48:46.670Z,0.77,,,,False
79a164b3-fa4f-47a8-b456-d2c314e385e6,Zions Bank ATM,atms,,,,,,houston,TX,Houston,77008.0,3300 W 11th St.,29.7893021,-95.4323902,Microsoft,2021-12-20T21:48:49.103Z,0.77,,,,False
a2107e5f-b51a-4362-966c-0f0d4743e29a,Zions Bank ATM,atms,,,,,,houston,TX,Houston,77002.0,711 Louisiana St,29.7603782,-95.3660335,Microsoft,2021-12-20T21:48:48.780Z,0.77,,,,False
4ecf7607-860b-45d1-b687-63300cf3f2f9,Zions Bank,bank_credit_union,"['financial_service', 'banks']",94dd481a-89f5-42ed-a547-ac3f5ec4bc05,,,,houston,TX,Webster,77598.0,450 El Dorado Blvd,29.559754,-95.143375,meta,2025-06-02T07:00:00.000Z,0.296943231441048,Microsoft ML Buildings,2022-03-25T00:00:00.000Z,,False
94161956-d987-46ff-9547-76ed40f1c47a,Zions Bank ATM,atms,,13aef18a-e199-4f69-a6c6-423d91af8976,,medical,hospital,houston,TX,Pasadena,77504.0,4000 Spencer Hwy.,29.661177,-95.183784,Microsoft,2021-12-20T21:48:47.420Z,0.77,OpenStreetMap,2019-06-30T18:12:06.000Z,,False
0bdb3d37-54b5-4301-a16c-12479aba09f3,Zions Bank ATM,atms,,,,,,houston,TX,Baytown,77520.0,1550 Garth Rd,29.7422182,-94.9798781,Microsoft,2021-12-20T21:48:47.463Z,0.77,,,,False
fc3facbd-e449-4768-a43d-d77dccd34165,Zions Bank ATM,atms,,,,,,houston,TX,Houston,77070.0,20171 Chasewood Park Dr,29.9891185,-95.5679827,Microsoft,2021-12-20T21:48:47.670Z,0.77,,,,False
54878fb0-5a7c-4fc0-bf74-291c0966ff20,Zions Bank ATM,atms,,,,,,houston,TX,Spring,77379.0,8707 Spring Cypress Rd,30.0339505,-95.553114,Microsoft,2021-12-20T21:48:46.550Z,0.77,,,,False
0b0e915f-473e-4415-bc20-5bdff8c89bd9,Zions Bank ATM,atms,,94ce85f3-2525-4f9d-a03a-46164c86ad78,,,,houston,TX,Conroe,77384.0,17200 St Lukes Way.,30.2053066,-95.458598,Microsoft,2021-12-20T21:48:46.430Z,0.77,Microsoft ML Buildings,2023-03-04T00:00:00.000Z,,False
e5bac229-c005-4049-8c4b-b4dba5c20e52,V'zions Barbershop,barber,"['beauty_salon', 'beauty_and_spa']",,,,,atlanta,GA,Alpharetta,30022.0,1000 North Point Cir,34.0477,-84.29499,meta,2025-06-02T07:00:00.000Z,0.7548172757475083,,,,False
1fb39866-6cf1-4daf-9650-4ed9d3d7360f,Zions Security Alarm,security_systems,['home_security'],928840dd-8df2-416a-8c38-36e3d61d9501,,,,tucson,AZ,Tucson,85742.0,3182 W Orbison St,32.363964,-111.035131,Microsoft,2023-03-13T19:47:50.230Z,0.77,Microsoft ML Buildings,2018-05-01T00:00:00.000Z,,False
bc8a991d-0259-473e-9df8-5c3730398ce6,Zions Security Alarms - ADT Authorized Dealer - Santa Monica,professional_services,,23afa4d7-81b9-47be-b36d-0b87ce6588f4,,residential,house,los-angeles,CA,Santa Monica,90405.0,2334 26th St,34.02077,-118.46089,meta,2025-06-02T07:00:00.000Z,0.2456896551724137,OpenStreetMap,2016-09-05T15:42:50.000Z,,False
3e3b1eef-c2b3-4594-bcd1-cd4c204cb949,Zions Security Alarms - ADT Authorized Dealer,auto_security,['automotive'],,,,,los-angeles,CA,Orange,92867.0,1421 N Wanda Rd Ste 120,33.8109307,-117.821972,Microsoft,2020-04-29T14:39:47.670Z,0.77,,,,False
cbb8ff1b-94d6-40ae-b69b-114f964902b7,Zions Security Alarms,security_systems,['home_security'],a0aac063-a699-44a4-b804-1d40570f5cfa,,,,phoenix,AZ,Scottsdale,85257.0,1502 N 85th St,33.4647592,-111.8982615,Microsoft,2023-03-15T03:36:45.800Z,0.77,OpenStreetMap,2021-10-14T14:49:58.000Z,,False
926d5fa5-cf35-4a84-af2a-5f5cea698693,Zions Security Alarms,security_systems,['home_security'],2ba97c9f-6c43-4118-9f9f-74ebe3e02a0a,,,,phoenix,AZ,Gilbert,85296.0,1410 S Mulberry St,33.324709,-111.729089,Microsoft,2023-03-13T20:07:15.597Z,0.77,OpenStreetMap,2023-07-13T18:00:36.000Z,,False
767d0f26-1322-44b9-988c-b7556ef09aa9,Zions Language Center,language_school,"['specialty_school', 'naturopathic_holistic']",2c90c304-cf69-4db3-ba36-70c57e3b1fbf,,,,miami,FL,Boca Raton,33432.0,150 E Palmetto Park Rd,26.35019,-80.08429,meta,2025-06-02T07:00:00.000Z,0.7548172757475083,OpenStreetMap,2019-11-11T19:37:15.000Z,,False
40d167f0-5419-4120-a588-590840c56a51,Zions Senior Center,senior_citizen_services,"['community_services_non_profits', 'public_service_and_government']",0b913b35-077b-4e8d-84b0-d3f8eccceca3,Zion Senior Center,,,denver,CO,Denver,80207.0,5151 E 33rd Ave,39.7640781,-104.9279869,meta,2025-06-02T07:00:00.000Z,0.9784508333782836,OpenStreetMap,2024-06-03T00:16:36.000Z,,False
da807ed5-19d9-44aa-b501-bc161554e088,Zions Bank,bank_credit_union,"['banks', 'financial_service']",e97ab7ed-874f-487f-8971-97ddc2a7a246,,,,boise-city,ID,Meridian,83642.0,3715 E Overland Rd,43.5899901,-116.3469423,meta,2025-06-02T07:00:00.000Z,0.9784508333782836,OpenStreetMap,2019-03-28T20:00:26.000Z,,False
537a264e-db74-432e-b0e0-ead2e588ae29,Zions Bank,banks,"['bank_credit_union', 'installment_loans']",c01172f0-e3ec-4ad6-8455-54bdad915092,Zions Bank,,,boise-city,ID,Boise,83713.0,6176 N Eagle Rd,43.6608713,-116.3538894,meta,2025-06-02T07:00:00.000Z,0.9784508333782836,OpenStreetMap,2024-01-17T09:53:56.000Z,,False
bcc01a6b-4972-4e28-bd3c-675c8b198e0a,Zions Bank Boise/Fairview & Cole Financial Center,bank_credit_union,,,,,,boise-city,ID,Boise,83704.0,7402 W Fairview Ave,43.620155334472656,-116.27458953857422,Microsoft,2015-12-02T22:17:00.737Z,0.77,,,,False
484e84b7-7313-4ce3-ad07-19acbfb9b1e8,Zions Bank,banks,"['bank_credit_union', 'installment_loans']",4df124d2-452a-49fa-9aec-1e6fbd9531e8,Eighth & Main,,,boise-city,ID,Boise,83702.0,800 W Main St,43.6158952,-116.203515,meta,2025-06-02T07:00:00.000Z,0.9784508333782836,OpenStreetMap,2024-04-03T03:11:05.000Z,,False
e5565e83-deb2-4498-a00d-a476e7e0c88e,Zions Security Alarms,home_security,"['key_and_locksmith', 'professional_services']",fe924149-0830-43fc-8920-109f79923f25,,,,sacramento,CA,Sacramento,95833.0,1740 Creekside Oaks Dr,38.6092952,-121.4989249,meta,2025-06-02T07:00:00.000Z,0.8860580325548478,OpenStreetMap,2013-01-17T17:39:41.000Z,,False
cf18f371-92f1-4f50-bbb2-c0228c41a827,Zions Bank,bank_credit_union,"['installment_loans', 'financial_service']",7906fe43-9f91-4905-bef9-eab29a7de872,Zion First National Bank,commercial,commercial,salt-lake-city,UT,Riverton,84065.0,3628 W 13400 S,40.5082808,-111.9772826,meta,2025-06-02T07:00:00.000Z,0.9784508333782836,OpenStreetMap,2023-08-11T15:34:33.000Z,,False
22b34656-3bda-4e2e-adb5-09b7cc7d6202,Zions Bank Stadium,professional_sports_team,"['stadium_arena', 'active_life', 'arts_and_entertainment']",c2adf42f-016a-42f5-85db-8d0d23fe81a8,,residential,apartments,salt-lake-city,UT,Herriman,84096.0,14787 S Academy Pkwy,40.51817321777344,-112.01305389404295,Microsoft,2019-11-07T18:37:32.507Z,0.77,OpenStreetMap,2020-02-29T18:26:58.000Z,,False
e6bf5899-b135-456f-8ae9-bee5d120ff1a,Zions Bank Daybreak,bank_credit_union,,,,,,salt-lake-city,UT,South Jordan,84009.0,4753 W Daybreak Pkwy,40.5464536,-112.0044115,Microsoft,2021-12-20T21:48:47.227Z,0.77,,,,False
47f5174c-0d9a-4913-ab35-c5e8ba610aa0,Zions Bank,bank_credit_union,"['installment_loans', 'financial_advising']",d8da840a-e74a-4527-ac08-af3f177ce1d1,Zions Bank,,,salt-lake-city,UT,West Jordan,84088.0,3913 W 9000 S,40.5874696,-111.9845272,meta,2025-06-02T07:00:00.000Z,0.9784508333782836,OpenStreetMap,2024-01-17T09:54:33.000Z,,False
43356dd6-4272-499f-8c45-bd41e21de1bd,Zions Bank Sandy/Southtowne,bank_credit_union,,,,,,salt-lake-city,UT,Sandy,84070.0,125 W 10600 S,40.5588575,-111.8944184,Microsoft,2021-12-20T21:48:47.253Z,0.77,,,,False
3196a878-be1d-41f3-8cd2-a62013a05ca5,Zions Bank South Jordan,bank_credit_union,"['financial_service', 'atms']",54c3624e-e877-42a9-af5c-1702a85e722b,Zions Bank,commercial,commercial,salt-lake-city,UT,South Jordan,84095.0,1622 W 10400 S,40.5626935,-111.9370187,meta,2025-06-02T07:00:00.000Z,0.9784508333782836,OpenStreetMap,2022-08-30T16:25:21.000Z,,False
468238ee-ba46-4b3e-a550-670d980c0387,Zions Bank Draper,bank_credit_union,,0752af9d-b225-488e-b3d0-7cafb52c350f,Zions Bank,,,salt-lake-city,UT,Draper,84020.0,12271 900 E,40.5272083,-111.8658864,Microsoft,2021-12-20T21:48:48.463Z,0.77,OpenStreetMap,2020-02-07T16:48:38.000Z,,False
2234ee16-18fd-4828-8945-2bbb5cc2fb2a,Zions Bank Sandy/90th South Financial Center,bank_credit_union,,,,,,salt-lake-city,UT,Sandy,84070.0,8955 S 700 E,40.58859252929688,-111.87100219726562,Microsoft,2015-10-06T18:38:28.737Z,0.77,,,,False
4a3346f0-aa55-4e3f-ba19-cf18935d934f,Zions Bank East Sandy,bank_credit_union,,5c709bee-6560-4c58-b159-c6fb817eb639,,,,salt-lake-city,UT,Sandy,84093.0,2079 E 9400 S,40.5808286,-111.8319943,Microsoft,2021-12-20T21:48:49.867Z,0.77,Microsoft ML Buildings,2023-09-25T00:00:00.000Z,0.9900000095367432,False
4a3346f0-aa55-4e3f-ba19-cf18935d934f,Zions Bank East Sandy,bank_credit_union,,e86b8bc3-ebb3-4f20-959e-484ae63b467f,,,,salt-lake-city,UT,Sandy,84093.0,2079 E 9400 S,40.5808286,-111.8319943,Microsoft,2021-12-20T21:48:49.867Z,0.77,Microsoft ML Buildings,2023-09-25T00:00:00.000Z,1.0,False
9b3f13af-3185-4922-9fab-619ae206e81e,Zions Bank Kearns,bank_credit_union,,,,,,salt-lake-city,UT,Kearns,84118.0,4135 W 5415 S,40.6527108,-111.9896231,Microsoft,2024-08-04T20:29:30.733Z,0.77,,,,False
4b68b1d9-2d80-4dce-8562-96a9cff7b8a0,Zions Bank Magna Financial Center,bank_credit_union,,d034428d-8d46-4ab9-ba36-61df5a3e2f70,Zions Bank,commercial,commercial,salt-lake-city,UT,Magna,84044.0,8375 W 3500 S,40.69578552246094,-112.09129333496094,Microsoft,2015-10-06T18:56:39.580Z,0.77,OpenStreetMap,2024-01-17T09:54:33.000Z,,False
e8ef5ede-df50-4860-ba12-4ccb4c97b15d,Zions Bank Bangerter Highway Financial Center,bank_credit_union,,5139048c-8237-4594-aa16-9d8e75e5b8b6,,,,salt-lake-city,UT,West Valley City,84120.0,3712 W 3500 S,40.69699478149414,-111.9796905517578,Microsoft,2015-10-07T17:33:28.920Z,0.77,OpenStreetMap,2022-04-08T14:18:24.000Z,,False
e1904a2d-d0fd-4177-9347-9754d7ad0abb,Zions Bank West Jordan/78th South,bank_credit_union,,,,,,salt-lake-city,UT,West Jordan,84088.0,1835 W 7800 S,40.6094666,-111.9415377,Microsoft,2021-12-20T21:48:50.000Z,0.77,,,,False
4f08daaa-c701-48d2-a9ad-fb920853c417,Zions Bank Summit Vista,bank_credit_union,,,,,,salt-lake-city,UT,Taylorsville,84129.0,3390 W Signal Peak Dr Ste 121,40.6418843,-111.9707168,Microsoft,2021-12-20T21:48:47.780Z,0.77,,,,False
495fa9c3-57a9-43fc-8d2a-704311669f76,Zions Bank Midvale,bank_credit_union,,,,,,salt-lake-city,UT,Midvale,84047.0,159 W Center St,40.6109248,-111.8964981,Microsoft,2024-08-04T20:28:54.873Z,0.77,,,,False
dc999bf4-9269-4d35-8faa-80206326631c,Zions First National Bank,bank_credit_union,"['banks', 'professional_services']",3d96c119-01f9-4a00-a8db-02b2a5c69cb6,,,,salt-lake-city,UT,Murray,84107.0,135 E 6100 S,40.63862,-111.88753,meta,2025-06-02T07:00:00.000Z,0.3376623376623376,OpenStreetMap,2017-12-20T20:45:40.000Z,,False
1ed5052d-7727-43fc-b90e-6afbd212ed55,Zions Bank Taylorsville,bank_credit_union,,,,,,salt-lake-city,UT,Taylorsville,84123.0,5482 S Redwood Rd,40.6514789,-111.93891,Microsoft,2021-12-20T21:48:48.070Z,0.77,,,,False
cd3e39e2-be6c-4135-83ce-1c65672ebbaf,Zions Bank Murray,bank_credit_union,,27c67e61-152e-49a1-b982-2bdf69f1350f,Zions Bank,commercial,commercial,salt-lake-city,UT,Murray,84107.0,5595 S State St,40.649811,-111.888186,Microsoft,2021-12-20T21:48:48.690Z,0.77,OpenStreetMap,2022-09-06T14:03:36.000Z,,False
2cd6cd86-7870-4cf4-b081-8a328e05b96a,Zions Bank ATM,atms,,b00e6003-eff2-415c-ad34-39f5e87f4929,J. L. Sorenson Patient Tower,medical,hospital,salt-lake-city,UT,Murray,84107.0,5121 S Cottonwood St,40.6603984,-111.8909316,Microsoft,2021-12-20T21:48:48.980Z,0.77,OpenStreetMap,2023-05-08T03:20:52.000Z,,False
e99a63c2-7d9a-4119-8117-e4e7eb239f27,Zions Bank Union Heights,bank_credit_union,,d5a34051-ee4d-4429-b247-6ccac875d9c5,Zions Bank,,,salt-lake-city,UT,Midvale,84047.0,7620 S Union Park Ave,40.6124345,-111.8563309,Microsoft,2021-12-20T21:48:49.297Z,0.77,OpenStreetMap,2024-01-17T09:53:56.000Z,,False
3039fe6a-a881-4ab0-985e-94df9185679b,Zions Bank Cottonwood Heights,bank_credit_union,,,,,,salt-lake-city,UT,Cottonwood Heights,84121.0,7015 S Highland Dr,40.6238867,-111.8342754,Microsoft,2021-12-20T21:48:49.270Z,0.77,,,,False
dda0d101-07c1-4d5b-8d40-eb0b69064e0c,Zions Bank Old Mill,bank_credit_union,,,,,,salt-lake-city,UT,Salt Lake City,84121.0,6510 S Big Cottonwood Canyon Rd,40.6321807,-111.8052873,Microsoft,2024-08-04T20:28:10.967Z,0.77,,,,False
0fc68cf9-fb74-4b8c-92bb-410e97c425e9,Zions Bank Premier Wealth Management,bank_credit_union,,,,,,salt-lake-city,UT,Holladay,84121.0,6510 S Big Cottonwood Canyon Rd,40.6330359,-111.8057207,Microsoft,2025-03-23T14:36:30.647Z,0.77,,,,False
dede6572-9474-4e5e-a4ed-96350b2a1975,Zions Bank 3900 South,bank_credit_union,,,,,,salt-lake-city,UT,Salt Lake City,84106.0,3880 S 700 E,40.6875285,-111.8714923,Microsoft,2021-12-20T21:48:48.527Z,0.77,,,,False
90121cc2-de42-44e5-b9b4-946cb584ba16,Zions Bank Holladay,bank_credit_union,,,,,,salt-lake-city,UT,Holladay,84117.0,4641 S 2300 E,40.6699782,-111.82458,Microsoft,2021-12-20T21:48:49.560Z,0.77,,,,False
0f1176c4-ed32-4ec4-ac93-ed5d76dbedff,Zions Bank,bank_credit_union,,0ad2d0aa-9626-483d-a107-f91496d5bbfd,Zions Bank,,,salt-lake-city,UT,Holladay,84117.0,4641 S 2300 E,40.6699583,-111.8242188,Microsoft,2025-05-17T05:18:39.080Z,0.77,OpenStreetMap,2025-03-06T18:30:24.000Z,,False
d9b17356-4f38-4c22-8302-98c3a5e2d6e5,Zions Bank West Valley City Financial Center,bank_credit_union,,,,,,salt-lake-city,UT,West Valley City,84119.0,2950 W 3500 S,40.696907,-111.962964,Microsoft,2021-12-20T21:48:49.500Z,0.77,,,,False
91f195f6-f604-4794-9e27-86261120361d,Zions Bank ATM,post_office,['atms'],534c4199-4062-48d5-b1ec-b80cf5a872c8,Maverik Center,,,salt-lake-city,UT,Salt Lake City,84119.0,3200 Decker Lake Dr,40.702692,-111.950487,Microsoft,2021-12-20T21:48:47.587Z,0.77,OpenStreetMap,2023-10-15T18:44:44.000Z,,False
625c7b75-2b62-4a3e-8d33-c709d7f2c216,Zions Bank Redwood Road Financial Center,bank_credit_union,,176170b6-7f0f-42d0-bcbd-27d0bc9046db,Zions Bank,commercial,commercial,salt-lake-city,UT,Salt Lake City,84104.0,1635 S Redwood Rd,40.73427200317383,-111.93829345703124,Microsoft,2015-10-07T17:27:17.690Z,0.77,OpenStreetMap,2022-08-11T00:14:32.000Z,,False
c77c4b4e-96fd-4cbb-bc21-2a95320b2b07,Zions Bank 21st South,bank_credit_union,,bbf0ff13-d98a-4e5e-aa42-0766cdb8d088,,outbuilding,roof,salt-lake-city,UT,Salt Lake City,84119.0,910 W 2100 S,40.7261115,-111.9174191,Microsoft,2021-12-20T21:48:49.823Z,0.77,OpenStreetMap,2019-09-23T15:45:43.000Z,,False
c77c4b4e-96fd-4cbb-bc21-2a95320b2b07,Zions Bank 21st South,bank_credit_union,,358c5fd9-1cec-4176-9e17-7504d7eb5d6c,,,,salt-lake-city,UT,Salt Lake City,84119.0,910 W 2100 S,40.7261115,-111.9174191,Microsoft,2021-12-20T21:48:49.823Z,0.77,OpenStreetMap,2019-09-23T15:45:43.000Z,,False
d2d92275-8ba0-4cc8-abd5-1ef4bf310f74,Zions Motel,hotel,"['motel', 'accommodation']",,,,,salt-lake-city,UT,Salt Lake City,84115.0,1829 S State St,40.7304611,-111.8876862,meta,2025-06-02T07:00:00.000Z,0.9784508333782836,,,,False
3fbb4810-f7c0-4d8f-823c-21da26eb5bd4,Utah Jazz Zions Bank Basketball Campus,active_life,"['basketball_court', 'sports_and_recreation_venue']",a1cd5765-cf70-46ef-97f4-a24601e0ac9c,,commercial,commercial,salt-lake-city,UT,Salt Lake City,84115.0,1420 S 500 W,40.7390339,-111.9064791,meta,2025-06-02T07:00:00.000Z,0.9784508333782836,OpenStreetMap,2018-08-14T06:20:00.000Z,,True
74e34334-d5ad-415c-af91-c1c5e6000efe,Zions Bank ATM,atms,,10826177-ee00-4f37-9539-28c900bd9cec,Smith's Ballpark,commercial,commercial,salt-lake-city,UT,South Salt Lake,84115.0,77 W 1300 S,40.741294,-111.892933,Microsoft,2021-12-20T21:48:48.647Z,0.77,OpenStreetMap,2018-08-14T06:20:00.000Z,,False
8d6fa4e7-595f-48fa-9d13-a52a0990babb,Zions Bank ATM,atms,,0ba4ad25-a42d-4986-810d-37c0d6599d20,Scott M. Matheson Courthouse,civic,,salt-lake-city,UT,Salt Lake City,84116.0,450 S State,40.759228,-111.888808,Microsoft,2021-12-20T21:48:48.950Z,0.77,OpenStreetMap,2024-06-01T21:14:36.000Z,,False
8b465367-d385-449a-8b01-1689a914a208,Zions Bank Broadway,bank_credit_union,,ad95b4d0-f468-433f-951c-3fae1ef56727,,commercial,office,salt-lake-city,UT,Salt Lake City,84101.0,310 S Main St,40.7624723,-111.8916454,Microsoft,2021-12-20T21:48:49.310Z,0.77,OpenStreetMap,2013-07-16T20:40:38.000Z,,True
2e3d4776-d7fd-4b75-8c6d-f4f680f245e1,Zions Direct,bank_credit_union,['professional_services'],ad95b4d0-f468-433f-951c-3fae1ef56727,,commercial,office,salt-lake-city,UT,Salt Lake City,84101.0,310 S Main St,40.7624829,-111.8913915,meta,2025-06-02T07:00:00.000Z,0.9300613496932516,OpenStreetMap,2013-07-16T20:40:38.000Z,,True
39f2ae32-b7b5-4b0b-8cf9-e032c68d8b87,Zions Credit Corporation,bank_credit_union,"['financial_service', 'installment_loans']",5ad84d5b-55e6-4cb0-9976-f3a2a31ddb99,,,,salt-lake-city,UT,Salt Lake City,84101.0,37 W 100 S,40.766799,-111.892542,meta,2025-06-02T07:00:00.000Z,0.242152466367713,OpenStreetMap,2024-09-27T19:26:45.000Z,,True
011295a9-6b9e-40f9-9f34-cf0651adaf26,Zions Bank First South Financial Center,bank_credit_union,,,,,,salt-lake-city,UT,Salt Lake City,84101.0,102 S Main St,40.76658248901367,-111.8922882080078,Microsoft,2015-10-06T18:52:16.310Z,0.77,,,,False
caa56090-5bd1-41db-b372-a5ede9ec633e,Zions Bank,bank_credit_union,"['financial_service', 'investing']",0b531c20-3cc7-40e1-b1fd-a382842183cc,Zions Bank Building,commercial,office,salt-lake-city,UT,Salt Lake City,84133.0,1 S Main St,40.769142,-111.890672,meta,2025-06-02T07:00:00.000Z,0.9784508333782836,OpenStreetMap,2025-01-24T23:36:30.000Z,,True
cc3e11c0-b8cb-4839-9ded-015753111a3c,Zions Bank Sugarhouse,bank_credit_union,,,,,,salt-lake-city,UT,Salt Lake City,84106.0,2200 S Highland Dr,40.7230745,-111.8589975,Microsoft,2024-08-04T20:32:20.237Z,0.77,,,,False
eb9d0f42-0391-44dc-a5a4-f95edbfb204e,Zions Bank East Millcreek,bank_credit_union,,02388c43-a549-46fc-8dd9-2afcdb1ae2a1,Zions Bank,,,salt-lake-city,UT,Salt Lake City,84109.0,3310 S 2300 E,40.699404,-111.8247281,Microsoft,2021-12-20T21:48:49.193Z,0.77,OpenStreetMap,2022-09-13T13:34:38.000Z,,False
fb2c017f-5248-4d28-9fe2-5af0d77a863f,Zions Bank Avenues,bank_credit_union,,,,,,salt-lake-city,UT,Salt Lake City,84111.0,455 E South Temple,40.7693514,-111.8779435,Microsoft,2024-04-26T07:52:14.030Z,0.77,,,,False
c85ae605-b9de-40e5-a794-a9785db63f92,Zions Bank 7th East,bank_credit_union,,,,,,salt-lake-city,UT,Salt Lake City,84102.0,701 E 400 S,40.7607646,-111.8705656,Microsoft,2021-12-20T21:48:48.403Z,0.77,,,,False
b626c0ec-152f-4d04-be6b-637c5a2a7f17,Zions Bank ATM,atms,,26be79b7-6c12-4a40-90a7-5fe716b190d6,,commercial,commercial,salt-lake-city,UT,Salt Lake City,84103.0,402 E 6th Ave,40.7754904,-111.8768225,Microsoft,2021-12-20T21:48:48.810Z,0.77,OpenStreetMap,2025-05-08T20:48:54.000Z,,False
d6dd58e7-ae9b-4c65-b109-42f65a03962f,Zions Bank ATM,atms,,fb633cec-23b4-4372-8218-32f2b1ec56fd,Olpin Union Building,education,university,salt-lake-city,UT,Salt Lake City,84112.0,200 S Central Campus Dr,40.765058,-111.8457656,Microsoft,2021-12-20T21:48:47.497Z,0.77,OpenStreetMap,2024-03-07T01:53:07.000Z,,False
1a9907ce-5b7d-4bc4-a11d-8c4e323af410,Zions Bank Foothill,bank_credit_union,,d5898c69-311f-481c-b299-d9ebf40c239e,Zions Bank,commercial,commercial,salt-lake-city,UT,Salt Lake City,84108.0,1304 Foothill Dr,40.7411732,-111.8274161,Microsoft,2024-08-04T20:32:19.623Z,0.77,OpenStreetMap,2024-01-17T09:53:56.000Z,,False
51e4ea81-1a5f-403f-8996-94c329ee5a94,Zions Bank Rose Park,bank_credit_union,,e8064366-c8e8-4ef0-b710-434e759228bd,Zions Bank,commercial,commercial,salt-lake-city,UT,Salt Lake City,84116.0,787 N Redwood Rd,40.786298,-111.939915,Microsoft,2024-08-04T20:28:51.537Z,0.77,OpenStreetMap,2022-09-10T01:42:21.000Z,,False
37882486-9a0a-446b-a898-0b75e87ee5c9,Zions Bank,bank_credit_union,,,,,,salt-lake-city,UT,Salt Lake City,84116.0,787 N Redwood Rd,40.7863301,-111.93939,Microsoft,2025-03-23T14:36:30.647Z,0.77,,,,False
5d2806fb-6c33-45f6-9223-c51a571cf735,Zions Security Alarms,security_systems,['home_security'],cdc3359e-6cdd-4531-b049-bff0facb22d2,,,,salt-lake-city,UT,Salt Lake City,84116.0,1660 W 800 N Apt 2,40.7873341,-111.9385524,Microsoft,2023-03-15T03:12:45.787Z,0.77,Microsoft ML Buildings,2023-09-25T00:00:00.000Z,0.9883999824523926,False
0bae5960-ff26-478b-b6e8-a35e8bb1e66f,Zions Security Alarms,home_security,"['business_manufacturing_and_supply', 'information_technology_company']",b4bc98aa-5b70-4aec-9c6d-a17e709429d1,,,,provo,UT,American Fork,84003.0,495 W 30 N,40.3775766,-111.8116438,meta,2025-06-02T07:00:00.000Z,0.9300613496932516,Microsoft ML Buildings,2023-09-25T00:00:00.000Z,0.973900020122528,False
e0d76608-dfe8-40d7-882f-ece6fa2d6754,Zions Security Alarms ADT Authorized Dealer,security_systems,['home_security'],a75ada04-33da-4199-80d7-db5d401ca923,,,,provo,UT,Lehi,84043.0,3032 N 1120 W,40.425819,-111.867149,Microsoft,2014-08-03T22:07:35.623Z,0.77,OpenStreetMap,2024-10-05T05:38:51.000Z,,False
a86c126d-b6c0-4f4c-93e2-2025141ce6b2,Zions Bank Lehi,bank_credit_union,,,,,,provo,UT,Lehi,84043.0,620 E Main St,40.3881436,-111.8392968,Microsoft,2024-08-04T20:29:33.630Z,0.77,,,,False
6eba45fc-2c1f-45dc-8344-c2a79a3e4dbd,Zions Bank Timpanogus Highway,bank_credit_union,,,,,,provo,UT,Lehi,84043.0,1432 E W 3500 North St,40.4316511,-111.8268209,Microsoft,2021-12-20T21:48:48.543Z,0.77,,,,False
0de9d72b-3c7b-4f13-b123-b836bafed044,Zions Bank Provo Region Office,bank_credit_union,"['arts_and_entertainment', 'topic_concert_venue']",06964ef2-1e4a-44a1-bef1-a31e199b9126,,,,provo,UT,Provo,84601.0,111 N Freedom Blvd,40.2361573,-111.6583854,meta,2025-06-02T07:00:00.000Z,0.3961437335670464,OpenStreetMap,2019-03-18T17:06:51.000Z,,False
5cccdd2b-12e8-4906-9b9e-c7c1fefc3c22,Zions Bank Provo/University,bank_credit_union,,ee4882f1-0590-4822-9506-9a785fd51989,Zions Bank,,,provo,UT,Provo,84604.0,1060 N University Ave,40.2481286,-111.6583187,Microsoft,2021-12-20T21:48:50.183Z,0.77,OpenStreetMap,2024-01-17T09:53:56.000Z,,False
b5b7f557-f858-4dc2-9c9d-548a932a565b,Zions Bank ATM,atms,,b30d64b2-0f43-4152-a2b8-be3be0e008df,,,,provo,UT,Provo,84604.0,1034 N 500 W,40.2499304,-111.6647217,Microsoft,2021-12-20T21:48:46.917Z,0.77,OpenStreetMap,2016-07-15T17:38:05.000Z,,False
0296ddf6-ff52-4a1e-954f-c704d19bd8c4,Zions Bank ATM,atms,,21e63801-b011-4a23-8f86-baa0063763fd,Woodbury Business Building,education,university,provo,UT,Orem,84058.0,800 W University Pkwy,40.2773503,-111.7129554,Microsoft,2021-12-20T21:48:47.717Z,0.77,OpenStreetMap,2024-08-29T21:58:14.000Z,,False
3d32e2f5-a480-4d9f-a00f-6ac5334de0a8,Zions Bank Orem/Wasatch Financial Center,bank_credit_union,,,,,,provo,UT,Orem,84097.0,1220 S 800 E,40.27498245239258,-111.67644500732422,Microsoft,2015-10-07T16:08:00.357Z,0.77,,,,False
cc86b475-0ea5-42ed-9ebc-8195162f2322,Zions Bank ATM,atms,,0d7e704a-e4c5-4908-806c-ab134591f538,S1,,,provo,UT,Provo,84604.0,2005 N 900 E,40.260499,-111.644657,Microsoft,2021-12-20T21:48:47.510Z,0.77,OpenStreetMap,2023-03-04T00:49:54.000Z,,False
aa7d2076-f2c9-41ba-9f6a-0aedb5ceb2c9,Zions Bank Orem Financial Center,bank_credit_union,,370cbfeb-abab-4184-b1c3-a698891fd8d5,Zions Bank,,,provo,UT,Orem,84057.0,462 W 800 N,40.312591552734375,-111.70733642578124,Microsoft,2015-10-07T17:03:31.787Z,0.77,OpenStreetMap,2024-01-17T09:53:56.000Z,,False
057a6ce9-0ad6-451c-a122-f7b247890053,Zions Bank American Fork Financial Center,bank_credit_union,,,,,,provo,UT,American Fork,84003.0,606 E State Rd,40.37318006157875,-111.78242661058904,Microsoft,2015-10-06T18:45:19.597Z,0.77,,,,False
1e6ee994-5f89-4551-9add-7f3ca88dc3c1,Zions Bank Pleasant Grove,bank_credit_union,['appliance_repair_service'],,,,,provo,UT,Pleasant Grove,84062.0,225 S Main St,40.3608402,-111.7407185,Microsoft,2024-08-04T20:29:01.177Z,0.77,,,,False
2cfa54b0-34f7-44fb-97fc-e86ed40b83e6,Zions Bank ATM,atms,,,,,,colorado-springs,CO,Colorado Springs,80906.0,3225 Broadmoor Valley Rd,38.7854849,-104.8247812,Microsoft,2021-12-20T21:48:46.763Z,0.77,,,,False
5b23c3ad-c5ee-4b6c-b7e7-d363b4c11111,Zions Security Alarms,security_systems,['home_security'],0874946b-a2aa-4507-a225-eb635b278c1f,,residential,apartments,colorado-springs,CO,Colorado Springs,80909.0,2585 E Pikes Peak Ave T203,38.831595,-104.780898,Microsoft,2023-03-15T03:23:24.990Z,0.77,OpenStreetMap,2015-12-10T01:52:27.000Z,,False
54ddd929-92e2-486d-8e0d-992af09b2b81,Zions Security Alarms - ADT Authorized Dealer,security_systems,['home_security'],,,,,ogden,UT,Ogden,84401.0,2928 Grant Ave Apt 2B,41.2115095,-111.9735316,Microsoft,2020-04-29T14:39:47.670Z,0.77,,,,False
8016df04-ea21-4bb2-b50e-55d443a16b07,Zions Bank South Ogden Financial Center,bank_credit_union,,,,,,ogden,UT,South Ogden,84403.0,5635 Harrison Blvd,41.15143966674805,-111.93968963623048,Microsoft,2015-10-07T17:29:26.100Z,0.77,,,,False
37c8de04-6da8-49dd-8951-c693e758356c,Zions Bank South Ogden,bank_credit_union,"['installment_loans', 'financial_service']",1a2d04a1-b194-4d30-b9e2-75ca7248652c,,,,ogden,UT,South Ogden,84403.0,5635 Harrison Blvd,41.1614167,-111.940818,meta,2025-06-02T07:00:00.000Z,0.9784508333782836,OpenStreetMap,2011-04-09T06:13:03.000Z,,False
22fbfa24-ebf6-4b22-983a-e831b6810ec2,Zions Bank ATM,atms,,052ad26b-f8c0-4534-92b6-fab4053635e5,McKay-Dee Hospital,medical,hospital,ogden,UT,Ogden,84403.0,4401 Harrison Blvd,41.184285,-111.953723,Microsoft,2021-12-20T21:48:47.480Z,0.77,OpenStreetMap,2024-07-08T17:15:16.000Z,,False
60277083-6374-490a-979c-8d9348a4ab80,Zions Bank,bank_credit_union,"['installment_loans', 'financial_service']",d43ebcfa-a9d6-4bb7-829b-227ec90fc29d,,commercial,office,ogden,UT,Ogden,84401.0,2302 Washington Blvd,41.2246482,-111.9701903,meta,2025-06-02T07:00:00.000Z,0.9784508333782836,OpenStreetMap,2024-01-28T21:26:21.000Z,,True
73f56d94-b8ca-4c5c-b700-c6a1e5e0bbf6,Zions Bank North Ogden,bank_credit_union,,,,,,ogden,UT,North Ogden,84414.0,2284 N 400 E,41.2999637,-111.9687881,Microsoft,2024-08-04T20:30:06.563Z,0.77,,,,False
5e101fd4-4080-4614-bf70-dbdf6fdcbbc1,Zions Window Cleaning,windows_installation,"['home_cleaning', 'home_service']",,,,,ogden,,,84414.0,2484 750 E St,41.3036293,-111.9564242,meta,2025-06-02T07:00:00.000Z,0.8540983606557377,,,,False
